{"timezone":"Africa/Ndjamena","countries":{"Chad":[{"city":"N'Djamena","state":"N’Djaména","population":1359526,"lat":12.10672,"lng":15.0444},{"city":"Moundou","state":"Logone Occidental","population":196124,"lat":8.57437,"lng":16.07722},{"city":"Abéché","state":"Ouadaï","population":139983,"lat":13.82916,"lng":20.8324},{"city":"Sarh","state":"Moyen-Chari","population":138928,"lat":9.14555,"lng":18.38331},{"city":"Kelo","state":"Tandjilé","population":82677,"lat":9.30859,"lng":15.80658},{"city":"Am Timan","state":"Salamat","population":74691,"lat":11.0433,"lng":20.28342},{"city":"Doba","state":"Logone Oriental","population":70942,"lat":8.66389,"lng":16.85324},{"city":"Pala","state":"Mayo-Kebbi Ouest","population":70677,"lat":9.3646,"lng":14.90725},{"city":"Bongor","state":"Mayo-Kebbi Est","population":63699,"lat":10.28088,"lng":15.37425},{"city":"Goz Beida","state":"Sila","population":58941,"lat":12.22643,"lng":21.40983},{"city":"Koumra","state":"Mandoul","population":54109,"lat":8.91587,"lng":17.55046},{"city":"Mongo","state":"Guéra","population":53768,"lat":12.18514,"lng":18.6884},{"city":"Bol","state":"Lac","population":51389,"lat":13.46729,"lng":14.71352},{"city":"Mao","state":"Kanem","population":50681,"lat":14.12286,"lng":15.31189},{"city":"Déressia","state":"Tandjilé","population":50113,"lat":9.7602,"lng":16.2698},{"city":"Iriba","state":"Wadi Fira","population":47972,"lat":15.11667,"lng":22.25},{"city":"Faya-Largeau","state":"Borkou","population":44011,"lat":17.9257,"lng":19.10428},{"city":"Bitkine","state":"Guéra","population":41871,"lat":11.9801,"lng":18.2138},{"city":"Bébédja","state":"Logone Oriental","population":40289,"lat":8.6761,"lng":16.566},{"city":"Massakory","state":"Hadjer-Lamis","population":39944,"lat":12.99809,"lng":15.73195},{"city":"Umm Hājar","state":"Batha","population":37941,"lat":13.2954,"lng":19.6966},{"city":"Moussoro","state":"Barh el Gazel","population":35100,"lat":13.64436,"lng":16.48954},{"city":"Biltine","state":"Wadi Fira","population":33540,"lat":14.52727,"lng":20.92603},{"city":"Léré","state":"Mayo-Kebbi Ouest","population":32721,"lat":9.6447,"lng":14.2151},{"city":"Fianga","state":"Mayo-Kebbi Est","population":31668,"lat":9.9146,"lng":15.1399},{"city":"Goré","state":"Logone Oriental","population":30936,"lat":8.65,"lng":16.51667},{"city":"Ati","state":"Batha","population":29867,"lat":13.2138,"lng":18.3393},{"city":"Amdjarass","state":"Ennedi-Est","population":29793,"lat":16.06666,"lng":22.83536},{"city":"Gounou Gaya","state":"Mayo-Kebbi Est","population":29742,"lat":9.6294,"lng":15.5132},{"city":"Massaguet","state":"Hadjer-Lamis","population":28401,"lat":12.47554,"lng":15.43647},{"city":"Laï","state":"Tandjilé","population":27071,"lat":9.3972,"lng":16.30066},{"city":"Bokoro","state":"Hadjer-Lamis","population":26095,"lat":12.37813,"lng":17.05876},{"city":"Guelendeng","state":"Mayo-Kebbi Est","population":23320,"lat":10.91762,"lng":15.55011},{"city":"Kyabé","state":"Moyen-Chari","population":22806,"lat":9.45149,"lng":18.94493},{"city":"Adré","state":"Ouadaï","population":21950,"lat":13.46648,"lng":22.19875},{"city":"Maro","state":"Mandoul","population":21274,"lat":9.22349,"lng":17.71018},{"city":"Mandelia","state":"Chari-Baguirmi","population":19373,"lat":11.73017,"lng":15.24468},{"city":"Dourbali","state":"Chari-Baguirmi","population":18604,"lat":11.80617,"lng":15.8669},{"city":"Benoy","state":"Logone Occidental","population":17285,"lat":8.98327,"lng":16.31991},{"city":"Moïssala","state":"Mandoul","population":17281,"lat":8.3404,"lng":17.7663},{"city":"Fada","state":"Ennedi-Ouest","population":17240,"lat":17.19186,"lng":21.58081},{"city":"Mboursou Léré","state":"Mayo-Kebbi Ouest","population":17132,"lat":9.7639,"lng":14.1539},{"city":"Bousso","state":"Chari-Baguirmi","population":16732,"lat":10.48473,"lng":16.71076},{"city":"Mangalmé","state":"Guéra","population":15939,"lat":12.3546,"lng":19.6139},{"city":"Bédiondo","state":"Mandoul","population":15841,"lat":8.62891,"lng":17.18643},{"city":"Béré","state":"Tandjilé","population":15431,"lat":9.3202,"lng":16.1552},{"city":"Baïbokoum","state":"Logone Oriental","population":13217,"lat":7.74231,"lng":15.68999},{"city":"Ngama","state":"Hadjer-Lamis","population":13087,"lat":11.78729,"lng":17.15925},{"city":"Melfi","state":"Guéra","population":12924,"lat":11.0598,"lng":17.9355},{"city":"Beïnamar","state":"Logone Occidental","population":12901,"lat":8.6698,"lng":15.3813},{"city":"Ngama","state":"Chari-Baguirmi","population":12438,"lat":11.78333,"lng":17.16667},{"city":"Krim Krim","state":"Logone Occidental","population":11294,"lat":8.97225,"lng":15.80359},{"city":"Abou Déïa","state":"Salamat","population":10749,"lat":11.448,"lng":19.2789},{"city":"Goundi","state":"Mandoul","population":10577,"lat":9.36267,"lng":17.36597},{"city":"Ngouri","state":"Logone Occidental","population":10487,"lat":8.5135,"lng":16.00682},{"city":"Ounianga Kébir","state":"Ennedi-Ouest","population":10000,"lat":19.05263,"lng":20.48887},{"city":"Bodo","state":"Chari-Baguirmi","population":9598,"lat":11.78701,"lng":15.71496},{"city":"Kirdimi","state":"Borkou","population":9345,"lat":18.15223,"lng":18.5385},{"city":"Béboto","state":"Logone Oriental","population":9321,"lat":8.26681,"lng":16.93898},{"city":"Abdi","state":"Ouadaï","population":9190,"lat":12.8,"lng":21.3},{"city":"Haraze","state":"Salamat","population":8799,"lat":9.93969,"lng":20.90524},{"city":"Nokou","state":"Kanem","population":8792,"lat":14.57901,"lng":14.7793},{"city":"Am Dam","state":"Sila","population":7729,"lat":12.76667,"lng":20.48333},{"city":"Yao","state":"Batha","population":7639,"lat":12.8488,"lng":17.55656},{"city":"Salal","state":"Barh el Gazel","population":7139,"lat":14.8439,"lng":17.2254},{"city":"Guéréda","state":"Wadi Fira","population":6598,"lat":14.51667,"lng":22.08333},{"city":"Massenya","state":"Chari-Baguirmi","population":4611,"lat":11.40345,"lng":16.17037},{"city":"Bardaï","state":"Tibesti","population":4078,"lat":21.35468,"lng":17.00158},{"city":"Aozou","state":"Tibesti","population":1880,"lat":21.8375,"lng":17.4275},{"city":"Mondo","state":"Kanem","population":1608,"lat":13.78224,"lng":15.5352},{"city":"Goz Béïda","state":"Ouadaï","population":1500,"lat":13.94563,"lng":20.5468},{"city":"Zouar","state":"Tibesti","population":1237,"lat":20.45833,"lng":16.52778},{"city":"Vadanakallu","state":"Lac","population":1000,"lat":14.17869,"lng":14.17869},{"city":"Rig-Rig","state":"Kanem","population":600,"lat":14.26471,"lng":14.35216}]}}