{"timezone":"Africa/Algiers","countries":{"Algeria":[{"city":"Algiers","state":"Algiers","population":2364230,"lat":36.73225,"lng":3.08746},{"city":"Oran","state":"Oran","population":803329,"lat":35.69906,"lng":-0.63588},{"city":"Constantine","state":"Constantine","population":448028,"lat":36.365,"lng":6.61472},{"city":"Annaba","state":"Annaba","population":342703,"lat":36.9,"lng":7.76667},{"city":"Blida","state":"Blida","population":331779,"lat":36.47004,"lng":2.8277},{"city":"Batna City","state":"Batna","population":289504,"lat":35.55597,"lng":6.17414},{"city":"Bab Ezzouar","state":"Algiers","population":275630,"lat":36.72615,"lng":3.18291},{"city":"Djelfa","state":"Djelfa","population":265833,"lat":34.67279,"lng":3.263},{"city":"Sétif","state":"Sétif","population":252127,"lat":36.19112,"lng":5.41373},{"city":"Sidi Bel Abbes","state":"Sidi Bel Abbès","population":210146,"lat":35.18994,"lng":-0.63085},{"city":"Biskra","state":"Biskra","population":204661,"lat":34.85038,"lng":5.72805},{"city":"Tébessa","state":"Tébessa","population":194461,"lat":35.40417,"lng":8.12417},{"city":"El Oued","state":"El Oued","population":186525,"lat":33.35608,"lng":6.86319},{"city":"Skikda","state":"Skikda","population":182903,"lat":36.87617,"lng":6.90921},{"city":"Tiaret","state":"Tiaret","population":178915,"lat":35.37103,"lng":1.31699},{"city":"Chlef","state":"Chlef","population":178616,"lat":36.16525,"lng":1.33452},{"city":"Béjaïa","state":"Béjaïa","population":176139,"lat":36.75587,"lng":5.08433},{"city":"Tlemcen","state":"Tlemcen","population":173531,"lat":34.87833,"lng":-1.315},{"city":"Ouargla","state":"Ouargla","population":169928,"lat":31.94932,"lng":5.32502},{"city":"Béchar","state":"Béchar","population":165241,"lat":31.61667,"lng":-2.21667},{"city":"Mostaganem","state":"Mostaganem","population":162885,"lat":35.93115,"lng":0.08918},{"city":"Bordj Bou Arreridj","state":"Bordj Bou Arréridj","population":158812,"lat":36.07389,"lng":4.76139},{"city":"El Achir","state":"Bordj Bou Arréridj","population":158333,"lat":36.06386,"lng":4.62744},{"city":"Souk Ahras","state":"Souk Ahras","population":153479,"lat":36.28639,"lng":7.95111},{"city":"Médéa","state":"Medea","population":145441,"lat":36.26417,"lng":2.75393},{"city":"El Eulma","state":"Sétif","population":145380,"lat":36.15281,"lng":5.69016},{"city":"Touggourt","state":"Touggourt","population":143270,"lat":33.11083,"lng":6.07},{"city":"Ghardaïa","state":"Ghardaia","population":142913,"lat":32.49094,"lng":3.67347},{"city":"Saïda","state":"Saida","population":142497,"lat":34.83033,"lng":0.15171},{"city":"Laghouat","state":"Laghouat","population":134372,"lat":33.8,"lng":2.86514},{"city":"M'Sila","state":"M'Sila","population":132975,"lat":35.70889,"lng":4.53722},{"city":"Jijel","state":"Jijel","population":131513,"lat":36.821,"lng":5.76352},{"city":"Relizane","state":"Relizane","population":123255,"lat":35.73734,"lng":0.55599},{"city":"Bordj el Kiffan","state":"Algiers","population":123246,"lat":36.74871,"lng":3.19249},{"city":"Guelma","state":"Guelma","population":120004,"lat":36.46214,"lng":7.42608},{"city":"Rouiba","state":"Algiers","population":117558,"lat":36.73829,"lng":3.28079},{"city":"Aïn Beïda","state":"Oum el Bouaghi","population":116064,"lat":35.79639,"lng":7.39278},{"city":"Khenchela","state":"Khenchela","population":114472,"lat":35.43583,"lng":7.14333},{"city":"Bou Saâda","state":"M'Sila","population":111787,"lat":35.20855,"lng":4.17402},{"city":"Mascara","state":"Mascara","population":108629,"lat":35.39664,"lng":0.14027},{"city":"Baraki","state":"Algiers","population":105402,"lat":36.66655,"lng":3.09606},{"city":"Tizi Ouzou","state":"Tizi Ouzou","population":104312,"lat":36.71182,"lng":4.04591},{"city":"Barika","state":"Batna","population":98141,"lat":35.38901,"lng":5.36584},{"city":"Aïn Oussera","state":"Djelfa","population":98107,"lat":35.45139,"lng":2.90583},{"city":"Messaad","state":"Djelfa","population":97091,"lat":34.15429,"lng":3.50309},{"city":"Aflou","state":"Laghouat","population":93585,"lat":34.11279,"lng":2.10228},{"city":"Beni Mered","state":"Blida","population":92749,"lat":36.52389,"lng":2.86131},{"city":"El Khroub","state":"Constantine","population":90122,"lat":36.26333,"lng":6.69361},{"city":"Maghnia","state":"Tlemcen","population":87373,"lat":34.84969,"lng":-1.72753},{"city":"El Bayadh","state":"El Bayadh","population":85577,"lat":33.68318,"lng":1.01927},{"city":"Hamma Bouziane","state":"Constantine","population":83603,"lat":36.41205,"lng":6.59603},{"city":"Tamanghasset","state":"Tamanrasset","population":81752,"lat":22.785,"lng":5.52278},{"city":"Rouissat","state":"Ouargla","population":80784,"lat":31.92427,"lng":5.35018},{"city":"Khemis Miliana","state":"Aïn Defla","population":80512,"lat":36.26104,"lng":2.22015},{"city":"Hassi Bahbah","state":"Djelfa","population":77000,"lat":35.07109,"lng":3.0299},{"city":"Birkhadem","state":"Algiers","population":71722,"lat":36.71499,"lng":3.05002},{"city":"Sougueur","state":"Tiaret","population":71036,"lat":35.18568,"lng":1.49612},{"city":"Aïn Temouchent","state":"Aïn Témouchent","population":70810,"lat":35.29749,"lng":-1.14037},{"city":"Bir el Ater","state":"Tébessa","population":70749,"lat":34.74488,"lng":8.06024},{"city":"Bouïra","state":"Bouira","population":68545,"lat":36.37489,"lng":3.902},{"city":"Adrar","state":"Adrar","population":68276,"lat":27.87429,"lng":-0.29388},{"city":"Bir el Djir","state":"Oran","population":68032,"lat":35.72,"lng":-0.545},{"city":"Oum el Bouaghi","state":"Oum el Bouaghi","population":67201,"lat":35.87541,"lng":7.11353},{"city":"Sidi Aïssa","state":"M'Sila","population":66856,"lat":35.88548,"lng":3.77236},{"city":"Besbes","state":"El Tarf","population":66287,"lat":36.70222,"lng":7.84722},{"city":"Cheria","state":"Tébessa","population":66160,"lat":35.27306,"lng":7.75194},{"city":"Tissemsilt","state":"Tissemsilt","population":66084,"lat":35.60722,"lng":1.81081},{"city":"Aïn M’Lila","state":"Oum el Bouaghi","population":65371,"lat":36.03687,"lng":6.57219},{"city":"Mecheria","state":"Naama","population":65043,"lat":33.54453,"lng":-0.28117},{"city":"Ali Mendjeli","state":"Constantine","population":64120,"lat":36.2459,"lng":6.5671},{"city":"Mila","state":"Mila","population":63251,"lat":36.45028,"lng":6.26444},{"city":"Mohammadia","state":"Mascara","population":62410,"lat":35.58861,"lng":0.06861},{"city":"Kolea","state":"Tipaza","population":61643,"lat":36.63888,"lng":2.76845},{"city":"Sig","state":"Mascara","population":61373,"lat":35.52832,"lng":-0.19369},{"city":"District of Taher","state":"Jijel","population":60426,"lat":36.772,"lng":5.8982},{"city":"Ech Chettia","state":"Chlef","population":60170,"lat":36.19591,"lng":1.25537},{"city":"Ksar el Boukhari","state":"Medea","population":59634,"lat":35.88889,"lng":2.74905},{"city":"Guerara","state":"Ghardaia","population":58572,"lat":32.79211,"lng":4.49949},{"city":"Ouled Djellal","state":"Ouled Djellal","population":58481,"lat":34.43,"lng":5.06139},{"city":"Larbaâ","state":"Blida","population":58295,"lat":36.56471,"lng":3.15434},{"city":"Arzew","state":"Oran","population":58162,"lat":35.85048,"lng":-0.318},{"city":"El Menia","state":"El Menia","population":57344,"lat":30.57556,"lng":2.88417},{"city":"Boufarik","state":"Blida","population":57162,"lat":36.57413,"lng":2.91214},{"city":"Boudouaou","state":"Boumerdes","population":56398,"lat":36.72735,"lng":3.40995},{"city":"Berrouaghia","state":"Medea","population":55775,"lat":36.13516,"lng":2.91085},{"city":"Aïn Touta","state":"Batna","population":55736,"lat":35.37675,"lng":5.90001},{"city":"Oued Rhiou","state":"Relizane","population":55430,"lat":35.96124,"lng":0.91896},{"city":"Aïn Defla","state":"Aïn Defla","population":55259,"lat":36.26405,"lng":1.9679},{"city":"Drean","state":"El Tarf","population":55147,"lat":36.68482,"lng":7.75111},{"city":"Reghaïa","state":"Algiers","population":54962,"lat":36.73587,"lng":3.34018},{"city":"Boghni","state":"Tizi Ouzou","population":54666,"lat":36.54222,"lng":3.95306},{"city":"Chelghoum el Aïd","state":"Mila","population":54495,"lat":36.16286,"lng":6.16651},{"city":"Assi Bou Nif","state":"Oran","population":53700,"lat":35.69222,"lng":-0.49944},{"city":"Mansoûra","state":"Tlemcen","population":52285,"lat":34.86158,"lng":-1.33935},{"city":"En Nedjma","state":"Oran","population":51665,"lat":35.64785,"lng":-0.5695},{"city":"Ksar Chellala","state":"Tiaret","population":51451,"lat":35.21222,"lng":2.31889},{"city":"Aïn Oulmene","state":"Sétif","population":51207,"lat":35.92296,"lng":5.29604},{"city":"Tolga","state":"Biskra","population":50575,"lat":34.72224,"lng":5.37845},{"city":"Frenda","state":"Tiaret","population":49376,"lat":35.06544,"lng":1.04945},{"city":"Aïn Fakroun","state":"Oum el Bouaghi","population":48804,"lat":35.97108,"lng":6.87374},{"city":"Guemar","state":"El Oued","population":48413,"lat":33.48529,"lng":6.79693},{"city":"Merouana","state":"Batna","population":47646,"lat":35.63106,"lng":5.91186},{"city":"Aïn Sefra","state":"Naama","population":47415,"lat":32.75,"lng":-0.58333},{"city":"Ouenza","state":"Tébessa","population":47312,"lat":35.95333,"lng":8.12917},{"city":"Khemis el Khechna","state":"Boumerdes","population":46965,"lat":36.64997,"lng":3.3308},{"city":"Douéra","state":"Algiers","population":46266,"lat":36.67,"lng":2.94444},{"city":"El Milia","state":"Jijel","population":45945,"lat":36.75472,"lng":6.2725},{"city":"Tindouf","state":"Tindouf","population":45610,"lat":27.67111,"lng":-8.14743},{"city":"Sedrata","state":"Souk Ahras","population":45300,"lat":36.12868,"lng":7.53376},{"city":"Sidi Amar","state":"Annaba","population":45148,"lat":36.82019,"lng":7.71641},{"city":"Râs el Oued","state":"Bordj Bou Arréridj","population":44947,"lat":35.9441,"lng":5.03107},{"city":"Bordj Menaïel","state":"Boumerdes","population":44572,"lat":36.74328,"lng":3.7173},{"city":"Oued Fodda","state":"Chlef","population":44523,"lat":36.18503,"lng":1.53299},{"city":"Hassi Messaoud","state":"Ouargla","population":44478,"lat":31.68041,"lng":6.07286},{"city":"Boû Arfa","state":"Blida","population":44143,"lat":36.46298,"lng":2.81464},{"city":"Sour el Ghozlane","state":"Bouira","population":43985,"lat":36.14766,"lng":3.69123},{"city":"Miliana","state":"Aïn Defla","population":43366,"lat":36.30554,"lng":2.2248},{"city":"Lakhdaria","state":"Bouira","population":42886,"lat":36.56463,"lng":3.5933},{"city":"Tadjenanet","state":"Mila","population":41833,"lat":36.12129,"lng":5.9867},{"city":"Tazoult-Lambese","state":"Batna","population":41636,"lat":35.48171,"lng":6.26074},{"city":"Draa el Mizan","state":"Tizi Ouzou","population":41263,"lat":36.53628,"lng":3.8334},{"city":"Timizart","state":"Tizi Ouzou","population":41158,"lat":36.8,"lng":4.26667},{"city":"Tebesbest","state":"Touggourt","population":41091,"lat":33.11667,"lng":6.08333},{"city":"Bou Ismaïl","state":"Tipaza","population":40984,"lat":36.64262,"lng":2.69007},{"city":"Meftah","state":"Blida","population":40878,"lat":36.6204,"lng":3.22248},{"city":"Souma","state":"Blida","population":40745,"lat":36.51833,"lng":2.90528},{"city":"Ouled Moussa","state":"Boumerdes","population":40692,"lat":36.68394,"lng":3.36661},{"city":"Rouached","state":"Mila","population":40263,"lat":36.45774,"lng":6.04267},{"city":"Héliopolis","state":"Guelma","population":40139,"lat":36.50361,"lng":7.44278},{"city":"Tighenif","state":"Mascara","population":39938,"lat":35.41722,"lng":0.32982},{"city":"Beni Saf","state":"Aïn Témouchent","population":39749,"lat":35.30099,"lng":-1.38226},{"city":"El Hadjira","state":"Ouargla","population":39744,"lat":32.61336,"lng":5.51259},{"city":"Metlili Chaamba","state":"Ghardaia","population":39588,"lat":32.26667,"lng":3.63333},{"city":"El Abiodh Sidi Cheikh","state":"El Bayadh","population":39283,"lat":32.893,"lng":0.54839},{"city":"El Meghaïer","state":"El Mghair","population":39106,"lat":33.95139,"lng":5.92222},{"city":"Es Senia","state":"Oran","population":39064,"lat":35.64779,"lng":-0.62397},{"city":"Sidi Khaled","state":"Ouled Djellal","population":38987,"lat":34.387,"lng":4.98785},{"city":"Bougara","state":"Blida","population":38352,"lat":36.54178,"lng":3.081},{"city":"Akbou","state":"Béjaïa","population":38291,"lat":36.4575,"lng":4.53494},{"city":"’Aïn Azel","state":"Sétif","population":37970,"lat":35.81846,"lng":5.51115},{"city":"Dar el Beïda","state":"Algiers","population":37311,"lat":36.71333,"lng":3.2125},{"city":"Aïn el Bya","state":"Oran","population":37241,"lat":35.80389,"lng":-0.30178},{"city":"Debila","state":"El Oued","population":36834,"lat":33.51667,"lng":6.95},{"city":"Chetouane","state":"Tlemcen","population":36776,"lat":34.92129,"lng":-1.29512},{"city":"Arris","state":"Batna","population":36641,"lat":35.25881,"lng":6.34706},{"city":"M’Daourouch","state":"Souk Ahras","population":36351,"lat":36.07821,"lng":7.8196},{"city":"’Aïn el Turk","state":"Oran","population":36326,"lat":35.74381,"lng":-0.7693},{"city":"’Aïn Deheb","state":"Tiaret","population":36146,"lat":34.84218,"lng":1.54697},{"city":"Sidi ech Chahmi","state":"Oran","population":35512,"lat":35.65903,"lng":-0.52168},{"city":"El Kala","state":"El Tarf","population":35449,"lat":36.89556,"lng":8.44333},{"city":"El Affroun","state":"Blida","population":35074,"lat":36.4701,"lng":2.62528},{"city":"Djamaa","state":"El Mghair","population":34920,"lat":33.53388,"lng":5.99306},{"city":"Makouda","state":"Tizi Ouzou","population":34515,"lat":36.78567,"lng":4.06273},{"city":"’Aïn Merane","state":"Chlef","population":34413,"lat":36.16277,"lng":0.97037},{"city":"Cherchell","state":"Tipaza","population":34372,"lat":36.605,"lng":2.19083},{"city":"Râs el Aïoun","state":"Batna","population":34167,"lat":35.67384,"lng":5.6453},{"city":"Bordj Ghdir","state":"Bordj Bou Arréridj","population":34136,"lat":35.90111,"lng":4.89806},{"city":"Beni Tamou","state":"Blida","population":33846,"lat":36.53833,"lng":2.82174},{"city":"Hadjout","state":"Tipaza","population":33830,"lat":36.51257,"lng":2.41382},{"city":"Azzaba","state":"Skikda","population":33766,"lat":36.73944,"lng":7.10528},{"city":"Beni Douala","state":"Tizi Ouzou","population":33611,"lat":36.61954,"lng":4.08282},{"city":"Aïn Taya","state":"Algiers","population":33575,"lat":36.79333,"lng":3.28694},{"city":"El Attaf","state":"Aïn Defla","population":33349,"lat":36.22393,"lng":1.67187},{"city":"El Arrouch","state":"Skikda","population":33085,"lat":36.65306,"lng":6.83639},{"city":"Reggane","state":"Adrar","population":32974,"lat":26.71576,"lng":0.1714},{"city":"El Aouinet","state":"Tébessa","population":32971,"lat":35.86691,"lng":7.88673},{"city":"’Aïn el Melh","state":"M'Sila","population":32880,"lat":34.84146,"lng":4.16383},{"city":"Gdyel","state":"Oran","population":32774,"lat":35.78111,"lng":-0.42581},{"city":"Kaïs","state":"Khenchela","population":32668,"lat":35.49474,"lng":6.92492},{"city":"Tamalous","state":"Skikda","population":32579,"lat":36.83763,"lng":6.64018},{"city":"Sebdou","state":"Tlemcen","population":32570,"lat":34.63703,"lng":-1.33143},{"city":"Aïn Bessem","state":"Bouira","population":32548,"lat":36.29333,"lng":3.67319},{"city":"In Salah","state":"In Salah","population":32518,"lat":27.19678,"lng":2.47913},{"city":"Aïn Smara","state":"Constantine","population":32057,"lat":36.2674,"lng":6.50135},{"city":"Djidiouia","state":"Relizane","population":31996,"lat":35.92989,"lng":0.82871},{"city":"Barbacha","state":"Béjaïa","population":31983,"lat":36.56667,"lng":4.96667},{"city":"Bougaa","state":"Sétif","population":31922,"lat":36.33293,"lng":5.08843},{"city":"’Aïn el Bell","state":"Djelfa","population":31916,"lat":34.34381,"lng":3.22475},{"city":"el hed","state":"Béjaïa","population":31890,"lat":36.65,"lng":4.77361},{"city":"Remchi","state":"Tlemcen","population":31837,"lat":35.06196,"lng":-1.43362},{"city":"Megarine","state":"Touggourt","population":31711,"lat":33.19195,"lng":6.08695},{"city":"Mehdia daira de meghila","state":"Tiaret","population":31396,"lat":35.43058,"lng":1.75714},{"city":"’Aïn Benian","state":"Algiers","population":31102,"lat":36.80277,"lng":2.92185},{"city":"Freha","state":"Tizi Ouzou","population":31068,"lat":36.75234,"lng":4.3155},{"city":"Sidi Moussa","state":"Algiers","population":30887,"lat":36.60637,"lng":3.08783},{"city":"L’Arbaa Naït Irathen","state":"Tizi Ouzou","population":30609,"lat":36.63112,"lng":4.19864},{"city":"Aïn Kercha","state":"Oum el Bouaghi","population":30575,"lat":35.92472,"lng":6.69528},{"city":"Oued Sly","state":"Chlef","population":30504,"lat":36.10124,"lng":1.19949},{"city":"Robbah","state":"El Oued","population":30446,"lat":33.27967,"lng":6.90984},{"city":"Bouinan","state":"Blida","population":30271,"lat":36.53167,"lng":2.99194},{"city":"Berriane","state":"Ghardaia","population":30170,"lat":32.82648,"lng":3.76689},{"city":"Meskiana","state":"Oum el Bouaghi","population":30071,"lat":35.63058,"lng":7.66606},{"city":"Lardjem","state":"Tissemsilt","population":30000,"lat":35.74922,"lng":1.54778},{"city":"El Idrissia","state":"Djelfa","population":29856,"lat":34.44542,"lng":2.52749},{"city":"Sidi Amrane","state":"El Mghair","population":29734,"lat":33.49885,"lng":6.00803},{"city":"Ahmed Bel Hadj","state":"Annaba","population":29629,"lat":36.80146,"lng":7.60811},{"city":"Mekla","state":"Tizi Ouzou","population":29560,"lat":36.68178,"lng":4.26378},{"city":"Sidi Okba","state":"Biskra","population":29499,"lat":34.74512,"lng":5.89833},{"city":"’Aïn Abid","state":"Constantine","population":29486,"lat":36.23194,"lng":6.94333},{"city":"N’Gaous","state":"Batna","population":29453,"lat":35.555,"lng":5.61056},{"city":"Draa Ben Khedda","state":"Tizi Ouzou","population":29403,"lat":36.73436,"lng":3.96223},{"city":"Collo","state":"Skikda","population":29354,"lat":37.00563,"lng":6.56049},{"city":"Ténès","state":"Chlef","population":29220,"lat":36.51076,"lng":1.30809},{"city":"Ouled Haddaj","state":"Boumerdes","population":29012,"lat":36.71461,"lng":3.3422},{"city":"Boumerdas","state":"Boumerdes","population":28996,"lat":36.76639,"lng":3.47717},{"city":"Zighout Youcef","state":"Constantine","population":28764,"lat":36.53307,"lng":6.71237},{"city":"Ain el Hadjel","state":"M'Sila","population":28728,"lat":35.67003,"lng":3.88153},{"city":"Boukadir","state":"Chlef","population":28652,"lat":36.06629,"lng":1.12602},{"city":"Mouzaïa","state":"Blida","population":28552,"lat":36.46695,"lng":2.68991},{"city":"Grarem","state":"Mila","population":28551,"lat":36.51611,"lng":6.32722},{"city":"Hammamet","state":"Tébessa","population":28536,"lat":35.44862,"lng":7.95184},{"city":"Ghazaouet","state":"Tlemcen","population":28433,"lat":35.09579,"lng":-1.85772},{"city":"Ben Mehidi","state":"El Tarf","population":28398,"lat":36.76967,"lng":7.90641},{"city":"’Aïn el Hammam","state":"Tizi Ouzou","population":28029,"lat":36.56471,"lng":4.30619},{"city":"Tizi Gheniff","state":"Tizi Ouzou","population":27974,"lat":36.58839,"lng":3.77445},{"city":"Sfizef","state":"Sidi Bel Abbès","population":27914,"lat":35.23464,"lng":-0.24435},{"city":"Cheraga","state":"Algiers","population":27835,"lat":36.76775,"lng":2.95924},{"city":"Nedroma","state":"Tlemcen","population":27742,"lat":35.01361,"lng":-1.74799},{"city":"Charef","state":"Djelfa","population":27700,"lat":34.62098,"lng":2.79503},{"city":"Theniet el Had","state":"Tissemsilt","population":27628,"lat":35.87111,"lng":2.02806},{"city":"Bou Hanifia el Hamamat","state":"Mascara","population":27576,"lat":35.31473,"lng":-0.05037},{"city":"Ouled Slama Fouaga","state":"Blida","population":27573,"lat":36.54828,"lng":3.11006},{"city":"Ammi Moussa","state":"Relizane","population":27530,"lat":35.86781,"lng":1.11143},{"city":"Oued Zenati","state":"Guelma","population":27441,"lat":36.31611,"lng":7.16364},{"city":"El Abadia","state":"Aïn Defla","population":27185,"lat":36.26951,"lng":1.68609},{"city":"Kerkera","state":"Skikda","population":27177,"lat":36.92917,"lng":6.58556},{"city":"Feidh el Botma","state":"Djelfa","population":26857,"lat":34.5,"lng":3.76667},{"city":"Birine","state":"Djelfa","population":26670,"lat":35.635,"lng":3.225},{"city":"Dar Chioukh","state":"Djelfa","population":26605,"lat":34.89638,"lng":3.48543},{"city":"Sidi Akkacha","state":"Chlef","population":26558,"lat":36.46472,"lng":1.30258},{"city":"Hennaya","state":"Tlemcen","population":26515,"lat":34.95139,"lng":-1.36806},{"city":"Azazga","state":"Tizi Ouzou","population":26515,"lat":36.74472,"lng":4.37222},{"city":"El Amria","state":"Aïn Témouchent","population":26407,"lat":35.52439,"lng":-1.01577},{"city":"Dellys","state":"Boumerdes","population":26384,"lat":36.91716,"lng":3.91311},{"city":"Tirmitine","state":"Tizi Ouzou","population":26261,"lat":36.65393,"lng":3.98143},{"city":"Telerghma","state":"Mila","population":26248,"lat":36.11653,"lng":6.35434},{"city":"Fedj M’Zala","state":"Mila","population":26176,"lat":36.40937,"lng":5.94463},{"city":"Bou Tlelis","state":"Oran","population":26144,"lat":35.57272,"lng":-0.8996},{"city":"Maâtkas","state":"Tizi Ouzou","population":26142,"lat":36.60466,"lng":3.98437},{"city":"Chellalat el Adhaouara","state":"Medea","population":26077,"lat":35.93968,"lng":3.41588},{"city":"El Hadjar","state":"Annaba","population":26060,"lat":36.80377,"lng":7.73684},{"city":"El Kseur","state":"Béjaïa","population":26050,"lat":36.67942,"lng":4.8555},{"city":"Hammam Bou Hadjar","state":"Aïn Témouchent","population":25912,"lat":35.37889,"lng":-0.96778},{"city":"Amizour","state":"Béjaïa","population":25825,"lat":36.64022,"lng":4.90131},{"city":"Didouche Mourad","state":"Constantine","population":25764,"lat":36.4525,"lng":6.63639},{"city":"Melouza","state":"M'Sila","population":25701,"lat":35.97999,"lng":4.18665},{"city":"Ouled Mimoun","state":"Tlemcen","population":25377,"lat":34.90472,"lng":-1.03394},{"city":"Aïn Arnat","state":"Sétif","population":25315,"lat":36.18683,"lng":5.31347},{"city":"Reguiba","state":"El Oued","population":25210,"lat":33.56391,"lng":6.70326},{"city":"Sidi Mérouane","state":"Mila","population":25129,"lat":36.52056,"lng":6.26111},{"city":"Abou el Hassan","state":"Chlef","population":24022,"lat":36.41657,"lng":1.19616},{"city":"Arhribs","state":"Tizi Ouzou","population":23958,"lat":36.79361,"lng":4.31158},{"city":"Sidi Abdelli","state":"Tlemcen","population":23543,"lat":35.06937,"lng":-1.13706},{"city":"Salah Bey","state":"Sétif","population":23339,"lat":35.85451,"lng":5.29053},{"city":"Chiffa","state":"Blida","population":23218,"lat":36.46293,"lng":2.73873},{"city":"Zeribet el Oued","state":"Biskra","population":23187,"lat":34.68284,"lng":6.51109},{"city":"Boumahra Ahmed","state":"Guelma","population":23022,"lat":36.45833,"lng":7.51389},{"city":"Oued el Abtal","state":"Mascara","population":22819,"lat":35.45595,"lng":0.68778},{"city":"Tizi-n-Tleta","state":"Tizi Ouzou","population":22404,"lat":36.54569,"lng":4.05712},{"city":"Mazouna","state":"Relizane","population":22366,"lat":36.12232,"lng":0.89865},{"city":"Mansourah","state":"Bordj Bou Arréridj","population":22117,"lat":36.08725,"lng":4.45192},{"city":"Timimoun","state":"Timimoun","population":22086,"lat":29.26417,"lng":0.23583},{"city":"Zemoura","state":"Relizane","population":21770,"lat":35.72251,"lng":0.75509},{"city":"Aoulef","state":"Adrar","population":21723,"lat":26.96667,"lng":1.08333},{"city":"Feraoun","state":"Béjaïa","population":21700,"lat":36.56041,"lng":4.85454},{"city":"Chemini","state":"Béjaïa","population":21585,"lat":36.6,"lng":4.61667},{"city":"Bensekrane","state":"Tlemcen","population":21283,"lat":35.07465,"lng":-1.22431},{"city":"Oued el Alleug","state":"Blida","population":21146,"lat":36.55528,"lng":2.79028},{"city":"Taïbet","state":"Touggourt","population":21000,"lat":33.08515,"lng":6.3891},{"city":"Tadmaït","state":"Tizi Ouzou","population":20952,"lat":36.74413,"lng":3.90045},{"city":"Boudjima","state":"Tizi Ouzou","population":20557,"lat":36.80218,"lng":4.15187},{"city":"Chorfa","state":"Bouira","population":20556,"lat":36.36505,"lng":4.32636},{"city":"Mers el Kebir","state":"Oran","population":20178,"lat":35.7279,"lng":-0.7081},{"city":"Chebli","state":"Blida","population":19901,"lat":36.57722,"lng":3.00917},{"city":"Seddouk","state":"Béjaïa","population":19884,"lat":36.54722,"lng":4.68611},{"city":"Beni Mester","state":"Tlemcen","population":19808,"lat":34.87045,"lng":-1.42319},{"city":"Bordj Zemoura","state":"Bordj Bou Arréridj","population":19782,"lat":36.27462,"lng":4.85668},{"city":"Chabet el Ameur","state":"Boumerdes","population":19522,"lat":36.63709,"lng":3.69474},{"city":"El Malah","state":"Aïn Témouchent","population":19415,"lat":35.39137,"lng":-1.09238},{"city":"Berrahal","state":"Annaba","population":19294,"lat":36.83528,"lng":7.45333},{"city":"Brezina","state":"El Bayadh","population":19084,"lat":33.09892,"lng":1.26082},{"city":"Babor","state":"Sétif","population":18445,"lat":36.48994,"lng":5.5393},{"city":"Beni Amrane","state":"Boumerdes","population":18414,"lat":36.66774,"lng":3.59115},{"city":"Tizi Rached","state":"Tizi Ouzou","population":17872,"lat":36.67176,"lng":4.19176},{"city":"Zeralda","state":"Algiers","population":17563,"lat":36.71169,"lng":2.84244},{"city":"Arbatache","state":"Boumerdes","population":17481,"lat":36.63773,"lng":3.37127},{"city":"Saoula","state":"Algiers","population":16812,"lat":36.70456,"lng":3.02462},{"city":"’Aïn el Berd","state":"Sidi Bel Abbès","population":16548,"lat":35.36395,"lng":-0.51279},{"city":"Thenia","state":"Boumerdes","population":16180,"lat":36.72544,"lng":3.55665},{"city":"Naciria","state":"Boumerdes","population":15387,"lat":36.74625,"lng":3.83163},{"city":"Tipasa","state":"Tipaza","population":15180,"lat":36.58972,"lng":2.44889},{"city":"Ighram","state":"Béjaïa","population":15030,"lat":36.46295,"lng":4.50532},{"city":"Naama","state":"Naama","population":14624,"lat":33.26667,"lng":-0.31667},{"city":"Bougzoul","state":"Medea","population":14095,"lat":35.70558,"lng":2.84599},{"city":"Aïn Lechiakh","state":"Aïn Defla","population":13745,"lat":36.15848,"lng":2.40514},{"city":"Abadla","state":"Béchar","population":13544,"lat":31.019,"lng":-2.72387},{"city":"El Tarf","state":"El Tarf","population":13346,"lat":36.7672,"lng":8.31377},{"city":"Illizi","state":"Illizi","population":13029,"lat":26.48333,"lng":8.46667},{"city":"’Aïn el Hadjar","state":"Saida","population":12996,"lat":34.75846,"lng":0.14528},{"city":"Ouzera","state":"Medea","population":12650,"lat":36.25417,"lng":2.84722},{"city":"’Aïn Boucif","state":"Medea","population":11989,"lat":35.89123,"lng":3.1585},{"city":"Sidi Ben Adda","state":"Aïn Témouchent","population":11695,"lat":35.30586,"lng":-1.18136},{"city":"Béni Abbès","state":"Beni Abbes","population":11416,"lat":30.13306,"lng":-2.16611},{"city":"Oumache","state":"Biskra","population":10424,"lat":34.69292,"lng":5.68092},{"city":"Hammam Righa","state":"Aïn Defla","population":8488,"lat":36.37972,"lng":2.39889},{"city":"Boumagueur","state":"Batna","population":8474,"lat":35.5052,"lng":5.5525},{"city":"Kasbate El Djena","state":"Adrar","population":8009,"lat":27.02,"lng":1.04536},{"city":"Sidi Senoussi سيدي سنوسي","state":"Tlemcen","population":7500,"lat":34.99691,"lng":-1.09449},{"city":"Draâ Esmar","state":"Medea","population":7465,"lat":36.27354,"lng":2.71695},{"city":"Aougrout","state":"Timimoun","population":7310,"lat":28.70289,"lng":0.33519},{"city":"Aghlal","state":"Aïn Témouchent","population":7146,"lat":35.20111,"lng":-1.06958},{"city":"Tilouline","state":"Adrar","population":6120,"lat":27.0391,"lng":-0.09396},{"city":"Zaouiet ed Debarh","state":"Timimoun","population":5915,"lat":29.69905,"lng":0.71274},{"city":"Tinerkouk","state":"Timimoun","population":5915,"lat":29.71583,"lng":0.71131},{"city":"Draa Klalouche","state":"Batna","population":5000,"lat":35.79234,"lng":5.97706},{"city":"Djebilet Rosfa","state":"Tiaret","population":4930,"lat":34.86375,"lng":0.83496},{"city":"Barbouche","state":"Aïn Defla","population":4897,"lat":36.10589,"lng":2.48185},{"city":"Tamentit","state":"Adrar","population":4835,"lat":27.7605,"lng":-0.25997},{"city":"Timiaouine","state":"Bordj Badji Mokhtar","population":4493,"lat":20.4408,"lng":1.80551},{"city":"Tidmaine","state":"Adrar","population":4442,"lat":27.08272,"lng":-0.10861},{"city":"In Zghmir","state":"Adrar","population":4442,"lat":27.09684,"lng":-0.11477},{"city":"Tit","state":"Adrar","population":4417,"lat":26.93602,"lng":1.49214},{"city":"Akabli","state":"Adrar","population":4409,"lat":26.70828,"lng":1.37528},{"city":"Smala","state":"Relizane","population":4000,"lat":35.71652,"lng":0.75437},{"city":"Sali","state":"Adrar","population":3948,"lat":26.96548,"lng":-0.04042},{"city":"Ouled Ahmed Timmi","state":"Adrar","population":3567,"lat":27.84157,"lng":-0.28895},{"city":"Oulad Saïd","state":"Timimoun","population":3357,"lat":29.42054,"lng":0.23876},{"city":"Fatis","state":"Timimoun","population":3209,"lat":29.73354,"lng":0.65851},{"city":"Tarhit Ouled Hellal","state":"Batna","population":3062,"lat":35.08111,"lng":6.33375},{"city":"Zaouia","state":"Adrar","population":3026,"lat":26.70201,"lng":1.38889},{"city":"Bouda","state":"Adrar","population":2349,"lat":28.00329,"lng":-0.42381},{"city":"Deldoul","state":"Timimoun","population":1748,"lat":28.76802,"lng":0.0534},{"city":"Charouine","state":"Timimoun","population":1536,"lat":29.01497,"lng":-0.2644},{"city":"Oulad Aïssa","state":"Timimoun","population":1350,"lat":29.41836,"lng":-0.08756},{"city":"Metarfa","state":"Timimoun","population":1262,"lat":28.58437,"lng":-0.15039},{"city":"Timokten","state":"Adrar","population":1255,"lat":27.01685,"lng":1.00654},{"city":"Tsabit","state":"Adrar","population":1224,"lat":28.35049,"lng":-0.22401},{"city":"Tamest","state":"Adrar","population":1133,"lat":27.42593,"lng":-0.24335},{"city":"Talmine","state":"Timimoun","population":1067,"lat":29.3291,"lng":-0.49746},{"city":"Ksar Kaddour","state":"Timimoun","population":1016,"lat":29.58875,"lng":0.37382},{"city":"Rouachdia","state":"Relizane","population":1000,"lat":35.7085,"lng":0.73055},{"city":"Berrahab","state":"Guelma","population":1000,"lat":36.20798,"lng":7.10265},{"city":"In Guezzam","state":"In Guezzam","population":0,"lat":19.57361,"lng":5.76806},{"city":"Djanet","state":"Djanet","population":0,"lat":24.55528,"lng":9.485},{"city":"Commune des Béni Bou Attab","state":"Chlef","population":0,"lat":35.99503,"lng":1.61751},{"city":"Ait Yahia","state":"Tizi Ouzou","population":0,"lat":36.58907,"lng":4.33505}]}}