{"timezone":"Africa/Sao_Tome","countries":{"Sao Tome and Principe":[{"city":"São Tomé","state":"São Tomé Island","population":53300,"lat":0.33756,"lng":6.7299},{"city":"Neves","state":"São Tomé Island","population":8391,"lat":0.35671,"lng":6.54897},{"city":"Água Izé","state":"São Tomé Island","population":7445,"lat":0.21953,"lng":6.72782},{"city":"Folha Fede","state":"São Tomé Island","population":6685,"lat":0.284,"lng":6.684},{"city":"Riboque","state":"São Tomé Island","population":4640,"lat":0.33525,"lng":6.72318},{"city":"Almas","state":"São Tomé Island","population":4601,"lat":0.29907,"lng":6.74467},{"city":"Pantufo","state":"São Tomé Island","population":3977,"lat":0.31503,"lng":6.74348},{"city":"Dona Eugénia","state":"São Tomé Island","population":3605,"lat":0.13982,"lng":6.61121},{"city":"São Marçal","state":"São Tomé Island","population":2866,"lat":0.31917,"lng":6.72608},{"city":"Rosema","state":"São Tomé Island","population":2587,"lat":0.3509,"lng":6.56948},{"city":"Agua Porca","state":"São Tomé Island","population":2048,"lat":0.33086,"lng":6.71058},{"city":"Bombom","state":"Príncipe","population":1754,"lat":0.31075,"lng":6.72816},{"city":"Almeirim","state":"São Tomé Island","population":1591,"lat":0.31666,"lng":6.71666},{"city":"Piedade","state":"São Tomé Island","population":1408,"lat":0.29581,"lng":6.66424},{"city":"Micolo","state":"São Tomé Island","population":1404,"lat":0.40314,"lng":6.68857},{"city":"Ribeira Afonso","state":"São Tomé Island","population":1300,"lat":0.196,"lng":6.701},{"city":"Changra","state":"São Tomé Island","population":1224,"lat":0.34985,"lng":6.68657},{"city":"Santo António","state":"Príncipe","population":1156,"lat":1.63943,"lng":7.41951},{"city":"Lemos","state":"São Tomé Island","population":1136,"lat":0.29922,"lng":6.69847},{"city":"Santo Amaro","state":"São Tomé Island","population":1063,"lat":0.36574,"lng":6.68855},{"city":"Cova Barro","state":"São Tomé Island","population":1026,"lat":0.31499,"lng":6.7383},{"city":"Micondo","state":"São Tomé Island","population":1022,"lat":0.17121,"lng":6.67729},{"city":"Riboque Santana","state":"São Tomé Island","population":1001,"lat":0.24745,"lng":6.7369},{"city":"Agostinho Neto","state":"São Tomé Island","population":992,"lat":0.36769,"lng":6.64396},{"city":"Belém","state":"São Tomé Island","population":932,"lat":0.30154,"lng":6.67423},{"city":"Monta Alegre","state":"São Tomé Island","population":913,"lat":0.30285,"lng":6.72292},{"city":"Batepá","state":"São Tomé Island","population":909,"lat":0.30061,"lng":6.66031},{"city":"Obolongo","state":"São Tomé Island","population":835,"lat":0.28999,"lng":6.69322},{"city":"Porto Alegre","state":"São Tomé Island","population":795,"lat":0.03449,"lng":6.53404},{"city":"Obo Izaquente","state":"São Tomé Island","population":795,"lat":0.32022,"lng":6.68935},{"city":"Margarida Manuel","state":"São Tomé Island","population":775,"lat":0.30252,"lng":6.71658},{"city":"Capela","state":"São Tomé Island","population":761,"lat":0.30663,"lng":6.67997},{"city":"Maianço","state":"São Tomé Island","population":749,"lat":0.34916,"lng":6.6742},{"city":"Boa Entrada","state":"São Tomé Island","population":738,"lat":0.35166,"lng":6.66321},{"city":"Diogo Simão","state":"São Tomé Island","population":703,"lat":0.31467,"lng":6.69432},{"city":"Ototó","state":"São Tomé Island","population":686,"lat":0.31782,"lng":6.66321},{"city":"Praia Morro Peixe","state":"São Tomé Island","population":685,"lat":0.40553,"lng":6.63847},{"city":"Monte Café","state":"São Tomé Island","population":684,"lat":0.30036,"lng":6.63977},{"city":"Desejada","state":"São Tomé Island","population":656,"lat":0.35619,"lng":6.67086},{"city":"Melhorada","state":"São Tomé Island","population":656,"lat":0.30645,"lng":6.71216},{"city":"Malanza","state":"São Tomé Island","population":645,"lat":0.04851,"lng":6.53774},{"city":"Diogo Vaz","state":"São Tomé Island","population":632,"lat":0.3171,"lng":6.49846},{"city":"Ponta Figo","state":"São Tomé Island","population":615,"lat":0.34551,"lng":6.54377},{"city":"Pété-Pété","state":"São Tomé Island","population":606,"lat":0.30093,"lng":6.73957},{"city":"Ribeira Peixe","state":"São Tomé Island","population":590,"lat":0.09038,"lng":6.61557},{"city":"Torres Dias","state":"São Tomé Island","population":585,"lat":0.30728,"lng":6.69628},{"city":"Bela Vista","state":"São Tomé Island","population":517,"lat":0.35927,"lng":6.68933},{"city":"Trindade","state":"São Tomé Island","population":0,"lat":0.29667,"lng":6.68139},{"city":"São João dos Angolares","state":"São Tomé Island","population":0,"lat":0.13417,"lng":6.64944},{"city":"Guadalupe","state":"São Tomé Island","population":0,"lat":0.37917,"lng":6.6375}]}}