{"timezone":"Africa/Brazzaville","countries":{"Republic of the Congo":[{"city":"Brazzaville","state":"Brazzaville","population":1982000,"lat":-4.26613,"lng":15.28318},{"city":"Pointe-Noire","state":"Pointe-Noire","population":1032000,"lat":-4.77609,"lng":11.86352},{"city":"Dolisie","state":"Niari","population":121000,"lat":-4.19834,"lng":12.66664},{"city":"Nkayi","state":"Bouenza","population":103000,"lat":-4.18396,"lng":13.2859},{"city":"Kayes","state":"Bouenza","population":58737,"lat":-4.20493,"lng":13.28608},{"city":"Impfondo","state":"Likouala","population":48939,"lat":1.61804,"lng":18.05981},{"city":"Ouesso","state":"Sangha","population":40667,"lat":1.61361,"lng":16.05167},{"city":"Owando","state":"Cuvette","population":35698,"lat":-0.48193,"lng":15.89988},{"city":"Sibiti","state":"Lékoumou","population":33122,"lat":-3.68192,"lng":13.34985},{"city":"Loutété","state":"Bouenza","population":27726,"lat":-4.29611,"lng":13.85083},{"city":"Bouansa","state":"Bouenza","population":27512,"lat":-4.21861,"lng":13.76167},{"city":"Gamboma","state":"Plateaux","population":26718,"lat":-1.87639,"lng":15.86444},{"city":"Loandjili","state":"Pointe-Noire","population":23204,"lat":-4.75611,"lng":11.85778},{"city":"Mossaka","state":"Cuvette","population":21809,"lat":-1.21982,"lng":16.79921},{"city":"Mindouli","state":"Likouala","population":20985,"lat":3.10278,"lng":18.51111},{"city":"Oyo","state":"Cuvette","population":20630,"lat":-1.165,"lng":15.97},{"city":"Makoua","state":"Cuvette","population":20550,"lat":0.00694,"lng":15.63333},{"city":"Loudima","state":"Bouenza","population":20391,"lat":-4.11616,"lng":13.06755},{"city":"Mossendjo","state":"Niari","population":19104,"lat":-2.94968,"lng":12.70423},{"city":"Mouyondzi","state":"Bouenza","population":18321,"lat":-3.99437,"lng":13.92719},{"city":"Bétou","state":"Likouala","population":16221,"lat":3.055,"lng":18.51722},{"city":"Djambala","state":"Plateaux","population":15372,"lat":-2.53806,"lng":14.7541},{"city":"Pokola","state":"Sangha","population":15102,"lat":1.405,"lng":16.31833},{"city":"Ngo","state":"Plateaux","population":14606,"lat":-2.48722,"lng":15.75556},{"city":"Makabana","state":"Niari","population":13401,"lat":-3.46333,"lng":12.60556},{"city":"Kinkala","state":"Pool","population":12411,"lat":-4.35859,"lng":14.76465},{"city":"Ewo","state":"Cuvette-Ouest","population":11750,"lat":-0.87465,"lng":14.81648},{"city":"Etoumbi","state":"Cuvette","population":11139,"lat":0.02889,"lng":14.90556},{"city":"Boundji","state":"Cuvette","population":10224,"lat":-1.02605,"lng":15.35914},{"city":"Dongou","state":"Likouala","population":10188,"lat":2.04806,"lng":18.05472},{"city":"Komono","state":"Lékoumou","population":9169,"lat":-3.2775,"lng":13.22611},{"city":"Kellé","state":"Cuvette-Ouest","population":9089,"lat":-0.0654,"lng":14.49959},{"city":"Enyellé","state":"Likouala","population":8697,"lat":2.8075,"lng":18.01167},{"city":"Kindamba","state":"Pool","population":8630,"lat":-3.7275,"lng":14.52111},{"city":"Nzassi","state":"Pointe-Noire","population":8585,"lat":-4.98111,"lng":12.03972},{"city":"Olombo","state":"Plateaux","population":7821,"lat":-1.2653,"lng":15.89996},{"city":"Loukoléla","state":"Cuvette","population":7602,"lat":-1.03806,"lng":17.11389},{"city":"Sémbé","state":"Sangha","population":7153,"lat":1.64806,"lng":14.58056},{"city":"Mbinda","state":"Niari","population":6335,"lat":-2.10778,"lng":12.87083},{"city":"Zanaga","state":"Lékoumou","population":5941,"lat":-2.85028,"lng":13.82611},{"city":"Ntokou-Raymondville","state":"Cuvette","population":5909,"lat":0.0,"lng":16.39083},{"city":"Lékana","state":"Plateaux","population":5828,"lat":-2.32528,"lng":14.6},{"city":"Mokéko","state":"Sangha","population":5758,"lat":1.56333,"lng":15.94111},{"city":"Divenié","state":"Niari","population":5739,"lat":-2.67722,"lng":12.08556},{"city":"Souanké","state":"Sangha","population":5693,"lat":2.05966,"lng":14.13219},{"city":"Kimongo","state":"Niari","population":4278,"lat":-4.475,"lng":12.9425},{"city":"Hinda","state":"Kouilou","population":3788,"lat":-4.61333,"lng":12.04361},{"city":"Epéna","state":"Likouala","population":3257,"lat":1.3525,"lng":17.4525},{"city":"Kibangou","state":"Kouilou","population":3069,"lat":-4.16667,"lng":12.06667},{"city":"Abala","state":"Pool","population":2584,"lat":-3.36,"lng":15.47583},{"city":"Ngabé","state":"Pool","population":2508,"lat":-3.21472,"lng":16.17361},{"city":"Mvouti","state":"Kouilou","population":2052,"lat":-4.24639,"lng":12.48889},{"city":"Mabombo","state":"Bouenza","population":1955,"lat":-3.97611,"lng":13.57694},{"city":"Boko","state":"Cuvette","population":1936,"lat":-0.42306,"lng":15.7475},{"city":"Baratier","state":"Pool","population":1936,"lat":-4.15417,"lng":14.90194},{"city":"Tchikapika","state":"Cuvette","population":1306,"lat":-1.26444,"lng":16.18028},{"city":"Madingou","state":"Bouenza","population":1153,"lat":-4.15361,"lng":13.55},{"city":"Boukiéro","state":"Brazzaville","population":504,"lat":-4.19861,"lng":15.285},{"city":"Loango","state":"Kouilou","population":0,"lat":-4.65602,"lng":11.81032}]}}