{"timezone":"Africa/Dar_es_Salaam","countries":{"Tanzania":[{"city":"Dar es Salaam","state":"Dar es Salaam Region","population":5383728,"lat":-6.82349,"lng":39.26951},{"city":"Mwanza","state":"Mwanza","population":1104521,"lat":-2.51667,"lng":32.9},{"city":"Dodoma","state":"Dodoma","population":765179,"lat":-6.17221,"lng":35.73947},{"city":"Zanzibar","state":"Zanzibar Urban/West","population":709809,"lat":-6.16394,"lng":39.19793},{"city":"Arusha","state":"Arusha","population":617631,"lat":-3.36667,"lng":36.68333},{"city":"Mbeya","state":"Mbeya","population":541603,"lat":-8.9,"lng":33.45},{"city":"Morogoro","state":"Morogoro","population":471409,"lat":-6.82102,"lng":37.66122},{"city":"Kahama","state":"Shinyanga","population":453654,"lat":-3.83333,"lng":32.6},{"city":"Tanga","state":"Tanga","population":393429,"lat":-5.06893,"lng":39.09875},{"city":"Geita","state":"Geita","population":318006,"lat":-2.8725,"lng":32.2325},{"city":"Tabora","state":"Tabora","population":308741,"lat":-5.01622,"lng":32.82663},{"city":"Sumbawanga","state":"Rukwa","population":303986,"lat":-7.96667,"lng":31.61667},{"city":"Songea","state":"Ruvuma","population":286285,"lat":-10.68333,"lng":35.65},{"city":"Kibaha","state":"Pwani","population":265360,"lat":-6.76667,"lng":38.91667},{"city":"Bariadi","state":"Simiyu","population":260927,"lat":-2.8,"lng":33.98333},{"city":"Kasulu","state":"Kigoma","population":238321,"lat":-4.57667,"lng":30.1025},{"city":"Singida","state":"Singida","population":232459,"lat":-4.81629,"lng":34.74358},{"city":"Kigoma","state":"Kigoma","population":232388,"lat":-4.87694,"lng":29.62667},{"city":"Moshi","state":"Kilimanjaro","population":221733,"lat":-3.35,"lng":37.33333},{"city":"Tunduma","state":"Songwe","population":219309,"lat":-9.3,"lng":32.76667},{"city":"Ifakara","state":"Morogoro","population":205843,"lat":-8.13333,"lng":36.68333},{"city":"Mpanda","state":"Katavi","population":204338,"lat":-6.34379,"lng":31.06951},{"city":"Iringa","state":"Iringa","population":202490,"lat":-7.76667,"lng":35.7},{"city":"Bunda","state":"Mara","population":182970,"lat":-2.02153,"lng":33.87109},{"city":"Musoma","state":"Mara","population":164172,"lat":-1.5,"lng":33.8},{"city":"Bukoba","state":"Kagera","population":144938,"lat":-1.33167,"lng":31.81222},{"city":"Mtwara","state":"Mtwara","population":140793,"lat":-10.26667,"lng":40.18333},{"city":"Shinyanga","state":"Shinyanga","population":139727,"lat":-3.66393,"lng":33.42118},{"city":"Tarime","state":"Mara","population":133043,"lat":-1.35,"lng":34.36667},{"city":"Nzega","state":"Tabora","population":125193,"lat":-4.21667,"lng":33.18333},{"city":"Makumbako","state":"Njombe","population":116232,"lat":-8.85,"lng":34.83333},{"city":"Sengerema","state":"Mwanza","population":110000,"lat":-2.66667,"lng":32.65},{"city":"Handeni","state":"Tanga","population":108968,"lat":-5.43333,"lng":38.01667},{"city":"Katumba","state":"Mbeya","population":108558,"lat":-9.23333,"lng":33.61667},{"city":"Mafinga","state":"Iringa","population":99305,"lat":-8.30019,"lng":35.29366},{"city":"Lindi","state":"Lindi","population":95096,"lat":-9.99709,"lng":39.71649},{"city":"Ushirombo","state":"Geita","population":95052,"lat":-3.49194,"lng":31.96389},{"city":"Njombe","state":"Njombe","population":92537,"lat":-9.34917,"lng":34.77167},{"city":"Kilosa","state":"Morogoro","population":91889,"lat":-6.83333,"lng":36.98333},{"city":"Masasi","state":"Mtwara","population":89700,"lat":-10.71667,"lng":38.8},{"city":"Vwawa","state":"Songwe","population":85000,"lat":-9.10806,"lng":32.93472},{"city":"Bagamoyo","state":"Pwani","population":82426,"lat":-6.44222,"lng":38.90422},{"city":"Kondoa","state":"Dodoma","population":80443,"lat":-4.9,"lng":35.78333},{"city":"Katoro","state":"Geita","population":75000,"lat":-2.99983,"lng":31.93261},{"city":"Vikindu","state":"Pwani","population":70000,"lat":-7.00667,"lng":39.29849},{"city":"Babati","state":"Manyara","population":67445,"lat":-4.21667,"lng":35.75},{"city":"Korogwe","state":"Tanga","population":62032,"lat":-5.15,"lng":38.48333},{"city":"Mbinga","state":"Ruvuma","population":60868,"lat":-10.93333,"lng":35.01667},{"city":"Uyovu","state":"Geita","population":60849,"lat":-3.28333,"lng":31.52583},{"city":"Buseresere","state":"Geita","population":52870,"lat":-3.04877,"lng":31.88542},{"city":"Chake Chake","state":"Pemba South","population":52047,"lat":-5.24586,"lng":39.76659},{"city":"Kibaigwa","state":"Dodoma","population":50054,"lat":-6.08125,"lng":36.64657},{"city":"Utengule","state":"Mbeya","population":50000,"lat":-8.9,"lng":33.33333},{"city":"Tukuyu","state":"Mbeya","population":50000,"lat":-9.25,"lng":33.65},{"city":"Masumbwe","state":"Geita","population":50000,"lat":-3.63333,"lng":32.18333},{"city":"Merelani","state":"Arusha","population":50000,"lat":-3.56182,"lng":36.97895},{"city":"Mbuguni","state":"Arusha","population":49801,"lat":-3.56667,"lng":36.95},{"city":"Tunduru","state":"Ruvuma","population":48000,"lat":-11.06667,"lng":37.35},{"city":"Kyela","state":"Mbeya","population":47000,"lat":-9.58333,"lng":33.85},{"city":"Mbulu","state":"Manyara","population":45384,"lat":-3.85,"lng":35.53333},{"city":"Ikwiriri","state":"Pwani","population":45000,"lat":-7.95618,"lng":38.97164},{"city":"Igunga","state":"Tabora","population":45000,"lat":-4.28333,"lng":33.88333},{"city":"Diobahika","state":"Geita","population":45000,"lat":-3.33907,"lng":31.52344},{"city":"Mwandege","state":"Pwani","population":45000,"lat":-6.97558,"lng":39.2893},{"city":"Nansio","state":"Mara","population":44000,"lat":-2.13333,"lng":33.05},{"city":"Rujewa","state":"Mbeya","population":42013,"lat":-8.7,"lng":34.38333},{"city":"Namanyere","state":"Rukwa","population":40000,"lat":-7.51667,"lng":31.05},{"city":"Mlowo","state":"Songwe","population":40000,"lat":-9.0,"lng":32.98333},{"city":"Mapinga","state":"Pwani","population":40000,"lat":-6.6,"lng":39.06667},{"city":"Geiro","state":"Morogoro","population":40000,"lat":-6.15,"lng":36.86667},{"city":"Dumila","state":"Morogoro","population":40000,"lat":-6.38395,"lng":37.34331},{"city":"Nguruka","state":"Kigoma","population":39135,"lat":-5.10917,"lng":31.04194},{"city":"Newala Kisimani","state":"Mtwara","population":38099,"lat":-10.95,"lng":39.28333},{"city":"Kidatu","state":"Morogoro","population":37542,"lat":-7.69916,"lng":36.95722},{"city":"Boma la Ngombe","state":"Kilimanjaro","population":37538,"lat":-3.33333,"lng":37.15},{"city":"Kidodi","state":"Morogoro","population":35953,"lat":-7.60361,"lng":37.00438},{"city":"Wete","state":"Pemba North","population":35951,"lat":-5.05589,"lng":39.72938},{"city":"Misungwi","state":"Mwanza","population":35530,"lat":-2.85,"lng":33.08333},{"city":"Magu","state":"Mwanza","population":35000,"lat":-2.59075,"lng":33.44619},{"city":"Mlimba","state":"Morogoro","population":34970,"lat":-8.8,"lng":35.81667},{"city":"Mafinga","state":"Iringa","population":34958,"lat":-7.25,"lng":35.06667},{"city":"Newala","state":"Mtwara","population":34862,"lat":-10.93333,"lng":39.3},{"city":"Chalinze","state":"Pwani","population":34335,"lat":-6.63784,"lng":38.35396},{"city":"Same","state":"Kilimanjaro","population":34322,"lat":-4.06667,"lng":37.73333},{"city":"Biharamulo","state":"Kagera","population":34038,"lat":-2.63194,"lng":31.30889},{"city":"Lushoto","state":"Tanga","population":34000,"lat":-4.78333,"lng":38.28333},{"city":"Somanda","state":"Simiyu","population":33932,"lat":-3.36667,"lng":33.95},{"city":"Kirando","state":"Rukwa","population":33111,"lat":-7.41667,"lng":30.6},{"city":"Tumbi","state":"Tabora","population":32900,"lat":-5.06667,"lng":32.73333},{"city":"Bugarama","state":"Kagera","population":32494,"lat":-2.87056,"lng":30.52806},{"city":"Ngudu","state":"Mwanza","population":32446,"lat":-2.96667,"lng":33.33333},{"city":"Urambo","state":"Tabora","population":31752,"lat":-5.06667,"lng":32.05},{"city":"Mvomero","state":"Pwani","population":31324,"lat":-6.25,"lng":38.66667},{"city":"Chanika","state":"Tanga","population":30905,"lat":-5.41667,"lng":38.01667},{"city":"Nungwi","state":"Zanzibar North","population":30762,"lat":-5.72651,"lng":39.2987},{"city":"Kibiti","state":"Pwani","population":30163,"lat":-7.72178,"lng":38.93749},{"city":"Mpwapwa","state":"Dodoma","population":30000,"lat":-6.35,"lng":36.48333},{"city":"Kisesa","state":"Mwanza","population":30000,"lat":-2.55,"lng":33.03333},{"city":"Chato","state":"Geita","population":30000,"lat":-2.63778,"lng":31.76694},{"city":"Kisesa","state":"Simiyu","population":29804,"lat":-3.08333,"lng":34.15},{"city":"Lukuledi","state":"Mtwara","population":29699,"lat":-10.56667,"lng":38.8},{"city":"Mlandizi","state":"Pwani","population":29394,"lat":-6.7,"lng":38.73333},{"city":"Ilula","state":"Iringa","population":29193,"lat":-7.6766,"lng":36.03658},{"city":"Mugumu","state":"Mara","population":29000,"lat":-1.85,"lng":34.7},{"city":"Kibondo","state":"Kigoma","population":28666,"lat":-3.58639,"lng":30.72028},{"city":"Mkuranga","state":"Pwani","population":28037,"lat":-7.11799,"lng":39.20782},{"city":"Shanwa","state":"Simiyu","population":28000,"lat":-3.16667,"lng":33.76667},{"city":"Bungu","state":"Pwani","population":27873,"lat":-7.63369,"lng":39.05818},{"city":"Kasamwa","state":"Geita","population":27681,"lat":-2.85,"lng":32.43333},{"city":"Sikonge","state":"Tabora","population":27113,"lat":-5.63333,"lng":32.76667},{"city":"Malinyi","state":"Morogoro","population":27041,"lat":-8.93333,"lng":36.13333},{"city":"Mtinko","state":"Singida","population":26725,"lat":-4.55,"lng":34.85},{"city":"Maramba","state":"Tanga","population":26531,"lat":-5.05,"lng":38.61667},{"city":"Magugu","state":"Manyara","population":26131,"lat":-4.01667,"lng":35.76667},{"city":"Matundasi","state":"Mbeya","population":26073,"lat":-8.45,"lng":33.28333},{"city":"Sokoni","state":"Zanzibar Central/South","population":25821,"lat":-6.43333,"lng":39.55},{"city":"Sepuka","state":"Singida","population":25657,"lat":-4.75,"lng":34.53333},{"city":"Luchingu","state":"Mtwara","population":25145,"lat":-10.9,"lng":39.33333},{"city":"Sirari","state":"Mara","population":25000,"lat":-1.25367,"lng":34.47596},{"city":"Manyoni","state":"Singida","population":25000,"lat":-5.75,"lng":34.83333},{"city":"Liwale","state":"Lindi","population":25000,"lat":-9.76667,"lng":37.93333},{"city":"Igurusi","state":"Mbeya","population":25000,"lat":-8.85,"lng":33.85},{"city":"Mhalamba","state":"Geita","population":25000,"lat":-2.5812,"lng":32.00991},{"city":"Shelui","state":"Singida","population":24817,"lat":-4.36667,"lng":34.2},{"city":"Chimala","state":"Mbeya","population":24817,"lat":-8.85637,"lng":34.02393},{"city":"Kakonko","state":"Kigoma","population":24688,"lat":-3.28278,"lng":30.96417},{"city":"Uvinza","state":"Kigoma","population":24650,"lat":-5.10361,"lng":30.39111},{"city":"Nyalikungu","state":"Simiyu","population":24648,"lat":-3.18333,"lng":33.78333},{"city":"Matai","state":"Rukwa","population":24070,"lat":-8.3,"lng":31.51667},{"city":"Itigi","state":"Singida","population":24000,"lat":-5.7,"lng":34.48333},{"city":"Ruaha","state":"Morogoro","population":24000,"lat":-7.65685,"lng":36.98299},{"city":"Makongolosi","state":"Mbeya","population":23787,"lat":-8.4,"lng":33.15},{"city":"Old Shinyanga","state":"Shinyanga","population":23747,"lat":-3.55,"lng":33.4},{"city":"Mkoani","state":"Pemba South","population":23719,"lat":-5.36667,"lng":39.65},{"city":"Mgandu","state":"Singida","population":23718,"lat":-5.95,"lng":34.13333},{"city":"Songwa","state":"Shinyanga","population":23618,"lat":-3.51667,"lng":33.51667},{"city":"Kiomboi","state":"Singida","population":23519,"lat":-4.26667,"lng":34.36667},{"city":"Kilindoni","state":"Pwani","population":23426,"lat":-7.91446,"lng":39.66204},{"city":"Mwadui","state":"Shinyanga","population":23296,"lat":-3.55,"lng":33.6},{"city":"Nangomba","state":"Mtwara","population":23028,"lat":-10.9,"lng":38.5},{"city":"Urunda","state":"Mbeya","population":23000,"lat":-8.65,"lng":34.3},{"city":"Kingori","state":"Arusha","population":22839,"lat":-3.28333,"lng":36.98333},{"city":"Igugunu","state":"Singida","population":22810,"lat":-4.56667,"lng":34.63333},{"city":"Chala","state":"Rukwa","population":22624,"lat":-7.58333,"lng":31.26667},{"city":"Lalago","state":"Simiyu","population":22551,"lat":-3.45,"lng":33.95},{"city":"Kigonsera","state":"Ruvuma","population":22155,"lat":-10.8,"lng":35.05},{"city":"Tinde","state":"Shinyanga","population":22082,"lat":-3.88333,"lng":33.2},{"city":"Rulenge","state":"Kagera","population":22069,"lat":-2.7175,"lng":30.6325},{"city":"Maswa","state":"Simiyu","population":22025,"lat":-2.68333,"lng":33.98333},{"city":"Mwanhuzi","state":"Simiyu","population":21664,"lat":-3.52723,"lng":34.31513},{"city":"Mhango","state":"Shinyanga","population":21553,"lat":-3.28333,"lng":32.85},{"city":"Kilwa Masoko","state":"Lindi","population":21519,"lat":-8.9251,"lng":39.5131},{"city":"Katesh","state":"Manyara","population":21462,"lat":-4.52483,"lng":35.3849},{"city":"Kiwira","state":"Mbeya","population":21342,"lat":-9.17307,"lng":33.54152},{"city":"Isaka","state":"Shinyanga","population":21094,"lat":-3.9,"lng":32.93333},{"city":"Usangi","state":"Kilimanjaro","population":21000,"lat":-3.7,"lng":37.66667},{"city":"Usa River","state":"Arusha","population":21000,"lat":-3.36667,"lng":36.85},{"city":"Hedaru","state":"Kilimanjaro","population":21000,"lat":-4.5,"lng":37.9},{"city":"Nachingwea","state":"Lindi","population":21000,"lat":-10.3725,"lng":38.76251},{"city":"Basotu","state":"Manyara","population":20937,"lat":-4.36667,"lng":35.08333},{"city":"Mazinde","state":"Tanga","population":20534,"lat":-4.8,"lng":38.21667},{"city":"Muriti","state":"Mara","population":20254,"lat":-1.98333,"lng":32.91667},{"city":"Matui","state":"Tanga","population":20241,"lat":-4.8,"lng":38.25},{"city":"Nsunga","state":"Kagera","population":20049,"lat":-1.14389,"lng":31.39472},{"city":"Muheza","state":"Tanga","population":20000,"lat":-5.16667,"lng":38.78333},{"city":"Mikumi","state":"Morogoro","population":20000,"lat":-7.40409,"lng":36.98309},{"city":"Makuyuni","state":"Arusha","population":20000,"lat":-3.55,"lng":36.1},{"city":"Kiratu","state":"Arusha","population":20000,"lat":-3.33333,"lng":35.66667},{"city":"Tandahimba","state":"Mtwara","population":20000,"lat":-10.75,"lng":39.63333},{"city":"Ruangwa","state":"Lindi","population":20000,"lat":-10.06667,"lng":38.93333},{"city":"Matongo","state":"Mara","population":20000,"lat":-1.46771,"lng":34.52279},{"city":"Dareda","state":"Manyara","population":19876,"lat":-4.21667,"lng":35.55},{"city":"Nshamba","state":"Kagera","population":19815,"lat":-1.79833,"lng":31.55111},{"city":"Ikungi","state":"Singida","population":19692,"lat":-5.13333,"lng":34.76667},{"city":"Nanyamba","state":"Mtwara","population":19555,"lat":-10.68333,"lng":39.83333},{"city":"Kibakwe","state":"Dodoma","population":19526,"lat":-6.71667,"lng":36.36667},{"city":"Maposeni","state":"Ruvuma","population":19472,"lat":-10.58333,"lng":35.4},{"city":"Kabanga","state":"Kagera","population":19421,"lat":-2.63861,"lng":30.46778},{"city":"Laela","state":"Rukwa","population":19185,"lat":-8.56667,"lng":32.05},{"city":"Bashanet","state":"Manyara","population":19087,"lat":-4.23333,"lng":35.41667},{"city":"Magomeni","state":"Dar es Salaam Region","population":19086,"lat":-6.8,"lng":39.25},{"city":"Kihangara","state":"Mwanza","population":19082,"lat":-2.58333,"lng":33.35},{"city":"Mtwango","state":"Njombe","population":19040,"lat":-9.01667,"lng":34.8},{"city":"Shirati","state":"Mara","population":18904,"lat":-1.13333,"lng":33.98333},{"city":"Ilembula","state":"Njombe","population":18870,"lat":-8.9,"lng":34.58333},{"city":"Dongobesh","state":"Manyara","population":18864,"lat":-4.06667,"lng":35.38333},{"city":"Matiri","state":"Ruvuma","population":18830,"lat":-10.75,"lng":34.9},{"city":"Magole","state":"Morogoro","population":18753,"lat":-6.37697,"lng":37.37373},{"city":"Nangwa","state":"Manyara","population":18595,"lat":-4.46667,"lng":35.45},{"city":"Galappo","state":"Manyara","population":18528,"lat":-4.26667,"lng":35.85},{"city":"Katerero","state":"Kagera","population":18430,"lat":-1.4,"lng":31.73333},{"city":"Nyakabindi","state":"Simiyu","population":18428,"lat":-2.63333,"lng":33.98333},{"city":"Izazi","state":"Iringa","population":18010,"lat":-7.2,"lng":35.73333},{"city":"Lubata","state":"Morogoro","population":18000,"lat":-6.1,"lng":37.45},{"city":"Tarakea","state":"Kilimanjaro","population":18000,"lat":-3.00083,"lng":37.56416},{"city":"Madizini","state":"Morogoro","population":18000,"lat":-6.14089,"lng":37.63604},{"city":"Msowero","state":"Morogoro","population":17861,"lat":-6.53333,"lng":37.2},{"city":"Ipinda","state":"Mbeya","population":17775,"lat":-9.48333,"lng":33.9},{"city":"Mto wa Mbu","state":"Arusha","population":17754,"lat":-3.35,"lng":35.85},{"city":"Usevia","state":"Katavi","population":17742,"lat":-7.1,"lng":31.23333},{"city":"Nanganga","state":"Mtwara","population":17468,"lat":-10.38333,"lng":39.15},{"city":"Ilongero","state":"Singida","population":17342,"lat":-4.66667,"lng":34.86667},{"city":"Kibara","state":"Mara","population":17211,"lat":-2.15,"lng":33.45},{"city":"Ngerengere","state":"Morogoro","population":17181,"lat":-6.75,"lng":38.11667},{"city":"Puma","state":"Singida","population":17092,"lat":-5.0,"lng":34.73333},{"city":"Malampaka","state":"Simiyu","population":16916,"lat":-3.13333,"lng":33.53333},{"city":"Lugoba","state":"Pwani","population":16902,"lat":-6.45,"lng":38.33333},{"city":"Ngara","state":"Kagera","population":16890,"lat":-2.51222,"lng":30.65583},{"city":"Mwandiga","state":"Kigoma","population":16822,"lat":-4.83,"lng":29.65806},{"city":"Mungaa","state":"Singida","population":16715,"lat":-4.96667,"lng":34.88333},{"city":"Nyamuswa","state":"Mara","population":16507,"lat":-1.9,"lng":34.01667},{"city":"Butiama","state":"Mara","population":16376,"lat":-1.76667,"lng":33.96667},{"city":"Kishapu","state":"Shinyanga","population":16371,"lat":-3.61667,"lng":33.86667},{"city":"Nyangao","state":"Lindi","population":16343,"lat":-10.33333,"lng":39.28333},{"city":"Tingi","state":"Ruvuma","population":16315,"lat":-11.3,"lng":35.03333},{"city":"Kitama","state":"Mtwara","population":16232,"lat":-10.71667,"lng":39.73333},{"city":"Lembeni","state":"Kilimanjaro","population":16008,"lat":-3.78333,"lng":37.61667},{"city":"Kamachumu","state":"Kagera","population":15701,"lat":-1.61861,"lng":31.62},{"city":"Mlalo","state":"Tanga","population":15576,"lat":-4.93333,"lng":38.93333},{"city":"Makuyuni","state":"Tanga","population":15516,"lat":-4.73333,"lng":38.1},{"city":"Usagara","state":"Mwanza","population":15514,"lat":-2.68333,"lng":33.0},{"city":"Mabama","state":"Tabora","population":15320,"lat":-5.13333,"lng":32.53333},{"city":"Mlangali","state":"Njombe","population":15168,"lat":-9.78333,"lng":34.51667},{"city":"Mahanje","state":"Ruvuma","population":15009,"lat":-9.93333,"lng":35.33333},{"city":"Namanga","state":"Arusha","population":14922,"lat":-2.55116,"lng":36.78377},{"city":"Nkoaranga","state":"Arusha","population":14738,"lat":-3.33391,"lng":36.84887},{"city":"Nyakahanga","state":"Kagera","population":14611,"lat":-1.60333,"lng":31.14139},{"city":"Endasak","state":"Manyara","population":14576,"lat":-4.41667,"lng":35.51667},{"city":"Ndungu","state":"Kilimanjaro","population":14545,"lat":-4.36667,"lng":38.05},{"city":"Misasi","state":"Mwanza","population":14170,"lat":-3.0,"lng":33.08333},{"city":"Mabamba","state":"Kigoma","population":14140,"lat":-3.59833,"lng":30.50194},{"city":"Dunda","state":"Mbeya","population":14080,"lat":-8.11667,"lng":34.25},{"city":"Kyaka","state":"Kagera","population":13810,"lat":-1.25222,"lng":31.42028},{"city":"Mahuta","state":"Mtwara","population":13548,"lat":-10.86667,"lng":39.45},{"city":"Nanhyanga","state":"Mtwara","population":13519,"lat":-10.8,"lng":39.55},{"city":"Naberera","state":"Manyara","population":13499,"lat":-4.2,"lng":36.93333},{"city":"Itumba","state":"Songwe","population":13438,"lat":-9.4,"lng":33.18333},{"city":"Liuli","state":"Ruvuma","population":13119,"lat":-11.08333,"lng":34.63333},{"city":"Ndago","state":"Singida","population":13012,"lat":-4.6,"lng":34.35},{"city":"Mwanga","state":"Tanga","population":12846,"lat":-4.8,"lng":38.2},{"city":"Chiungutwa","state":"Mtwara","population":12764,"lat":-10.88333,"lng":38.98333},{"city":"Masoko","state":"Mbeya","population":12720,"lat":-9.33333,"lng":33.75},{"city":"Karema","state":"Katavi","population":12630,"lat":-6.82052,"lng":30.43887},{"city":"Malya","state":"Mwanza","population":12627,"lat":-2.98333,"lng":33.51667},{"city":"Kisarawe","state":"Pwani","population":12507,"lat":-6.9,"lng":39.06667},{"city":"Madimba","state":"Mtwara","population":12507,"lat":-10.4,"lng":40.33333},{"city":"Soni","state":"Tanga","population":12402,"lat":-4.85,"lng":38.36667},{"city":"Kaliua","state":"Tabora","population":12362,"lat":-5.06056,"lng":31.79361},{"city":"Ulenje","state":"Mbeya","population":12219,"lat":-8.93333,"lng":33.68333},{"city":"Mtama","state":"Lindi","population":11928,"lat":-10.3,"lng":39.36667},{"city":"Katoro","state":"Kagera","population":11925,"lat":-1.39972,"lng":31.50028},{"city":"Utete","state":"Pwani","population":11888,"lat":-7.98598,"lng":38.75795},{"city":"Kongwa","state":"Dodoma","population":11840,"lat":-6.2,"lng":36.41667},{"city":"Matonga","state":"Simiyu","population":11828,"lat":-2.38333,"lng":34.08333},{"city":"Mbekenyera","state":"Lindi","population":11794,"lat":-10.0,"lng":38.98333},{"city":"Inyonga","state":"Katavi","population":11790,"lat":-6.71667,"lng":32.06667},{"city":"Namikupa","state":"Mtwara","population":11733,"lat":-10.83333,"lng":39.6},{"city":"Muleba","state":"Kagera","population":11555,"lat":-1.83972,"lng":31.65444},{"city":"Lupiro","state":"Morogoro","population":11430,"lat":-8.38333,"lng":36.66667},{"city":"Kimamba","state":"Morogoro","population":11235,"lat":-6.78333,"lng":37.13333},{"city":"Namalenga","state":"Mtwara","population":11204,"lat":-10.95,"lng":39.1},{"city":"Mtimbira","state":"Morogoro","population":11122,"lat":-8.78333,"lng":36.35},{"city":"Kisanga","state":"Morogoro","population":10978,"lat":-7.43622,"lng":37.70337},{"city":"Kitangari","state":"Mtwara","population":10956,"lat":-10.65,"lng":39.33333},{"city":"Ngorongoro","state":"Arusha","population":10836,"lat":-3.23973,"lng":35.48747},{"city":"Nyanguge","state":"Mwanza","population":10746,"lat":-2.55,"lng":33.2},{"city":"Matamba","state":"Njombe","population":10642,"lat":-8.98333,"lng":33.96667},{"city":"Bugene","state":"Kagera","population":10609,"lat":-1.59111,"lng":31.14028},{"city":"Mugango","state":"Mara","population":10550,"lat":-1.68333,"lng":33.7},{"city":"Mingoyo","state":"Lindi","population":10480,"lat":-10.10526,"lng":39.61859},{"city":"Kandete","state":"Mbeya","population":10318,"lat":-9.15,"lng":33.8},{"city":"Makungu","state":"Iringa","population":10291,"lat":-8.73333,"lng":35.28333},{"city":"Igurubi","state":"Tabora","population":10083,"lat":-4.0,"lng":33.7},{"city":"Kisasa","state":"Dodoma","population":10000,"lat":-6.17526,"lng":35.79266},{"city":"Majengo","state":"Tanga","population":9874,"lat":-5.15,"lng":38.98333},{"city":"Micheweni","state":"Pemba North","population":9838,"lat":-4.96667,"lng":39.83333},{"city":"Poli","state":"Arusha","population":9568,"lat":-3.36146,"lng":36.81751},{"city":"Konde","state":"Pemba North","population":9530,"lat":-4.95,"lng":39.75},{"city":"Makanya","state":"Kilimanjaro","population":9505,"lat":-4.36667,"lng":37.83333},{"city":"Longido","state":"Arusha","population":9403,"lat":-2.73319,"lng":36.69773},{"city":"Maneromango","state":"Pwani","population":9402,"lat":-7.1988,"lng":38.78478},{"city":"Mwembe","state":"Kilimanjaro","population":9032,"lat":-4.15,"lng":37.85},{"city":"Mbamba Bay","state":"Ruvuma","population":8997,"lat":-11.28333,"lng":34.76667},{"city":"Magomeni","state":"Tanga","population":8944,"lat":-5.23333,"lng":38.11667},{"city":"Manda","state":"Njombe","population":8393,"lat":-10.46667,"lng":34.58333},{"city":"Kihurio","state":"Kilimanjaro","population":8377,"lat":-4.46667,"lng":38.06667},{"city":"Pangani","state":"Tanga","population":8343,"lat":-5.42526,"lng":38.97473},{"city":"Masuguru","state":"Mtwara","population":7946,"lat":-11.36667,"lng":38.41667},{"city":"Kintinku","state":"Singida","population":7906,"lat":-5.88333,"lng":35.23333},{"city":"Lulindi","state":"Mtwara","population":7807,"lat":-10.81667,"lng":39.13333},{"city":"Issenye","state":"Mara","population":7778,"lat":-2.0,"lng":34.33333},{"city":"Mahenge","state":"Morogoro","population":7768,"lat":-8.68333,"lng":36.71667},{"city":"Mwaya","state":"Mbeya","population":7558,"lat":-9.55,"lng":33.95},{"city":"Kwakoa","state":"Kilimanjaro","population":7514,"lat":-3.76667,"lng":37.71667},{"city":"Bukene","state":"Tabora","population":7444,"lat":-4.23333,"lng":32.88333},{"city":"Usoke","state":"Tabora","population":7295,"lat":-5.16667,"lng":32.35},{"city":"Kisiwani","state":"Kilimanjaro","population":7126,"lat":-4.13333,"lng":37.95},{"city":"Malangali","state":"Iringa","population":7112,"lat":-8.56667,"lng":34.85},{"city":"Mtambile","state":"Pemba South","population":6797,"lat":-5.38333,"lng":39.7},{"city":"Nakatunguru","state":"Mara","population":6064,"lat":-2.11667,"lng":33.06667},{"city":"Kilimatinde","state":"Singida","population":5975,"lat":-5.85,"lng":34.95},{"city":"Monduli","state":"Arusha","population":5694,"lat":-3.3,"lng":36.45},{"city":"Bububu","state":"Zanzibar Urban/West","population":5646,"lat":-6.1,"lng":39.21667},{"city":"Mahonda","state":"Zanzibar Central/South","population":5569,"lat":-6.45,"lng":39.46667},{"city":"Msanga","state":"Dodoma","population":5527,"lat":-6.05,"lng":36.03333},{"city":"Nkove","state":"Rukwa","population":5389,"lat":-7.95,"lng":30.85},{"city":"Kibaya","state":"Manyara","population":5028,"lat":-5.3,"lng":36.56667},{"city":"Mbumi","state":"Pwani","population":4305,"lat":-7.90577,"lng":39.21047},{"city":"Bukonyo","state":"Mara","population":4051,"lat":-1.95,"lng":32.93333},{"city":"Kirya","state":"Manyara","population":3998,"lat":-3.91667,"lng":37.48333},{"city":"Kijini","state":"Zanzibar North","population":3720,"lat":-5.85,"lng":39.31667},{"city":"Gamba","state":"Zanzibar North","population":3644,"lat":-5.9,"lng":39.3},{"city":"Ilembo","state":"Mbeya","population":2607,"lat":-9.25,"lng":33.38333},{"city":"Mkokotoni","state":"Zanzibar North","population":2572,"lat":-5.87506,"lng":39.25523},{"city":"Uwelini","state":"Pemba South","population":2472,"lat":-5.4,"lng":39.68333},{"city":"Kiwengwa","state":"Zanzibar North","population":2429,"lat":-5.98957,"lng":39.3768},{"city":"Koani Ndogo","state":"Zanzibar Central/South","population":2311,"lat":-6.13333,"lng":39.28333},{"city":"Koani","state":"Zanzibar Central/South","population":2211,"lat":-6.13333,"lng":39.28333},{"city":"Nganane","state":"Zanzibar Central/South","population":1929,"lat":-6.4,"lng":39.55},{"city":"Mvomero","state":"Morogoro","population":0,"lat":-6.30122,"lng":37.44398}]}}