{"timezone":"Africa/Libreville","countries":{"Gabon":[{"city":"Libreville","state":"Estuaire","population":846090,"lat":0.39241,"lng":9.45356},{"city":"Port-Gentil","state":"Ogooué-Maritime","population":164018,"lat":-0.71933,"lng":8.78151},{"city":"Franceville","state":"Haut-Ogooué","population":132895,"lat":-1.63333,"lng":13.58357},{"city":"Owendo","state":"Estuaire","population":95313,"lat":0.29123,"lng":9.50465},{"city":"Oyem","state":"Woleu-Ntem","population":72939,"lat":1.5995,"lng":11.57933},{"city":"Moanda","state":"Haut-Ogooué","population":71099,"lat":-1.56652,"lng":13.1987},{"city":"Ntoum","state":"Estuaire","population":62445,"lat":0.39051,"lng":9.76096},{"city":"Lambaréné","state":"Moyen-Ogooué","population":46605,"lat":-0.7001,"lng":10.24055},{"city":"Mouila","state":"Ngouni","population":43342,"lat":-1.86846,"lng":11.05594},{"city":"Akanda","state":"Estuaire","population":41524,"lat":0.60732,"lng":9.32933},{"city":"Tchibanga","state":"Nyanga","population":36108,"lat":-2.93323,"lng":10.98178},{"city":"Bitam","state":"Woleu-Ntem","population":33561,"lat":2.07597,"lng":11.50065},{"city":"Koulamoutou","state":"Ogooué-Lolo","population":30830,"lat":-1.13667,"lng":12.46399},{"city":"Oyam","state":"Moyen-Ogooué","population":30100,"lat":-0.2,"lng":10.68333},{"city":"Makokou","state":"Ogooué-Ivindo","population":24823,"lat":0.57381,"lng":12.86419},{"city":"Lastoursville","state":"Ogooué-Lolo","population":14411,"lat":-0.81742,"lng":12.70818},{"city":"Tsogni","state":"Nyanga","population":13725,"lat":-2.80365,"lng":10.16058},{"city":"Okondja","state":"Haut-Ogooué","population":12962,"lat":-0.65487,"lng":13.67533},{"city":"Gamba","state":"Ogooué-Maritime","population":12565,"lat":-2.65,"lng":10.0},{"city":"Mitzic","state":"Woleu-Ntem","population":10522,"lat":0.78205,"lng":11.54904},{"city":"Lébamba","state":"Ngouni","population":9287,"lat":-2.21213,"lng":11.46978},{"city":"Lékoni","state":"Haut-Ogooué","population":8810,"lat":-1.58431,"lng":14.25905},{"city":"Mounana","state":"Haut-Ogooué","population":8780,"lat":-1.4085,"lng":13.15857},{"city":"Fougamou","state":"Ngouni","population":8629,"lat":-1.21544,"lng":10.58378},{"city":"Ndjolé","state":"Moyen-Ogooué","population":8265,"lat":-0.17827,"lng":10.76488},{"city":"Akiéni","state":"Haut-Ogooué","population":8241,"lat":-1.17454,"lng":13.87562},{"city":"Mékambo","state":"Ogooué-Ivindo","population":8105,"lat":1.00652,"lng":13.95938},{"city":"Booué","state":"Ogooué-Ivindo","population":7259,"lat":-0.09207,"lng":11.93846},{"city":"Ndendé","state":"Ngouni","population":7238,"lat":-2.40077,"lng":11.35813},{"city":"Mbigou","state":"Ngouni","population":7069,"lat":-1.90046,"lng":11.906},{"city":"Mayumba","state":"Nyanga","population":6274,"lat":-3.43198,"lng":10.6554},{"city":"Kango","state":"Estuaire","population":5734,"lat":0.17175,"lng":10.10905},{"city":"Bakoumba","state":"Haut-Ogooué","population":4861,"lat":-1.82703,"lng":13.02052},{"city":"Minvoul","state":"Woleu-Ntem","population":4469,"lat":2.15161,"lng":12.132},{"city":"Moabi","state":"Nyanga","population":4108,"lat":-2.42245,"lng":11.00068},{"city":"Ovan","state":"Ogooué-Ivindo","population":4064,"lat":0.31105,"lng":12.18244},{"city":"Mimongo","state":"Ngouni","population":3307,"lat":-1.61952,"lng":11.60675},{"city":"Makanda","state":"Ngouni","population":3252,"lat":-1.95428,"lng":10.9772},{"city":"Bongoville","state":"Haut-Ogooué","population":3164,"lat":-1.6472,"lng":13.8633},{"city":"Cocobeach","state":"Estuaire","population":3114,"lat":1.00019,"lng":9.58229},{"city":"Médouneu","state":"Woleu-Ntem","population":3001,"lat":1.01619,"lng":10.79598},{"city":"Ngwoni","state":"Haut-Ogooué","population":2691,"lat":-1.50021,"lng":13.79245},{"city":"Omboué","state":"Ogooué-Maritime","population":2414,"lat":-1.57464,"lng":9.26184},{"city":"Iboundji","state":"Estuaire","population":2123,"lat":0.86985,"lng":9.5864},{"city":"Pana","state":"Ogooué-Lolo","population":1897,"lat":-1.67159,"lng":12.63035},{"city":"Malinga","state":"Ngouni","population":1382,"lat":-2.41815,"lng":12.22294},{"city":"Ndindi","state":"Ngouni","population":1334,"lat":-1.76098,"lng":12.02001},{"city":"Boumango","state":"Haut-Ogooué","population":1316,"lat":-2.22678,"lng":13.61429},{"city":"Onga","state":"Haut-Ogooué","population":1137,"lat":-0.7599,"lng":14.3057},{"city":"Aboumi","state":"Haut-Ogooué","population":1050,"lat":-0.65522,"lng":14.13827}]}}