{"timezone":"Africa/Porto-Novo","countries":{"Benin":[{"city":"Cotonou","state":"Littoral","population":679012,"lat":6.36536,"lng":2.41833},{"city":"Abomey-Calavi","state":"Atlantique","population":385755,"lat":6.44852,"lng":2.35566},{"city":"Porto-Novo","state":"Ouémé","population":264320,"lat":6.49646,"lng":2.60359},{"city":"Parakou","state":"Borgou","population":255478,"lat":9.33716,"lng":2.63031},{"city":"Godomè","state":"Atlantique","population":253262,"lat":6.38948,"lng":2.34581},{"city":"Abomey","state":"Zou","population":117824,"lat":7.18286,"lng":1.99119},{"city":"Djougou","state":"Donga","population":94773,"lat":9.70853,"lng":1.66598},{"city":"Bohicon","state":"Zou","population":93744,"lat":7.17826,"lng":2.0667},{"city":"Ekpé","state":"Ouémé","population":75313,"lat":6.39209,"lng":2.53725},{"city":"Nikki","state":"Borgou","population":66109,"lat":9.94009,"lng":3.21075},{"city":"Malanville","state":"Alibori","population":64639,"lat":11.86819,"lng":3.38327},{"city":"Kandi","state":"Alibori","population":56043,"lat":11.13417,"lng":2.93861},{"city":"Kérou","state":"Atakora","population":54276,"lat":10.82578,"lng":2.10479},{"city":"Natitingou","state":"Atakora","population":53284,"lat":10.30416,"lng":1.37962},{"city":"Pobé","state":"Plateau","population":49232,"lat":6.98008,"lng":2.6649},{"city":"Ouidah","state":"Atlantique","population":47616,"lat":6.36307,"lng":2.08506},{"city":"Lokossa","state":"Mono","population":47246,"lat":6.63869,"lng":1.71674},{"city":"Bassila","state":"Donga","population":46569,"lat":9.00814,"lng":1.6654},{"city":"Tchaourou","state":"Borgou","population":43862,"lat":8.88649,"lng":2.59753},{"city":"Cové","state":"Zou","population":43554,"lat":7.22097,"lng":2.34017},{"city":"Sakété","state":"Plateau","population":43541,"lat":6.73618,"lng":2.65866},{"city":"Comé","state":"Collines","population":42586,"lat":6.40764,"lng":1.88198},{"city":"Missérété","state":"Ouémé","population":41657,"lat":6.55872,"lng":2.59063},{"city":"Dogbo","state":"Kouffo","population":41341,"lat":6.79911,"lng":1.78073},{"city":"Kétou","state":"Plateau","population":39626,"lat":7.36332,"lng":2.59978},{"city":"Savalou","state":"Collines","population":38162,"lat":7.92807,"lng":1.97558},{"city":"Banikoara","state":"Alibori","population":37571,"lat":11.29845,"lng":2.43856},{"city":"Péhonko","state":"Atakora","population":37217,"lat":10.22746,"lng":2.00192},{"city":"Kalalé","state":"Borgou","population":35513,"lat":10.29275,"lng":3.38367},{"city":"Sinendé","state":"Borgou","population":35267,"lat":10.34963,"lng":2.37906},{"city":"Banigbé","state":"Plateau","population":31984,"lat":6.64756,"lng":2.70695},{"city":"Savé","state":"Collines","population":31444,"lat":8.03424,"lng":2.4866},{"city":"Bembèrèkè","state":"Borgou","population":31176,"lat":10.22827,"lng":2.66335},{"city":"Dassa-Zoumè","state":"Collines","population":29461,"lat":7.75,"lng":2.18333},{"city":"Kopargo","state":"Donga","population":28605,"lat":9.84108,"lng":1.54231},{"city":"Kouandé","state":"Atlantique","population":27197,"lat":6.4,"lng":2.06667},{"city":"Tanguiéta","state":"Atakora","population":27094,"lat":10.62118,"lng":1.26651},{"city":"Kpozoun","state":"Zou","population":26688,"lat":7.22868,"lng":2.21317},{"city":"Sé","state":"Mono","population":26627,"lat":6.51115,"lng":1.82831},{"city":"Ségbana","state":"Alibori","population":26440,"lat":10.92821,"lng":3.69429},{"city":"Aplahoué","state":"Kouffo","population":26340,"lat":6.93333,"lng":1.68333},{"city":"Cobly","state":"Atakora","population":24878,"lat":10.49222,"lng":0.99972},{"city":"Matéri","state":"Atakora","population":24490,"lat":10.69623,"lng":1.06307},{"city":"Adjarra","state":"Ouémé","population":24132,"lat":6.53445,"lng":2.66833},{"city":"Djidja","state":"Zou","population":23781,"lat":7.34436,"lng":1.93447},{"city":"Klouékanmè","state":"Kouffo","population":23763,"lat":6.98028,"lng":1.84222},{"city":"Semi","state":"Ouémé","population":23636,"lat":6.36667,"lng":2.61667},{"city":"Allada","state":"Atlantique","population":23287,"lat":6.66547,"lng":2.15138},{"city":"Ndali","state":"Borgou","population":23264,"lat":9.8636,"lng":2.72094},{"city":"Boukoumbé","state":"Atakora","population":22386,"lat":10.17711,"lng":1.10621},{"city":"Adjaouèrè","state":"Plateau","population":21968,"lat":7.00228,"lng":2.60591},{"city":"Toviklin","state":"Kouffo","population":21617,"lat":6.88935,"lng":1.83722},{"city":"Avrankou","state":"Ouémé","population":20326,"lat":6.55591,"lng":2.65123},{"city":"Glazoué","state":"Collines","population":20036,"lat":7.97252,"lng":2.22176},{"city":"Ganvié","state":"Atlantique","population":20000,"lat":6.46441,"lng":2.39288},{"city":"Djakotomé","state":"Kouffo","population":19498,"lat":6.8991,"lng":1.71618},{"city":"Zinvié","state":"Atlantique","population":18157,"lat":6.61738,"lng":2.35776},{"city":"Banté","state":"Collines","population":17682,"lat":8.41221,"lng":1.88969},{"city":"Ouaké","state":"Donga","population":17259,"lat":9.66167,"lng":1.38472},{"city":"Ouinhi","state":"Zou","population":17043,"lat":7.08411,"lng":2.48343},{"city":"Tobré","state":"Atakora","population":16912,"lat":10.19499,"lng":2.12999},{"city":"Zé","state":"Atlantique","population":16903,"lat":6.78333,"lng":2.3},{"city":"Toukountouna","state":"Atakora","population":16330,"lat":10.50279,"lng":1.37437},{"city":"Pèrèrè","state":"Borgou","population":15927,"lat":9.79721,"lng":2.98403},{"city":"Ouessé","state":"Collines","population":15658,"lat":8.48639,"lng":2.42872},{"city":"Athiémé","state":"Mono","population":15195,"lat":6.5808,"lng":1.6696},{"city":"Tori-Bossito","state":"Atlantique","population":14844,"lat":6.50302,"lng":2.1441},{"city":"Gogounou","state":"Alibori","population":14248,"lat":10.8399,"lng":2.83174},{"city":"Lalo","state":"Kouffo","population":13451,"lat":6.92869,"lng":1.88994},{"city":"Hévié","state":"Atlantique","population":13450,"lat":6.41667,"lng":2.25},{"city":"Bétérou","state":"Borgou","population":13108,"lat":9.19916,"lng":2.25855},{"city":"Grand-Popo","state":"Mono","population":9847,"lat":6.28036,"lng":1.82251},{"city":"Zounké","state":"Ouémé","population":8326,"lat":6.61621,"lng":2.52836},{"city":"Guilmaro","state":"Atakora","population":6516,"lat":10.56583,"lng":1.72444},{"city":"Agoué","state":"Mono","population":5148,"lat":6.2463,"lng":1.67624},{"city":"Hinvi","state":"Atlantique","population":3604,"lat":6.76667,"lng":2.16667},{"city":"Zagnanado","state":"Zou","population":0,"lat":7.22097,"lng":2.38335},{"city":"So-Ava","state":"Atlantique","population":0,"lat":6.49245,"lng":2.40193},{"city":"Sé","state":"Atlantique","population":0,"lat":6.7539,"lng":2.10365},{"city":"Pahou","state":"Atlantique","population":0,"lat":6.38774,"lng":2.21423},{"city":"Goumori","state":"Alibori","population":0,"lat":11.18131,"lng":2.29295},{"city":"Avakpa","state":"Atlantique","population":0,"lat":6.66239,"lng":2.04249},{"city":"Angara-Débou","state":"Alibori","population":0,"lat":11.32454,"lng":3.05886},{"city":"Adjohon","state":"Ouémé","population":0,"lat":6.71853,"lng":2.47759},{"city":"Houinvigue","state":"Ouémé","population":0,"lat":6.8862,"lng":2.4806},{"city":"Kpomassè","state":"Atlantique","population":0,"lat":6.46216,"lng":1.99362}]}}