{"timezone":"Africa/Cairo","countries":{"Egypt":[{"city":"Cairo","state":"Cairo","population":9606916,"lat":30.06263,"lng":31.24967},{"city":"Alexandria","state":"Alexandria","population":5263542,"lat":31.20176,"lng":29.91582},{"city":"Giza","state":"Giza","population":4367343,"lat":30.00944,"lng":31.20861},{"city":"Shubrā al Khaymah","state":"Qalyubia","population":1240289,"lat":30.12511,"lng":31.25053},{"city":"Port Said","state":"Port Said","population":780515,"lat":31.26531,"lng":32.3019},{"city":"Suez","state":"Suez","population":699541,"lat":29.97371,"lng":32.52627},{"city":"Madīnat an Naşr","state":"Cairo","population":668413,"lat":30.06667,"lng":31.3},{"city":"Al Mansurah","state":"Dakahlia","population":621953,"lat":31.03637,"lng":31.38069},{"city":"Al Maḩallah al Kubrá","state":"Gharbia","population":592573,"lat":30.97063,"lng":31.1669},{"city":"Tanta","state":"Gharbia","population":576648,"lat":30.78847,"lng":31.00192},{"city":"Assiut","state":"Asyut","population":528669,"lat":27.18096,"lng":31.18368},{"city":"Al Fayyum","state":"Faiyum","population":519047,"lat":29.30995,"lng":30.8418},{"city":"Al Khuşūş","state":"Qalyubia","population":488904,"lat":30.15293,"lng":31.31501},{"city":"Esna","state":"Qena","population":462787,"lat":25.29336,"lng":32.55402},{"city":"Zagazig","state":"Sharqia","population":430445,"lat":30.58768,"lng":31.502},{"city":"Ismailia","state":"Ismailia","population":429465,"lat":30.60427,"lng":32.27225},{"city":"Luxor","state":"Luxor","population":422407,"lat":25.69893,"lng":32.6421},{"city":"Kom Ombo","state":"Aswan","population":409311,"lat":24.47669,"lng":32.94626},{"city":"Aswān","state":"Aswan","population":379774,"lat":24.09082,"lng":32.89942},{"city":"6th of October City","state":"Giza","population":368650,"lat":29.81667,"lng":31.05},{"city":"Ḩadā’iq al Qubbah","state":"Cairo","population":339612,"lat":30.08843,"lng":31.28351},{"city":"Damanhur","state":"Beheira","population":318207,"lat":31.03408,"lng":30.46823},{"city":"New Cairo","state":"Cairo","population":313139,"lat":30.03,"lng":31.47},{"city":"Al Qāhirah al Jadīdah","state":null,"population":313139,"lat":30.04214,"lng":31.44446},{"city":"Damietta","state":"Damietta","population":305920,"lat":31.41648,"lng":31.81332},{"city":"Rosetta","state":"Beheira","population":301795,"lat":31.39951,"lng":30.41718},{"city":"Minya","state":"Minya","population":283605,"lat":28.09193,"lng":30.75813},{"city":"Banī Suwayf","state":"Beni Suweif","population":273151,"lat":29.07441,"lng":31.09785},{"city":"Shibīn al Kawm","state":"Monufia","population":267945,"lat":30.55258,"lng":31.00904},{"city":"Sohag","state":"Sohag","population":266944,"lat":26.55695,"lng":31.69478},{"city":"Qina","state":"Qena","population":252883,"lat":26.16418,"lng":32.72671},{"city":"Al ‘Āshir min Ramaḑān","state":"Sharqia","population":246148,"lat":30.29636,"lng":31.74633},{"city":"Ḩalwān","state":"Cairo","population":230000,"lat":29.84144,"lng":31.30084},{"city":"Mallawī","state":"Minya","population":212628,"lat":27.73264,"lng":30.84129},{"city":"Hurghada","state":"Red Sea","population":207132,"lat":27.25738,"lng":33.81291},{"city":"Arīsh","state":"North Sinai","population":199243,"lat":31.13159,"lng":33.79844},{"city":"Kafr ash Shaykh","state":"Kafr el-Sheikh","population":194569,"lat":31.11174,"lng":30.93991},{"city":"Bilbeis","state":"Sharqia","population":185237,"lat":30.42039,"lng":31.56223},{"city":"Banhā","state":"Qalyubia","population":182254,"lat":30.45977,"lng":31.1842},{"city":"Idkū","state":"Beheira","population":177152,"lat":31.3073,"lng":30.2981},{"city":"Marsá Maţrūḩ","state":"Matruh","population":176498,"lat":31.3529,"lng":27.23725},{"city":"Al Maţarīyah","state":"Dakahlia","population":162045,"lat":31.18287,"lng":32.03108},{"city":"Qalyub","state":"Qalyubia","population":156363,"lat":30.17922,"lng":31.2056},{"city":"Al Ḩawāmidīyah","state":"Giza","population":155055,"lat":29.9,"lng":31.25},{"city":"Abū Kabīr","state":"Sharqia","population":154466,"lat":30.72508,"lng":31.67148},{"city":"Mīt Ghamr","state":"Dakahlia","population":153754,"lat":30.71524,"lng":31.2592},{"city":"Akhmīm","state":"Sohag","population":151430,"lat":26.5622,"lng":31.74566},{"city":"Girga","state":"Sohag","population":151256,"lat":26.33721,"lng":31.89295},{"city":"Disūq","state":"Kafr el-Sheikh","population":149291,"lat":31.13259,"lng":30.64784},{"city":"Samālūţ","state":"Minya","population":142009,"lat":28.31214,"lng":30.71007},{"city":"Al-'Ubūr","state":"Qalyubia","population":138987,"lat":30.22886,"lng":31.48149},{"city":"Kirdāsah","state":"Giza","population":137588,"lat":30.03103,"lng":31.11109},{"city":"Bilqās","state":"Dakahlia","population":137080,"lat":31.21452,"lng":31.35798},{"city":"Būsh","state":"Beni Suweif","population":136441,"lat":29.14816,"lng":31.12733},{"city":"Ţahţā","state":"Sohag","population":134314,"lat":26.76866,"lng":31.50198},{"city":"Sinnūris","state":"Faiyum","population":133532,"lat":29.41345,"lng":30.86579},{"city":"Kafr ad Dawwār","state":"Beheira","population":128539,"lat":31.13379,"lng":30.12969},{"city":"Al Manzalah","state":"Dakahlia","population":127394,"lat":31.15823,"lng":31.936},{"city":"Munūf","state":"Monufia","population":125707,"lat":30.46597,"lng":30.93199},{"city":"Ashmūn","state":"Monufia","population":124483,"lat":30.29735,"lng":30.97641},{"city":"As Sinbillāwayn","state":"Dakahlia","population":124020,"lat":30.88251,"lng":31.46275},{"city":"Maghāghah","state":"Minya","population":118223,"lat":28.64776,"lng":30.841},{"city":"Manfalūţ","state":"Asyut","population":117925,"lat":27.3126,"lng":30.96987},{"city":"Fāqūs","state":"Sharqia","population":116945,"lat":30.72816,"lng":31.79697},{"city":"Banī Mazār","state":"Minya","population":115759,"lat":28.49456,"lng":30.80526},{"city":"Al Fashn","state":"Beni Suweif","population":112999,"lat":28.82306,"lng":30.89903},{"city":"Ţalkhā","state":"Dakahlia","population":112851,"lat":31.0539,"lng":31.37787},{"city":"Abnūb","state":"Asyut","population":111785,"lat":27.26881,"lng":31.15232},{"city":"Zefta","state":"Gharbia","population":111700,"lat":30.7142,"lng":31.24425},{"city":"Abū Tīj","state":"Asyut","population":105418,"lat":27.04514,"lng":31.31845},{"city":"Dayrūţ","state":"Asyut","population":102570,"lat":27.55642,"lng":30.81057},{"city":"Ţimā","state":"Sohag","population":101130,"lat":26.90843,"lng":31.43469},{"city":"Dikirnis","state":"Dakahlia","population":101082,"lat":31.08898,"lng":31.59478},{"city":"Al Jammālīyah","state":"Dakahlia","population":99641,"lat":31.18065,"lng":31.86497},{"city":"Al Qūşīyah","state":"Asyut","population":99598,"lat":27.44023,"lng":30.81712},{"city":"Minyā al Qamḩ","state":"Sharqia","population":99284,"lat":30.51552,"lng":31.34629},{"city":"Ash-Shaykh Zāyid","state":"Giza","population":95854,"lat":30.02,"lng":31.0},{"city":"Bibā","state":"Beni Suweif","population":94677,"lat":28.92406,"lng":30.98544},{"city":"Al Qurayn","state":"Sharqia","population":94632,"lat":30.61618,"lng":31.73514},{"city":"Awsīm","state":"Giza","population":94174,"lat":30.12303,"lng":31.13571},{"city":"Fuwwah","state":"Kafr el-Sheikh","population":93392,"lat":31.20365,"lng":30.54908},{"city":"El Shorouk","state":"Cairo","population":91899,"lat":30.13806,"lng":31.61556},{"city":"Al Minshāh","state":"Sohag","population":91149,"lat":26.4775,"lng":31.80394},{"city":"Al Badrashayn","state":"Giza","population":90833,"lat":29.85,"lng":31.26667},{"city":"Abū Qurqāş","state":"Minya","population":90266,"lat":27.93043,"lng":30.83826},{"city":"Biyalā","state":"Kafr el-Sheikh","population":89068,"lat":31.17419,"lng":31.2218},{"city":"Samannūd","state":"Gharbia","population":87921,"lat":30.9616,"lng":31.24069},{"city":"Abū an Numrus","state":"Giza","population":86601,"lat":29.95,"lng":31.2},{"city":"Ibshawāy","state":"Faiyum","population":86186,"lat":29.35896,"lng":30.68061},{"city":"Qūş","state":"Qena","population":84386,"lat":25.91544,"lng":32.76287},{"city":"Al Qanāţir al Khayrīyah","state":"Qalyubia","population":83568,"lat":30.19327,"lng":31.13703},{"city":"Kafr az Zayyāt","state":"Gharbia","population":83348,"lat":30.8248,"lng":30.81805},{"city":"Al Khārjah","state":"New Valley","population":83108,"lat":25.45101,"lng":30.54653},{"city":"Al-Khārijah","state":"New Valley","population":83108,"lat":25.25,"lng":30.55},{"city":"Ḩawsh ‘Īsá","state":"Beheira","population":82999,"lat":30.9128,"lng":30.29019},{"city":"Minyat an Naşr","state":"Dakahlia","population":82429,"lat":31.12624,"lng":31.64313},{"city":"Maţāy","state":"Minya","population":82328,"lat":28.41866,"lng":30.77861},{"city":"Al Khānkah","state":"Qalyubia","population":81646,"lat":30.21035,"lng":31.36812},{"city":"Diyarb Najm","state":"Sharqia","population":80954,"lat":30.75438,"lng":31.44016},{"city":"Edfu","state":"Aswan","population":79510,"lat":24.97916,"lng":32.87722},{"city":"Armant","state":"Qena","population":78695,"lat":25.61988,"lng":32.54305},{"city":"Sirs al Layyānah","state":"Monufia","population":78168,"lat":30.4428,"lng":30.96975},{"city":"Ītāy al Bārūd","state":"Beheira","population":77606,"lat":30.88697,"lng":30.66724},{"city":"Juhaynah","state":"Sohag","population":76555,"lat":26.67418,"lng":31.49686},{"city":"Shirbīn","state":"Dakahlia","population":76081,"lat":31.19688,"lng":31.5243},{"city":"Ash Shuhadā’","state":"Monufia","population":76071,"lat":30.59683,"lng":30.89931},{"city":"Mashtūl as Sūq","state":"Sharqia","population":75837,"lat":30.36056,"lng":31.3776},{"city":"Basyūn","state":"Gharbia","population":75084,"lat":30.93976,"lng":30.81338},{"city":"Hihyā","state":"Sharqia","population":74823,"lat":30.6713,"lng":31.58801},{"city":"Iţsā","state":"Faiyum","population":74357,"lat":29.2376,"lng":30.78944},{"city":"Shibīn al Qanāţir","state":"Qalyubia","population":73711,"lat":30.31269,"lng":31.32018},{"city":"Ţāmiyah","state":"Faiyum","population":73070,"lat":29.47639,"lng":30.96119},{"city":"Talā","state":"Monufia","population":72536,"lat":30.6798,"lng":30.94364},{"city":"Madīnat as Sādāt","state":"Beheira","population":71501,"lat":30.36742,"lng":30.50871},{"city":"Farshūţ","state":"Qena","population":71013,"lat":26.05501,"lng":32.16274},{"city":"Al Ghanāyim","state":"Asyut","population":70884,"lat":26.87524,"lng":31.32963},{"city":"Al Qanāyāt","state":"Sharqia","population":70687,"lat":30.61927,"lng":31.46165},{"city":"Ad Dilinjāt","state":"Beheira","population":68901,"lat":30.82796,"lng":30.53552},{"city":"Al Balyanā","state":"Sohag","population":68413,"lat":26.23648,"lng":32.00387},{"city":"Abū al Maţāmīr","state":"Beheira","population":66946,"lat":30.91018,"lng":30.17438},{"city":"Quwaysinā","state":"Monufia","population":65690,"lat":30.56482,"lng":31.15777},{"city":"Sumusţā al Waqf","state":"Beni Suweif","population":64965,"lat":28.92095,"lng":30.85367},{"city":"Dishnā","state":"Qena","population":64744,"lat":26.12242,"lng":32.46749},{"city":"Ihnāsīyah","state":"Beni Suweif","population":64058,"lat":29.09285,"lng":31.02043},{"city":"Al Bājūr","state":"Monufia","population":62961,"lat":30.43046,"lng":31.03679},{"city":"Darāw","state":"Aswan","population":61790,"lat":24.40796,"lng":32.92324},{"city":"Aş Şaff","state":"Giza","population":61531,"lat":29.56472,"lng":31.28111},{"city":"Abū Ḩummuş","state":"Beheira","population":61388,"lat":31.09311,"lng":30.31418},{"city":"Dayr Mawās","state":"Minya","population":60835,"lat":27.64148,"lng":30.85012},{"city":"Al Burj","state":"Kafr el-Sheikh","population":60320,"lat":31.58229,"lng":30.98095},{"city":"Nag Hammâdi","state":"Qena","population":59601,"lat":26.04949,"lng":32.24142},{"city":"Aş Şāliḩīyah al Jadīdah","state":"Sharqia","population":59320,"lat":30.63146,"lng":31.93927},{"city":"Nabarūh","state":"Dakahlia","population":59202,"lat":31.09755,"lng":31.30312},{"city":"Al Ḩāmūl","state":"Kafr el-Sheikh","population":58430,"lat":31.31146,"lng":31.14766},{"city":"Al Wāsiţah","state":"Faiyum","population":57870,"lat":29.33778,"lng":31.20556},{"city":"Al Badārī","state":"Asyut","population":56033,"lat":26.99306,"lng":31.41605},{"city":"Kawm Ḩamādah","state":"Beheira","population":55652,"lat":30.76128,"lng":30.69972},{"city":"Dumyāţ al Jadīdah","state":"Damietta","population":54508,"lat":31.43482,"lng":31.67506},{"city":"As Sāḩil","state":"Asyut","population":54094,"lat":27.06309,"lng":31.34425},{"city":"Al Ibrāhīmīyah","state":"Sharqia","population":53791,"lat":30.71877,"lng":31.56299},{"city":"Al Marāghah","state":"Sohag","population":53643,"lat":26.69981,"lng":31.60464},{"city":"Safaga","state":"Red Sea","population":53639,"lat":26.74906,"lng":33.93891},{"city":"‘Izbat ‘Alī as Sayyid","state":"Beheira","population":53079,"lat":31.15671,"lng":30.14775},{"city":"Ţūkh","state":"Qalyubia","population":52593,"lat":30.35487,"lng":31.20105},{"city":"Būlāq Abū al ‘Ilā","state":"Cairo","population":51741,"lat":30.06041,"lng":31.23147},{"city":"Balţīm","state":"Kafr el-Sheikh","population":51280,"lat":31.55582,"lng":31.08918},{"city":"Birkat as Sab‘","state":"Monufia","population":50924,"lat":30.62914,"lng":31.08235},{"city":"Al Ḩusaynīyah","state":"Sharqia","population":50651,"lat":30.86163,"lng":31.91809},{"city":"Qillīn","state":"Kafr el-Sheikh","population":48233,"lat":31.0475,"lng":30.85487},{"city":"Mīt Salsīl","state":"Dakahlia","population":48166,"lat":31.16757,"lng":31.80125},{"city":"Kafr al Baţţīkh","state":"Damietta","population":47198,"lat":31.40398,"lng":31.73778},{"city":"Aga","state":"Dakahlia","population":47013,"lat":30.94162,"lng":31.29039},{"city":"Zaafarana","state":"Red Sea","population":46993,"lat":29.11007,"lng":32.66012},{"city":"At Tall al Kabīr","state":"Sharqia","population":46962,"lat":30.54323,"lng":31.78504},{"city":"Banī ‘Ubayd","state":"Minya","population":46060,"lat":27.95243,"lng":30.78082},{"city":"Burj al ‘Arab al Jadīdah","state":"Alexandria","population":45865,"lat":30.88525,"lng":29.57721},{"city":"As Sanţah","state":"Gharbia","population":45813,"lat":30.74614,"lng":31.12964},{"city":"Al ‘Ayyāţ","state":"Giza","population":45793,"lat":29.61972,"lng":31.2575},{"city":"Aş Şalāḩāt","state":"Dakahlia","population":45557,"lat":31.00205,"lng":31.62626},{"city":"Al ‘Ayn as Sukhnah","state":"Suez","population":45552,"lat":29.58902,"lng":32.33597},{"city":"Ain Sukhna","state":"Suez","population":45552,"lat":29.60018,"lng":32.31671},{"city":"Kafr al Kurdī","state":"Dakahlia","population":44905,"lat":31.16844,"lng":31.7655},{"city":"Ras Gharib","state":"Red Sea","population":44852,"lat":28.35831,"lng":33.07829},{"city":"Sīdī Sālim","state":"Kafr el-Sheikh","population":44709,"lat":31.27133,"lng":30.78617},{"city":"Kafr Şaqr","state":"Sharqia","population":44529,"lat":30.79336,"lng":31.62575},{"city":"Ar Raḩmānīyah","state":"Beheira","population":44482,"lat":31.10483,"lng":30.64135},{"city":"Rafaḩ","state":"North Sinai","population":44215,"lat":31.28204,"lng":34.23869},{"city":"Muţūbas","state":"Kafr el-Sheikh","population":43899,"lat":31.29443,"lng":30.52248},{"city":"Fāraskūr","state":"Damietta","population":43400,"lat":31.32977,"lng":31.71507},{"city":"Abū Ḩammād","state":"Sharqia","population":43001,"lat":30.53766,"lng":31.67875},{"city":"Shubrākhīt","state":"Beheira","population":41233,"lat":31.02795,"lng":30.71493},{"city":"Madīnat Wādī an Naţrūn","state":"Beheira","population":41186,"lat":30.37746,"lng":30.35032},{"city":"Aţ Ţārif","state":"New Valley","population":38871,"lat":25.73826,"lng":32.63684},{"city":"Sharm el-Sheikh","state":"South Sinai","population":38478,"lat":27.91582,"lng":34.32995},{"city":"El-Tor","state":"South Sinai","population":38285,"lat":28.24168,"lng":33.6222},{"city":"Sīdī Barānī","state":"Matruh","population":38253,"lat":31.61166,"lng":25.92539},{"city":"Dār as Salām","state":"Sohag","population":38008,"lat":26.27845,"lng":32.05608},{"city":"‘Izbat al Burj","state":"Dakahlia","population":37953,"lat":31.5084,"lng":31.84106},{"city":"Sumusţā as Sulţānī","state":"Beni Suweif","population":37260,"lat":28.91667,"lng":30.85},{"city":"Qahā","state":"Qalyubia","population":36225,"lat":30.28011,"lng":31.20531},{"city":"Fāyīd","state":"Ismailia","population":35066,"lat":30.31263,"lng":32.30935},{"city":"Al Waqf","state":"Qena","population":34723,"lat":26.08657,"lng":32.42265},{"city":"Al Maḩmūdīyah","state":"Beheira","population":34660,"lat":31.18352,"lng":30.52448},{"city":"Sāqultah","state":"Sohag","population":34273,"lat":26.65817,"lng":31.67137},{"city":"Badr","state":"Cairo","population":32940,"lat":30.136,"lng":31.715},{"city":"Al Başalīyah Baḩrī","state":"Aswan","population":32920,"lat":25.15,"lng":32.71667},{"city":"Awlād Şaqr","state":"Sharqia","population":32840,"lat":30.93055,"lng":31.69864},{"city":"Abu Suweir-el-Mahatta","state":"Sharqia","population":32763,"lat":30.56977,"lng":32.1146},{"city":"Banī Suwayf al Jadīdah","state":"Red Sea","population":32278,"lat":29.033,"lng":31.11408},{"city":"Quţūr","state":"Gharbia","population":32043,"lat":30.97225,"lng":30.95614},{"city":"Maḩallat Damanah","state":"Dakahlia","population":31921,"lat":31.07287,"lng":31.49503},{"city":"Al Qanţarah","state":"Ismailia","population":31808,"lat":30.85711,"lng":32.31183},{"city":"Ar-Rawḍah","state":"Damietta","population":31240,"lat":31.32336,"lng":31.76122},{"city":"Şān al Ḩajar al Qiblīyah","state":"Sharqia","population":30969,"lat":30.97478,"lng":31.87231},{"city":"Kafr Shukr","state":"Monufia","population":30948,"lat":30.54972,"lng":31.24444},{"city":"Ţūd","state":"Luxor","population":30780,"lat":25.58278,"lng":32.5329},{"city":"Şidfā","state":"Asyut","population":30228,"lat":26.96637,"lng":31.37953},{"city":"As Sarw","state":"Damietta","population":29286,"lat":31.23867,"lng":31.65379},{"city":"New Bani Sewif City","state":"Beni Suweif","population":29117,"lat":29.03556,"lng":31.11792},{"city":"Sīdī Ghāzī","state":"Kafr el-Sheikh","population":28136,"lat":31.21114,"lng":31.05119},{"city":"Badr","state":"Beheira","population":28091,"lat":30.575,"lng":30.71111},{"city":"El Dabaa","state":"Matruh","population":27697,"lat":31.02819,"lng":28.44498},{"city":"Az Zarqā","state":"Damietta","population":26955,"lat":31.20864,"lng":31.63528},{"city":"Aţfīḩ","state":"Giza","population":26943,"lat":29.4075,"lng":31.2525},{"city":"Mūţ","state":"New Valley","population":26820,"lat":25.48742,"lng":28.97918},{"city":"Naqādah","state":"Qena","population":26774,"lat":25.90107,"lng":32.72392},{"city":"Ash Shaykh Zuwayd","state":"North Sinai","population":26713,"lat":31.2163,"lng":34.11074},{"city":"Bi’r al ‘Abd","state":"North Sinai","population":26330,"lat":31.01887,"lng":33.0098},{"city":"Al ‘Idwah","state":"Minya","population":26092,"lat":28.69919,"lng":30.7673},{"city":"Sīwah","state":"Matruh","population":25031,"lat":29.2032,"lng":25.51965},{"city":"Al Quşayr","state":"Red Sea","population":24653,"lat":26.10611,"lng":34.27716},{"city":"Al Qaşşāşīn","state":"Sharqia","population":24364,"lat":30.56412,"lng":31.93386},{"city":"Ar Riyāḑ","state":"Kafr el-Sheikh","population":24254,"lat":31.24193,"lng":30.94504},{"city":"Qifţ","state":"Qena","population":24010,"lat":25.99845,"lng":32.81808},{"city":"Yūsuf aṣ-Ṣiddīq","state":"Faiyum","population":23965,"lat":29.385,"lng":30.557},{"city":"Al Bayāḑīyah","state":"Luxor","population":23550,"lat":25.66477,"lng":32.63539},{"city":"An Nūbārīyah","state":"Beheira","population":23282,"lat":30.6687,"lng":30.07391},{"city":"Munsha‘at Abū ‘Umar","state":"Sharqia","population":22543,"lat":30.90711,"lng":32.02341},{"city":"Burj al ‘Arab","state":"Alexandria","population":22444,"lat":30.90316,"lng":29.55276},{"city":"An Nāşirīyah","state":"Asyut","population":22435,"lat":27.20583,"lng":31.19639},{"city":"As Sibā‘īyah","state":"Aswan","population":21610,"lat":25.19413,"lng":32.6771},{"city":"Mīt Abū Ghālib","state":"Damietta","population":20470,"lat":31.28837,"lng":31.67719},{"city":"Jarājūs","state":"Qena","population":20427,"lat":25.87198,"lng":32.75585},{"city":"Timayy al Imdīd","state":"Dakahlia","population":20389,"lat":30.94384,"lng":31.52926},{"city":"Az Zaynīyah Qiblī","state":"Luxor","population":20000,"lat":25.75089,"lng":32.6776},{"city":"An-Najaylah","state":"Matruh","population":19768,"lat":31.4071,"lng":26.5832},{"city":"Manshīyat al Qanāţir","state":"Giza","population":19185,"lat":30.18479,"lng":31.10649},{"city":"Al Ḩammām","state":"Matruh","population":18407,"lat":30.84532,"lng":29.38818},{"city":"Abū Ţisht","state":"Qena","population":18194,"lat":26.12039,"lng":32.09543},{"city":"Kafr Sa‘d","state":"Damietta","population":18120,"lat":31.35573,"lng":31.68484},{"city":"Al-Minyā al-Jadīdah","state":"Minya","population":17470,"lat":28.08639,"lng":30.81464},{"city":"As Sallūm","state":"Matruh","population":16545,"lat":31.55371,"lng":25.15793},{"city":"Ar Radīsīyah Qiblī","state":"Red Sea","population":16190,"lat":24.90652,"lng":32.88563},{"city":"Al Bawīţī","state":"Giza","population":15653,"lat":28.34827,"lng":28.86936},{"city":"El Gouna","state":"Red Sea","population":15000,"lat":27.39417,"lng":33.67825},{"city":"Shalateen","state":"Red Sea","population":12443,"lat":23.13235,"lng":35.59094},{"city":"Shalātīn","state":"Red Sea","population":12421,"lat":23.13905,"lng":35.59821},{"city":"Râs el-Barr","state":"Dakahlia","population":10213,"lat":31.51027,"lng":31.82851},{"city":"Marsa Alam","state":"Red Sea","population":10000,"lat":25.06305,"lng":34.89005},{"city":"Dahab","state":"South Sinai","population":8000,"lat":28.48208,"lng":34.49505},{"city":"Al ‘Alamayn","state":"Matruh","population":7400,"lat":30.83007,"lng":28.95502},{"city":"Qaşr al Farāfirah","state":"New Valley","population":5000,"lat":27.0568,"lng":27.96979},{"city":"Nuwaybi‘a","state":"South Sinai","population":5000,"lat":29.04681,"lng":34.6634},{"city":"Abu Simbel","state":"Aswan","population":5000,"lat":22.3457,"lng":31.61624},{"city":"Saint Catherine","state":"South Sinai","population":4603,"lat":28.56191,"lng":33.94934},{"city":"Makadi Bay","state":"Red Sea","population":4000,"lat":26.99123,"lng":33.89952},{"city":"Munshāt ‘Alī Āghā","state":"Kafr el-Sheikh","population":3847,"lat":31.15791,"lng":30.70177},{"city":"Zāwyat Umm ar Rakham","state":"Matruh","population":2643,"lat":31.39596,"lng":27.04526},{"city":"Masākin Shirkat Abū al Wafā lil Muqāwalāt wa al Istithmār al ‘Aqārī","state":"Cairo","population":2560,"lat":30.03253,"lng":31.29625},{"city":"Jam‘īyat Iskān aḑ Ḑubbāţ bi Akādīmīyat ash Shurţah","state":null,"population":1228,"lat":30.05618,"lng":31.42256},{"city":"Taba","state":"South Sinai","population":700,"lat":29.49199,"lng":34.89572},{"city":"Sānt Kātrīnā","state":"South Sinai","population":0,"lat":28.56199,"lng":33.95005}]}}