{"timezone":"Africa/Ouagadougou","countries":{"Burkina Faso":[{"city":"Ouagadougou","state":"Centre","population":2415266,"lat":12.36566,"lng":-1.53388},{"city":"Bobo-Dioulasso","state":"Hauts-Bassins","population":904920,"lat":11.18064,"lng":-4.29489},{"city":"Koudougou","state":"Centre-Ouest","population":160239,"lat":12.25188,"lng":-2.36694},{"city":"Saaba","state":"Centre","population":136011,"lat":12.37136,"lng":-1.41468},{"city":"Ouahigouya","state":"Nord","population":124587,"lat":13.5769,"lng":-2.41786},{"city":"Kaya","state":"Centre-Nord","population":121970,"lat":13.0883,"lng":-1.08368},{"city":"Banfora","state":"Cascades Region","population":117452,"lat":10.64064,"lng":-4.75285},{"city":"Pouytenga","state":"Centre-Est","population":96469,"lat":12.25162,"lng":-0.42565},{"city":"Houndé","state":"Hauts-Bassins","population":87151,"lat":11.5,"lng":-3.51667},{"city":"Fada N'gourma","state":"Est","population":73200,"lat":12.06157,"lng":0.35843},{"city":"Nioko I","state":"Centre","population":65263,"lat":12.39501,"lng":-1.43861},{"city":"Dédougou","state":"Boucle du Mouhoun","population":63617,"lat":12.4636,"lng":-3.46075},{"city":"Tenkodogo","state":"Centre-Est","population":61936,"lat":11.78442,"lng":-0.37184},{"city":"Djibo","state":"Sahel","population":61462,"lat":14.09864,"lng":-1.62665},{"city":"Kongoussi","state":"Centre-Nord","population":53627,"lat":13.32583,"lng":-1.53472},{"city":"Léo","state":"Centre-Ouest","population":51743,"lat":11.10033,"lng":-2.10654},{"city":"Koupéla","state":"Centre-Est","population":49372,"lat":12.17864,"lng":-0.35103},{"city":"Titao","state":"Nord","population":48241,"lat":13.76667,"lng":-2.06667},{"city":"Saonré","state":"Centre","population":47728,"lat":12.2751,"lng":-1.57692},{"city":"Dori","state":"Sahel","population":46512,"lat":14.03326,"lng":-0.03333},{"city":"Aribinda","state":"Sahel","population":45818,"lat":14.22963,"lng":-0.86537},{"city":"Gaoua","state":"Sud-Ouest","population":45284,"lat":10.33137,"lng":-3.18202},{"city":"Garango","state":"Centre-Est","population":40404,"lat":11.8,"lng":-0.55056},{"city":"Gourcy","state":"Nord","population":40141,"lat":13.20776,"lng":-2.35893},{"city":"Yako","state":"Nord","population":38679,"lat":12.9591,"lng":-2.26075},{"city":"Zorgo","state":"Plateau-Central","population":35398,"lat":12.24922,"lng":-0.61527},{"city":"Réo","state":"Centre-Ouest","population":33894,"lat":12.31963,"lng":-2.47094},{"city":"Orodara","state":"Hauts-Bassins","population":33422,"lat":10.98115,"lng":-4.91885},{"city":"Ziniaré","state":"Plateau-Central","population":33296,"lat":12.58236,"lng":-1.29753},{"city":"Niangoloko","state":"Cascades Region","population":33292,"lat":10.28333,"lng":-4.91667},{"city":"Nouna","state":"Boucle du Mouhoun","population":32428,"lat":12.72939,"lng":-3.86305},{"city":"Bama","state":"Boucle du Mouhoun","population":31215,"lat":12.0357,"lng":-4.3987},{"city":"Bittou","state":"Centre-Est","population":31210,"lat":11.25806,"lng":-0.30611},{"city":"Kombissiri","state":"Centre-Sud","population":28617,"lat":12.06884,"lng":-1.33644},{"city":"Manga","state":"Centre-Sud","population":28615,"lat":11.66496,"lng":-1.06977},{"city":"Pô","state":"Centre-Sud","population":28079,"lat":11.16972,"lng":-1.145},{"city":"Bourzanga","state":"Centre-Nord","population":27213,"lat":13.67806,"lng":-1.54611},{"city":"Barogo","state":"Plateau-Central","population":26539,"lat":12.55,"lng":-0.96667},{"city":"Gao","state":"Centre-Ouest","population":26453,"lat":11.64967,"lng":-2.17777},{"city":"Tougan","state":"Boucle du Mouhoun","population":26347,"lat":13.07237,"lng":-3.06939},{"city":"Sapouy","state":"Centre-Ouest","population":26345,"lat":11.55444,"lng":-1.77361},{"city":"Yalgo","state":"Centre-Nord","population":26340,"lat":12.93333,"lng":-0.85},{"city":"Kokologo","state":"Centre-Ouest","population":25958,"lat":12.19392,"lng":-1.87687},{"city":"Dano","state":"Sud-Ouest","population":25922,"lat":11.1464,"lng":-3.05784},{"city":"Mogtédo","state":"Plateau-Central","population":25699,"lat":12.28444,"lng":-0.83722},{"city":"Diébougou","state":"Sud-Ouest","population":25688,"lat":10.96209,"lng":-3.24967},{"city":"Boussé","state":"Plateau-Central","population":25022,"lat":12.66121,"lng":-1.89515},{"city":"Solenzo","state":"Boucle du Mouhoun","population":24783,"lat":12.17423,"lng":-4.08477},{"city":"Boulsa","state":"Centre-Nord","population":24200,"lat":12.66664,"lng":-0.57469},{"city":"Pissila","state":"Centre-Nord","population":23420,"lat":13.16417,"lng":-0.8225},{"city":"Béguédo","state":"Centre-Est","population":21894,"lat":11.78083,"lng":-0.73389},{"city":"Zabré","state":"Centre-Est","population":21726,"lat":11.1825,"lng":-0.63222},{"city":"Bogandé","state":"Est","population":21443,"lat":12.97711,"lng":-0.14661},{"city":"Fara Department","state":"Boucle du Mouhoun","population":20434,"lat":11.52941,"lng":-2.76797},{"city":"Boromo","state":"Boucle du Mouhoun","population":20193,"lat":11.74542,"lng":-2.93006},{"city":"Cinkansé","state":"Centre-Est","population":19815,"lat":11.11857,"lng":0.00993},{"city":"Zinguédéssé","state":"Centre","population":19648,"lat":12.24661,"lng":-1.58402},{"city":"Korsimoro","state":"Centre-Nord","population":18875,"lat":12.82506,"lng":-1.06737},{"city":"Batié","state":"Sud-Ouest","population":17997,"lat":9.88333,"lng":-2.91667},{"city":"Kouka","state":"Centre-Nord","population":17286,"lat":13.4345,"lng":-1.61361},{"city":"Natiaboani","state":"Est","population":16640,"lat":11.69917,"lng":0.50611},{"city":"Tita","state":"Centre-Ouest","population":16450,"lat":11.92092,"lng":-2.51536},{"city":"Kindi","state":"Centre-Ouest","population":16424,"lat":12.4386,"lng":-2.03279},{"city":"Namponkoré","state":"Est","population":16423,"lat":11.73748,"lng":1.77718},{"city":"Tô","state":"Centre-Ouest","population":16026,"lat":11.44379,"lng":-2.22548},{"city":"Toma","state":"Boucle du Mouhoun","population":15851,"lat":12.75844,"lng":-2.89879},{"city":"Diapaga","state":"Est","population":15515,"lat":12.0729,"lng":1.78835},{"city":"Karankasso","state":"Hauts-Bassins","population":15474,"lat":11.22191,"lng":-4.64423},{"city":"Gomboussougou","state":"Centre-Sud","population":15336,"lat":11.42611,"lng":-0.77278},{"city":"Pa","state":"Boucle du Mouhoun","population":15170,"lat":12.66667,"lng":-3.95},{"city":"Gayéri","state":"Est","population":15170,"lat":12.64824,"lng":0.49314},{"city":"Mani","state":"Est","population":15066,"lat":13.25833,"lng":-0.21306},{"city":"Sabou","state":"Centre-Ouest","population":15060,"lat":12.06667,"lng":-2.23333},{"city":"Kompienga","state":"Est","population":15024,"lat":11.08169,"lng":0.72365},{"city":"Pama","state":"Est","population":13579,"lat":11.24972,"lng":0.7075},{"city":"Ouargaye","state":"Centre-Est","population":13431,"lat":11.50202,"lng":0.05886},{"city":"Sebba","state":"Sahel","population":11298,"lat":13.43641,"lng":0.53044},{"city":"Gorom-Gorom","state":"Sahel","population":9752,"lat":14.4429,"lng":-0.23468},{"city":"Pitmoaga","state":"Centre-Ouest","population":7991,"lat":12.24564,"lng":-1.88148},{"city":"Sindou","state":"Cascades Region","population":7053,"lat":10.66667,"lng":-5.16667},{"city":"Goulouré","state":"Centre-Ouest","population":6677,"lat":12.23484,"lng":-1.93394},{"city":"Barani","state":"Boucle du Mouhoun","population":5000,"lat":13.1691,"lng":-3.8899},{"city":"Kiougou-Kandaga","state":"Est","population":1732,"lat":11.79258,"lng":0.07531},{"city":"Gonna","state":"Nord","population":761,"lat":13.60603,"lng":-2.86633},{"city":"Sièn","state":"Boucle du Mouhoun","population":707,"lat":12.6926,"lng":-2.8987},{"city":"Nanom","state":"Plateau-Central","population":533,"lat":12.1,"lng":-0.71667},{"city":"Gousi","state":"Boucle du Mouhoun","population":516,"lat":12.6561,"lng":-2.7953},{"city":"Zitenga","state":"Plateau-Central","population":0,"lat":12.74846,"lng":-1.30989},{"city":"Toéghin","state":"Plateau-Central","population":0,"lat":12.8159,"lng":-1.72763},{"city":"Tanghin-Dassouri","state":"Centre","population":0,"lat":12.27256,"lng":-1.71704},{"city":"Sourgoubila","state":"Plateau-Central","population":0,"lat":12.41462,"lng":-1.80644},{"city":"Siglé","state":"Centre-Ouest","population":0,"lat":12.55618,"lng":-1.88775},{"city":"Saponé","state":"Centre-Sud","population":0,"lat":12.05356,"lng":-1.60491},{"city":"Nagréongo","state":"Plateau-Central","population":0,"lat":12.47847,"lng":-1.20129},{"city":"Pabré","state":"Centre","population":0,"lat":12.52147,"lng":-1.58631},{"city":"Oursi","state":"Sahel","population":0,"lat":14.67553,"lng":-0.46033},{"city":"Ourgou-Manéga","state":"Plateau-Central","population":0,"lat":12.77994,"lng":-1.5077},{"city":"Niou","state":"Plateau-Central","population":0,"lat":12.76975,"lng":-1.93376},{"city":"Koubri","state":"Centre","population":0,"lat":12.19785,"lng":-1.40662},{"city":"Mané","state":"Centre-Nord","population":0,"lat":12.98836,"lng":-1.34434},{"city":"Loumbila","state":"Plateau-Central","population":0,"lat":12.51863,"lng":-1.3734},{"city":"Laye","state":"Plateau-Central","population":0,"lat":12.53118,"lng":-1.77684},{"city":"Komsilga","state":"Centre","population":0,"lat":12.18653,"lng":-1.63379},{"city":"Komki-Ipala","state":"Centre","population":0,"lat":12.18279,"lng":-1.79131},{"city":"Kayao","state":"Centre-Sud","population":0,"lat":12.01295,"lng":-1.8419},{"city":"Gaongo","state":"Centre-Sud","population":0,"lat":12.00414,"lng":-1.16455},{"city":"Déou","state":"Sahel","population":0,"lat":14.60084,"lng":-0.71901},{"city":"Dapélogo","state":"Plateau-Central","population":0,"lat":12.67274,"lng":-1.53907},{"city":"Boussouma","state":"Centre-Nord","population":0,"lat":12.91069,"lng":-1.0819},{"city":"Bingo","state":"Centre-Ouest","population":0,"lat":12.30092,"lng":-1.8348},{"city":"Bilanga","state":"Est","population":0,"lat":12.54652,"lng":-0.02438},{"city":"Absouya","state":"Plateau-Central","population":0,"lat":12.6406,"lng":-1.05426},{"city":"Tin-Akoff","state":"Sahel","population":0,"lat":14.96549,"lng":-0.16335},{"city":"Boundoré","state":"Sahel","population":0,"lat":13.44114,"lng":0.90735}]}}