{"timezone":"Africa/El_Aaiun","countries":{"Western Sahara":[{"city":"Laayoune","state":null,"population":196331,"lat":27.1418,"lng":-13.18797},{"city":"Dakhla","state":null,"population":75000,"lat":23.68477,"lng":-15.95798},{"city":"Boujdour","state":null,"population":42651,"lat":26.13073,"lng":-14.48513},{"city":"El Marsa","state":null,"population":17917,"lat":27.09611,"lng":-13.41583},{"city":"Tichla","state":null,"population":6036,"lat":21.5837,"lng":-14.97222},{"city":"El Aargub","state":null,"population":5020,"lat":23.60882,"lng":-15.86726},{"city":"Tifariti","state":null,"population":3000,"lat":26.1579,"lng":-10.55889},{"city":"Bu Craa","state":null,"population":2519,"lat":26.35389,"lng":-12.78389},{"city":"Bir Anzarane","state":null,"population":1273,"lat":23.89,"lng":-14.53603},{"city":"Daoura","state":null,"population":900,"lat":27.46175,"lng":-12.99412},{"city":"Zug","state":null,"population":833,"lat":21.56523,"lng":-14.10388},{"city":"Hasi Gueleita","state":null,"population":512,"lat":24.99528,"lng":-12.33694}]}}