{"timezone":"Africa/Juba","countries":{"South Sudan":[{"city":"Juba","state":"Central Equatoria","population":450000,"lat":4.85165,"lng":31.58247},{"city":"Winejok","state":"Northern Bahr al Ghazal","population":300000,"lat":9.01222,"lng":27.57081},{"city":"Yei","state":"Central Equatoria","population":260720,"lat":4.09444,"lng":30.67639},{"city":"Malakal","state":"Upper Nile","population":160765,"lat":9.53342,"lng":31.66049},{"city":"Wau","state":"Western Bahr al Ghazal","population":127384,"lat":7.70111,"lng":27.98972},{"city":"Kuacjok","state":"Warrap","population":78000,"lat":8.30278,"lng":27.98},{"city":"Pajok","state":"Eastern Equatoria","population":49000,"lat":3.86512,"lng":32.48212},{"city":"Gogrial","state":"Warrap","population":44600,"lat":8.53324,"lng":28.10037},{"city":"Yambio","state":"Western Equatoria","population":40382,"lat":4.57083,"lng":28.39417},{"city":"Aweil","state":"Northern Bahr al Ghazal","population":38745,"lat":8.76194,"lng":27.39194},{"city":"Rumbek","state":"Lakes","population":32083,"lat":6.80619,"lng":29.67742},{"city":"Bor","state":"Jonglei","population":26782,"lat":6.20889,"lng":31.55861},{"city":"Torit","state":"Eastern Equatoria","population":20048,"lat":4.41177,"lng":32.57046},{"city":"Leer","state":"Unity","population":17827,"lat":8.30306,"lng":30.14056},{"city":"Tonj","state":"Warrap","population":17338,"lat":7.27389,"lng":28.6775},{"city":"Kafia Kingi","state":"Western Bahr al Ghazal","population":16000,"lat":9.27345,"lng":24.41701},{"city":"Maridi","state":"Western Equatoria","population":14224,"lat":4.91667,"lng":29.46944},{"city":"Yirol","state":"Lakes","population":11650,"lat":6.5525,"lng":30.49806},{"city":"Tambura","state":"Western Equatoria","population":9500,"lat":5.6,"lng":27.46667},{"city":"Kodok","state":"Upper Nile","population":7709,"lat":9.88889,"lng":32.10944},{"city":"Bentiu","state":"Unity","population":7653,"lat":9.25722,"lng":29.79833},{"city":"Kapoeta","state":"Eastern Equatoria","population":7042,"lat":4.77222,"lng":33.59139},{"city":"Raja","state":"Western Bahr al Ghazal","population":3700,"lat":8.4675,"lng":25.67833}]}}