{"timezone":"America/Araguaina","countries":{"Brazil":[{"city":"Palmas","state":"Tocantins","population":306296,"lat":-10.16745,"lng":-48.32766},{"city":"Araguaína","state":"Tocantins","population":105019,"lat":-7.19111,"lng":-48.20722},{"city":"Gurupi","state":"Tocantins","population":89574,"lat":-11.72917,"lng":-49.06861},{"city":"Porto Nacional","state":"Tocantins","population":68555,"lat":-10.70806,"lng":-48.41722},{"city":"Paraíso do Tocantins","state":"Tocantins","population":55164,"lat":-10.17611,"lng":-48.86667},{"city":"Colinas do Tocantins","state":"Tocantins","population":35957,"lat":-8.05917,"lng":-48.475},{"city":"Araguatins","state":"Tocantins","population":33205,"lat":-5.65084,"lng":-48.11119},{"city":"Guaraí","state":"Tocantins","population":25681,"lat":-8.83417,"lng":-48.51028},{"city":"Tocantinópolis","state":"Tocantins","population":23203,"lat":-6.32944,"lng":-47.41639},{"city":"Formoso do Araguaia","state":"Tocantins","population":19428,"lat":-11.79667,"lng":-49.52889},{"city":"Miracema do Tocantins","state":"Tocantins","population":18787,"lat":-9.56722,"lng":-48.39167},{"city":"Dianópolis","state":"Tocantins","population":18031,"lat":-11.62778,"lng":-46.82056},{"city":"Lagoa da Confusão","state":"Tocantins","population":16312,"lat":-10.79361,"lng":-49.62361},{"city":"Pedro Afonso","state":"Tocantins","population":14731,"lat":-8.9675,"lng":-48.17472},{"city":"São Miguel do Tocantins","state":"Tocantins","population":13939,"lat":-5.55196,"lng":-47.57811},{"city":"Taguatinga","state":"Tocantins","population":13711,"lat":-12.40389,"lng":-46.43611},{"city":"Miranorte","state":"Tocantins","population":13056,"lat":-9.52944,"lng":-48.59},{"city":"Goiatins","state":"Tocantins","population":12816,"lat":-7.71,"lng":-47.31417},{"city":"Sítio Novo do Tocantins","state":"Tocantins","population":11334,"lat":-5.6,"lng":-47.64139},{"city":"Paranã","state":"Tocantins","population":10854,"lat":-12.61528,"lng":-47.88306},{"city":"Wanderlândia","state":"Tocantins","population":10751,"lat":-6.84917,"lng":-47.96306},{"city":"Xambioá","state":"Tocantins","population":10683,"lat":-6.41111,"lng":-48.53639},{"city":"Axixá do Tocantins","state":"Tocantins","population":10663,"lat":-5.61639,"lng":-47.78611},{"city":"Ananás","state":"Tocantins","population":10662,"lat":-6.36528,"lng":-48.07278},{"city":"Buriti do Tocantins","state":"Tocantins","population":10654,"lat":-5.31528,"lng":-48.22972},{"city":"Nova Olinda","state":"Tocantins","population":10609,"lat":-7.63167,"lng":-48.4225},{"city":"Arraias","state":"Tocantins","population":10522,"lat":-12.93139,"lng":-46.93833},{"city":"Praia Norte","state":"Tocantins","population":9460,"lat":-5.39306,"lng":-47.81111},{"city":"Peixe","state":"Tocantins","population":9438,"lat":-12.025,"lng":-48.53917},{"city":"Colméia","state":"Tocantins","population":9158,"lat":-8.72944,"lng":-48.76472},{"city":"Alvorada","state":"Tocantins","population":9094,"lat":-12.48,"lng":-49.12472},{"city":"Campos Lindos","state":"Tocantins","population":8951,"lat":-7.99389,"lng":-46.86806},{"city":"Araguaçu","state":"Tocantins","population":8273,"lat":-12.93056,"lng":-49.82639},{"city":"Ponte Alta do Tocantins","state":"Tocantins","population":7842,"lat":-10.74389,"lng":-47.53611},{"city":"Filadélfia","state":"Tocantins","population":7823,"lat":-7.33611,"lng":-47.49028},{"city":"Babaçulândia","state":"Tocantins","population":7779,"lat":-7.20472,"lng":-47.75694},{"city":"Tocantínia","state":"Tocantins","population":7751,"lat":-9.56361,"lng":-48.37667},{"city":"Esperantina","state":"Tocantins","population":7493,"lat":-5.34278,"lng":-48.51139},{"city":"Santa Fé do Araguaia","state":"Tocantins","population":7489,"lat":-7.15583,"lng":-48.70278},{"city":"Pium","state":"Tocantins","population":7375,"lat":-10.4425,"lng":-49.18222},{"city":"Divinópolis do Tocantins","state":"Tocantins","population":7297,"lat":-9.79972,"lng":-49.21389},{"city":"Palmeirópolis","state":"Tocantins","population":7119,"lat":-13.04389,"lng":-48.40222},{"city":"Itacajá","state":"Tocantins","population":6969,"lat":-8.39167,"lng":-47.76778},{"city":"Almas","state":"Tocantins","population":6542,"lat":-11.57361,"lng":-47.17028},{"city":"Cristalândia","state":"Tocantins","population":6437,"lat":-10.60028,"lng":-49.19306},{"city":"Dois Irmãos do Tocantins","state":"Tocantins","population":6395,"lat":-9.25833,"lng":-49.06444},{"city":"Darcinópolis","state":"Tocantins","population":6054,"lat":-6.70707,"lng":-47.74927},{"city":"Araguacema","state":"Tocantins","population":6039,"lat":-8.80361,"lng":-49.55639},{"city":"São Bento do Tocantins","state":"Tocantins","population":5936,"lat":-6.02028,"lng":-47.90222},{"city":"Monte do Carmo","state":"Tocantins","population":5722,"lat":-10.76333,"lng":-48.10889},{"city":"Arapoema","state":"Tocantins","population":5553,"lat":-7.65778,"lng":-49.06389},{"city":"Couto Magalhães","state":"Tocantins","population":5515,"lat":-8.36102,"lng":-49.17784},{"city":"Aragominas","state":"Tocantins","population":5360,"lat":-7.15972,"lng":-48.5275},{"city":"Figueirópolis","state":"Tocantins","population":5336,"lat":-12.13083,"lng":-49.17417},{"city":"Silvanópolis","state":"Tocantins","population":5252,"lat":-11.14667,"lng":-48.16917},{"city":"Aliança do Tocantins","state":"Tocantins","population":5222,"lat":-11.30611,"lng":-48.93583},{"city":"Itaguatins","state":"Tocantins","population":5206,"lat":-5.76889,"lng":-47.48333},{"city":"Aparecida do Rio Negro","state":"Tocantins","population":5067,"lat":-9.95167,"lng":-47.97222},{"city":"Pequizeiro","state":"Tocantins","population":5038,"lat":-8.59361,"lng":-48.93417},{"city":"Caseara","state":"Tocantins","population":5009,"lat":-9.27833,"lng":-49.95556},{"city":"Barrolândia","state":"Tocantins","population":4915,"lat":-9.83556,"lng":-48.72528},{"city":"Palmeirante","state":"Tocantins","population":4909,"lat":-7.86,"lng":-47.92583},{"city":"Palmeiras do Tocantins","state":"Tocantins","population":4897,"lat":-6.6125,"lng":-47.54583},{"city":"Combinado","state":"Tocantins","population":4896,"lat":-12.79194,"lng":-46.53889},{"city":"Goianorte","state":"Tocantins","population":4840,"lat":-8.77583,"lng":-48.93167},{"city":"Rio Sono","state":"Tocantins","population":4798,"lat":-9.34361,"lng":-47.90194},{"city":"Brejinho de Nazaré","state":"Tocantins","population":4796,"lat":-11.0,"lng":-48.56556},{"city":"Santa Rosa do Tocantins","state":"Tocantins","population":4789,"lat":-11.44889,"lng":-48.12056},{"city":"Marianópolis do Tocantins","state":"Tocantins","population":4772,"lat":-9.79583,"lng":-49.65417},{"city":"Nazaré","state":"Tocantins","population":4660,"lat":-6.37194,"lng":-47.66389},{"city":"Barra do Ouro","state":"Tocantins","population":4641,"lat":-7.68944,"lng":-47.68278},{"city":"Pindorama do Tocantins","state":"Tocantins","population":4596,"lat":-11.13861,"lng":-47.57861},{"city":"Valério","state":"Tocantins","population":4547,"lat":-11.63333,"lng":-48.23333},{"city":"Aguiarnópolis","state":"Tocantins","population":4537,"lat":-6.5625,"lng":-47.46639},{"city":"Sampaio","state":"Tocantins","population":4372,"lat":-5.34833,"lng":-47.87306},{"city":"Araguanã","state":"Tocantins","population":4338,"lat":-6.58111,"lng":-48.64444},{"city":"Dueré","state":"Tocantins","population":4321,"lat":-11.34389,"lng":-49.27056},{"city":"Bernardo Sayão","state":"Tocantins","population":4316,"lat":-7.87361,"lng":-48.88833},{"city":"Ponte Alta do Bom Jesus","state":"Tocantins","population":4295,"lat":-12.09083,"lng":-46.47917},{"city":"São Sebastião do Tocantins","state":"Tocantins","population":4189,"lat":-5.25722,"lng":-48.2},{"city":"Bom Jesus do Tocantins","state":"Tocantins","population":4181,"lat":-8.965,"lng":-48.16639},{"city":"Cariri do Tocantins","state":"Tocantins","population":4147,"lat":-11.89083,"lng":-49.16111},{"city":"Novo Acordo","state":"Tocantins","population":4102,"lat":-9.96278,"lng":-47.67722},{"city":"Pau d'Arco","state":"Tocantins","population":4085,"lat":-7.53972,"lng":-49.37222},{"city":"Riachinho","state":"Tocantins","population":4039,"lat":-6.4375,"lng":-48.13833},{"city":"Conceição do Tocantins","state":"Tocantins","population":3956,"lat":-12.21861,"lng":-47.29833},{"city":"Sandolândia","state":"Tocantins","population":3873,"lat":-12.53722,"lng":-49.925},{"city":"Itapiratins","state":"Tocantins","population":3679,"lat":-8.38389,"lng":-48.11139},{"city":"Fortaleza do Tabocão","state":"Tocantins","population":3676,"lat":-9.05722,"lng":-48.51889},{"city":"Lagoa do Tocantins","state":"Tocantins","population":3610,"lat":-10.37806,"lng":-47.55111},{"city":"Bandeirantes do Tocantins","state":"Tocantins","population":3534,"lat":-7.75639,"lng":-48.58361},{"city":"Lajeado","state":"Tocantins","population":3520,"lat":-9.75139,"lng":-48.35806},{"city":"Fátima","state":"Tocantins","population":3520,"lat":-10.75944,"lng":-48.90806},{"city":"Muricilândia","state":"Tocantins","population":3485,"lat":-7.14583,"lng":-48.61},{"city":"Recursolândia","state":"Tocantins","population":3471,"lat":-8.72778,"lng":-47.24306},{"city":"Jaú do Tocantins","state":"Tocantins","population":3403,"lat":-12.655,"lng":-48.59333},{"city":"Nova Rosalândia","state":"Tocantins","population":3403,"lat":-10.56667,"lng":-48.91417},{"city":"Carrasco Bonito","state":"Tocantins","population":3362,"lat":-5.32194,"lng":-48.03472},{"city":"Chapada da Natividade","state":"Tocantins","population":3182,"lat":-11.61258,"lng":-47.74987},{"city":"Maurilândia do Tocantins","state":"Tocantins","population":3171,"lat":-5.95306,"lng":-47.50639},{"city":"Presidente Kennedy","state":"Tocantins","population":3051,"lat":-8.53944,"lng":-48.50611},{"city":"Lizarda","state":"Tocantins","population":2991,"lat":-9.59417,"lng":-46.67306},{"city":"Porto Alegre do Tocantins","state":"Tocantins","population":2953,"lat":-11.60861,"lng":-47.04861},{"city":"Angico","state":"Tocantins","population":2918,"lat":-6.38917,"lng":-47.86444},{"city":"Mateiros","state":"Tocantins","population":2888,"lat":-10.5475,"lng":-46.42111},{"city":"Rio dos Bois","state":"Tocantins","population":2833,"lat":-9.345,"lng":-48.53528},{"city":"Luzinópolis","state":"Tocantins","population":2803,"lat":-6.18222,"lng":-47.85611},{"city":"Santa Maria do Tocantins","state":"Tocantins","population":2726,"lat":-8.79694,"lng":-47.79472},{"city":"Abreulândia","state":"Tocantins","population":2668,"lat":-9.62139,"lng":-49.15083},{"city":"Talismã","state":"Tocantins","population":2509,"lat":-12.795,"lng":-49.0925},{"city":"Itaporã do Tocantins","state":"Tocantins","population":2464,"lat":-8.57139,"lng":-48.68917},{"city":"Santa Tereza do Tocantins","state":"Tocantins","population":2463,"lat":-10.28222,"lng":-47.80833},{"city":"São Salvador do Tocantins","state":"Tocantins","population":2385,"lat":-12.74361,"lng":-48.23556},{"city":"Juarina","state":"Tocantins","population":2305,"lat":-8.11944,"lng":-49.06472},{"city":"Piraquê","state":"Tocantins","population":2265,"lat":-6.77361,"lng":-48.29694},{"city":"Novo Jardim","state":"Tocantins","population":2263,"lat":-11.81991,"lng":-46.62561},{"city":"Carmolândia","state":"Tocantins","population":2246,"lat":-7.03333,"lng":-48.39611},{"city":"Pugmil","state":"Tocantins","population":2231,"lat":-10.4247,"lng":-48.898},{"city":"Centenário","state":"Tocantins","population":2135,"lat":-8.95056,"lng":-47.33583},{"city":"Taipas do Tocantins","state":"Tocantins","population":2086,"lat":-12.18833,"lng":-46.98861},{"city":"Brasilândia do Tocantins","state":"Tocantins","population":2016,"lat":-8.3875,"lng":-48.48111},{"city":"Tupirama","state":"Tocantins","population":2003,"lat":-8.97278,"lng":-48.18778},{"city":"Tupiratins","state":"Tocantins","population":1897,"lat":-8.39389,"lng":-48.11556},{"city":"São Félix do Tocantins","state":"Tocantins","population":1875,"lat":-10.16833,"lng":-46.65944},{"city":"Novo Alegre","state":"Tocantins","population":1841,"lat":-12.93111,"lng":-46.57361},{"city":"Rio da Conceição","state":"Tocantins","population":1822,"lat":-11.40028,"lng":-46.88333},{"city":"Lavandeira","state":"Tocantins","population":1673,"lat":-12.78861,"lng":-46.50611},{"city":"Ipueiras","state":"Tocantins","population":1627,"lat":-11.23861,"lng":-48.46333},{"city":"Sucupira","state":"Tocantins","population":1599,"lat":-11.99333,"lng":-48.97083},{"city":"Chapada de Areia","state":"Tocantins","population":1563,"lat":-10.14198,"lng":-49.17954},{"city":"Oliveira de Fátima","state":"Tocantins","population":1211,"lat":-10.70778,"lng":-48.90667},{"city":"Santa Terezinha do Tocantins","state":"Tocantins","population":0,"lat":-6.43519,"lng":-47.67272},{"city":"Monte Santo do Tocantins","state":"Tocantins","population":0,"lat":-10.00627,"lng":-48.99099},{"city":"Xambioá","state":"Pará","population":0,"lat":-6.41137,"lng":-48.53103},{"city":"Axixá do Tocantins","state":"Tocantins","population":0,"lat":-5.6145,"lng":-47.76884},{"city":"Augustinópolis","state":"Tocantins","population":0,"lat":-5.46854,"lng":-47.88863},{"city":"Santa Maria do Tocantins","state":"Tocantins","population":0,"lat":-8.77542,"lng":-47.74745},{"city":"Cachoeirinha","state":"Tocantins","population":0,"lat":-6.12032,"lng":-47.9213},{"city":"Natividade","state":"Tocantins","population":0,"lat":-11.70871,"lng":-47.728},{"city":"Aurora do Tocantins","state":"Tocantins","population":0,"lat":-12.71189,"lng":-46.40642},{"city":"Santa Rita do Tocantins","state":"Tocantins","population":0,"lat":-10.8646,"lng":-48.90796},{"city":"Crixás do Tocantins","state":"Tocantins","population":0,"lat":-11.10443,"lng":-48.91913},{"city":"Combinado","state":"Tocantins","population":0,"lat":-12.81436,"lng":-46.54805},{"city":"Barra do Ouro","state":"Tocantins","population":0,"lat":-7.7134,"lng":-47.67459}]}}