{"timezone":"America/Santarem","countries":{"Brazil":[{"city":"Santarém","state":"Pará","population":189047,"lat":-2.44306,"lng":-54.70833},{"city":"Altamira","state":"Pará","population":126279,"lat":-3.20333,"lng":-52.20639},{"city":"Itaituba","state":"Pará","population":123314,"lat":-4.27611,"lng":-55.98361},{"city":"Alenquer","state":"Pará","population":69377,"lat":-1.94167,"lng":-54.73833},{"city":"Oriximiná","state":"Pará","population":68294,"lat":-1.76556,"lng":-55.86611},{"city":"Monte Alegre","state":"Pará","population":60012,"lat":-2.00082,"lng":-54.08102},{"city":"Óbidos","state":"Pará","population":52306,"lat":-1.9175,"lng":-55.51806},{"city":"Juruti","state":"Pará","population":50881,"lat":-2.15222,"lng":-56.09222},{"city":"Uruará","state":"Pará","population":43558,"lat":-3.7175,"lng":-53.73667},{"city":"Porto de Moz","state":"Pará","population":40597,"lat":-1.74833,"lng":-52.23833},{"city":"Rurópolis","state":"Pará","population":35769,"lat":-4.09556,"lng":-54.91028},{"city":"Prainha","state":"Pará","population":35577,"lat":-1.8,"lng":-53.48},{"city":"Almeirim","state":"Pará","population":34280,"lat":-1.52333,"lng":-52.58167},{"city":"Novo Progresso","state":"Pará","population":33638,"lat":-7.14778,"lng":-55.38111},{"city":"Medicilândia","state":"Pará","population":27094,"lat":-3.44611,"lng":-52.88889},{"city":"Brasil Novo","state":"Pará","population":24718,"lat":-3.30708,"lng":-52.53863},{"city":"Jacareacanga","state":"Pará","population":24042,"lat":-6.22222,"lng":-57.75278},{"city":"Mojuí dos Campos","state":"Pará","population":23501,"lat":-2.68333,"lng":-54.64278},{"city":"Nhamundá","state":"Amazonas","population":21106,"lat":-2.18611,"lng":-56.71306},{"city":"Terra Santa","state":"Pará","population":18782,"lat":-2.10417,"lng":-56.48694},{"city":"Placas","state":"Pará","population":18668,"lat":-3.86778,"lng":-54.22},{"city":"Aveiro","state":"Pará","population":18290,"lat":-3.60556,"lng":-55.33167},{"city":"Belterra","state":"Pará","population":18099,"lat":-2.63639,"lng":-54.93722},{"city":"Vitória do Xingu","state":"Pará","population":15607,"lat":-2.88,"lng":-52.01},{"city":"Trairão","state":"Pará","population":15242,"lat":-4.57444,"lng":-55.94361},{"city":"Curuá","state":"Pará","population":14117,"lat":-1.88806,"lng":-55.11667},{"city":"Castelo dos Sonhos","state":"Pará","population":11952,"lat":-8.3168,"lng":-55.10001},{"city":"Faro","state":"Pará","population":8728,"lat":-2.17139,"lng":-56.745},{"city":"Alter do Chão","state":"Pará","population":6740,"lat":-2.50361,"lng":-54.9525},{"city":"Novo Progresso","state":"Pará","population":0,"lat":-7.04124,"lng":-55.41964},{"city":"Trairão","state":"Pará","population":0,"lat":-4.70019,"lng":-55.99513}]}}