{"timezone":"America/St_Johns","countries":{"Canada":[{"city":"St. John's","state":"Newfoundland and Labrador","population":110525,"lat":47.56494,"lng":-52.70931},{"city":"Mount Pearl","state":"Newfoundland and Labrador","population":23120,"lat":47.51659,"lng":-52.78135},{"city":"Paradise","state":"Newfoundland and Labrador","population":22957,"lat":47.52909,"lng":-52.88136},{"city":"Corner Brook","state":"Newfoundland and Labrador","population":18693,"lat":48.95001,"lng":-57.95202},{"city":"Conception Bay South","state":"Newfoundland and Labrador","population":17087,"lat":47.49989,"lng":-52.99806},{"city":"Grand Falls-Windsor","state":"Newfoundland and Labrador","population":12076,"lat":48.93324,"lng":-55.66492},{"city":"Gander","state":"Newfoundland and Labrador","population":11688,"lat":48.95624,"lng":-54.61647},{"city":"Downtown St. John's","state":"Newfoundland and Labrador","population":9431,"lat":47.56075,"lng":-52.711},{"city":"Clarenville","state":"Newfoundland and Labrador","population":6704,"lat":48.1666,"lng":-53.96482},{"city":"Stephenville","state":"Newfoundland and Labrador","population":6278,"lat":48.55001,"lng":-58.5818},{"city":"Bay Roberts","state":"Newfoundland and Labrador","population":6012,"lat":47.59989,"lng":-53.26478},{"city":"Carbonear","state":"Newfoundland and Labrador","population":4838,"lat":47.73919,"lng":-53.2272},{"city":"Grand Bank","state":"Newfoundland and Labrador","population":4623,"lat":47.09995,"lng":-55.76504},{"city":"Deer Lake","state":"Newfoundland and Labrador","population":4602,"lat":49.16671,"lng":-57.43163},{"city":"Goulds","state":"Newfoundland and Labrador","population":4418,"lat":47.45532,"lng":-52.77552},{"city":"Channel-Port aux Basques","state":"Newfoundland and Labrador","population":4220,"lat":47.57286,"lng":-59.13808},{"city":"Pasadena","state":"Newfoundland and Labrador","population":3620,"lat":49.01671,"lng":-57.59837},{"city":"Clarenville-Shoal Harbour","state":"Newfoundland and Labrador","population":3478,"lat":48.1805,"lng":-53.96982},{"city":"Bonavista","state":"Newfoundland and Labrador","population":3448,"lat":48.64989,"lng":-53.11474},{"city":"Torbay","state":"Newfoundland and Labrador","population":3097,"lat":47.66659,"lng":-52.73135},{"city":"Botwood","state":"Newfoundland and Labrador","population":2875,"lat":49.14994,"lng":-55.34819},{"city":"Harbour Grace","state":"Newfoundland and Labrador","population":2796,"lat":47.68549,"lng":-53.22638},{"city":"Marystown","state":"Newfoundland and Labrador","population":2697,"lat":47.16663,"lng":-55.14829},{"city":"Fogo Island","state":"Newfoundland and Labrador","population":2244,"lat":49.71649,"lng":-54.16981},{"city":"Lewisporte","state":"Newfoundland and Labrador","population":2174,"lat":49.24343,"lng":-55.06196},{"city":"Wabana","state":"Newfoundland and Labrador","population":2146,"lat":47.63319,"lng":-52.94806},{"city":"Twillingate","state":"Newfoundland and Labrador","population":2121,"lat":49.64992,"lng":-54.76486},{"city":"Springdale","state":"Newfoundland and Labrador","population":2080,"lat":49.49995,"lng":-56.06492},{"city":"St. Anthony","state":"Newfoundland and Labrador","population":2049,"lat":51.37039,"lng":-55.59743},{"city":"New-Wes-Valley","state":"Newfoundland and Labrador","population":2044,"lat":49.14988,"lng":-53.56475},{"city":"Gambo","state":"Newfoundland and Labrador","population":1978,"lat":48.7832,"lng":-54.21482},{"city":"Harbour Breton","state":"Newfoundland and Labrador","population":1898,"lat":47.48325,"lng":-55.79833},{"city":"Trinity Bay North","state":"Newfoundland and Labrador","population":1649,"lat":48.5221,"lng":-53.0713},{"city":"Baie Verte","state":"Newfoundland and Labrador","population":1311,"lat":49.93325,"lng":-56.18152},{"city":"Burgeo","state":"Newfoundland and Labrador","population":1307,"lat":47.61668,"lng":-57.61516},{"city":"Stephenville Crossing","state":"Newfoundland and Labrador","population":1183,"lat":48.50001,"lng":-58.4318},{"city":"Upper Island Cove","state":"Newfoundland and Labrador","population":1142,"lat":47.64989,"lng":-53.21478},{"city":"St. George's","state":"Newfoundland and Labrador","population":1139,"lat":48.42852,"lng":-58.48151},{"city":"Bay St. George South","state":"Newfoundland and Labrador","population":1103,"lat":48.22781,"lng":-58.84162},{"city":"Whitbourne","state":"Newfoundland and Labrador","population":1066,"lat":47.4166,"lng":-53.5314},{"city":"Harbour Main-Chapel's Cove-Lakeview","state":"Newfoundland and Labrador","population":1065,"lat":47.4117,"lng":-53.1744},{"city":"LaScie","state":"Newfoundland and Labrador","population":970,"lat":49.94995,"lng":-55.59811},{"city":"Hare Bay","state":"Newfoundland and Labrador","population":968,"lat":48.8499,"lng":-54.01481},{"city":"Rocky Harbour","state":"Newfoundland and Labrador","population":937,"lat":49.60001,"lng":-57.91502},{"city":"Port de Grave","state":"Newfoundland and Labrador","population":874,"lat":47.58678,"lng":-53.21174},{"city":"Gander Bay North","state":"Newfoundland and Labrador","population":853,"lat":49.34992,"lng":-54.48141},{"city":"Catalina","state":"Newfoundland and Labrador","population":845,"lat":48.51659,"lng":-53.08135},{"city":"Cape St. George","state":"Newfoundland and Labrador","population":809,"lat":48.48333,"lng":-59.18185},{"city":"Dildo","state":"Newfoundland and Labrador","population":800,"lat":47.56659,"lng":-53.5481},{"city":"Glenwood","state":"Newfoundland and Labrador","population":739,"lat":48.98322,"lng":-54.88146},{"city":"Badger","state":"Newfoundland and Labrador","population":682,"lat":48.98325,"lng":-56.03154},{"city":"Heart's Delight-Islington","state":"Newfoundland and Labrador","population":646,"lat":47.76659,"lng":-53.48139},{"city":"Green's Harbour","state":"Newfoundland and Labrador","population":642,"lat":47.63319,"lng":-53.49809},{"city":"Appleton","state":"Newfoundland and Labrador","population":620,"lat":48.98322,"lng":-54.86486},{"city":"Virgin Arm-Carter's Cove","state":"Newfoundland and Labrador","population":615,"lat":49.53322,"lng":-54.78145},{"city":"Blaketown","state":"Newfoundland and Labrador","population":605,"lat":47.4832,"lng":-53.5648},{"city":"St. Lunaire-Griquet","state":"Newfoundland and Labrador","population":603,"lat":51.51678,"lng":-55.46465},{"city":"Bloomfield","state":"Newfoundland and Labrador","population":523,"lat":48.3832,"lng":-53.8981}]}}