{"timezone":"America/Glace_Bay","countries":{"Canada":[{"city":"Sydney","state":"Nova Scotia","population":105968,"lat":46.1351,"lng":-60.1831},{"city":"Glace Bay","state":"Nova Scotia","population":16915,"lat":46.19695,"lng":-59.95698},{"city":"Sydney Mines","state":"Nova Scotia","population":12353,"lat":46.23669,"lng":-60.21767},{"city":"Membertou","state":"Nova Scotia","population":7859,"lat":46.11518,"lng":-60.18932},{"city":"New Waterford","state":"Nova Scotia","population":6723,"lat":46.25014,"lng":-60.08175},{"city":"North Sydney","state":"Nova Scotia","population":5699,"lat":46.20777,"lng":-60.25489},{"city":"Westmount","state":"Nova Scotia","population":3000,"lat":46.13548,"lng":-60.21924},{"city":"Reserve Mines","state":"Nova Scotia","population":2402,"lat":46.18033,"lng":-60.01962},{"city":"Eskasoni 3","state":"Nova Scotia","population":2120,"lat":45.94522,"lng":-60.61617},{"city":"Marion Bridge","state":"Nova Scotia","population":1711,"lat":45.98088,"lng":-60.21232},{"city":"Florence","state":"Nova Scotia","population":1684,"lat":46.25985,"lng":-60.26586},{"city":"Louisbourg","state":"Nova Scotia","population":1265,"lat":45.91684,"lng":-59.96513},{"city":"Howie Centre","state":"Nova Scotia","population":1106,"lat":46.07518,"lng":-60.26849},{"city":"Balls Creek","state":"Nova Scotia","population":757,"lat":46.15,"lng":-60.31118},{"city":"Georges River","state":"Nova Scotia","population":711,"lat":46.21309,"lng":-60.3152},{"city":"Port Morien","state":"Nova Scotia","population":700,"lat":46.13421,"lng":-59.87403},{"city":"Gardiner Mines","state":"Nova Scotia","population":613,"lat":46.20849,"lng":-60.0475}]}}