{"timezone":"America/Nome","countries":{"United States":[{"city":"Nome","state":"Alaska","population":3806,"lat":64.50111,"lng":-165.40639},{"city":"Kotzebue","state":"Alaska","population":3277,"lat":66.89846,"lng":-162.59809},{"city":"Hooper Bay","state":"Alaska","population":1187,"lat":61.53111,"lng":-166.09667},{"city":"Chevak","state":"Alaska","population":1018,"lat":61.52778,"lng":-165.58639},{"city":"King Cove","state":"Alaska","population":1009,"lat":55.06087,"lng":-162.31853},{"city":"Mountain Village","state":"Alaska","population":883,"lat":62.08556,"lng":-163.72944},{"city":"Emmonak","state":"Alaska","population":849,"lat":62.77778,"lng":-164.52306},{"city":"Alakanuk","state":"Alaska","population":735,"lat":62.68889,"lng":-164.61528},{"city":"Gambell","state":"Alaska","population":701,"lat":63.77921,"lng":-171.73463},{"city":"Point Hope","state":"Alaska","population":701,"lat":68.34861,"lng":-166.73472},{"city":"Savoonga","state":"Alaska","population":691,"lat":63.69417,"lng":-170.47889},{"city":"Kipnuk","state":"Alaska","population":639,"lat":59.93889,"lng":-164.04139},{"city":"Kotlik","state":"Alaska","population":626,"lat":63.03298,"lng":-163.55627},{"city":"Toksook Bay","state":"Alaska","population":622,"lat":60.53378,"lng":-165.10366},{"city":"Pilot Station","state":"Alaska","population":617,"lat":61.93889,"lng":-162.875},{"city":"Shishmaref","state":"Alaska","population":580,"lat":66.25621,"lng":-166.07229},{"city":"Stebbins","state":"Alaska","population":572,"lat":63.52009,"lng":-162.28871},{"city":"Kasigluk","state":"Alaska","population":569,"lat":60.89556,"lng":-162.51806},{"city":"St. Mary's","state":"Alaska","population":550,"lat":62.0534,"lng":-163.17787},{"city":"Nunapitchuk","state":"Alaska","population":523,"lat":60.89694,"lng":-162.45944},{"city":"Scammon Bay","state":"Alaska","population":515,"lat":61.84278,"lng":-165.58167},{"city":"Noatak","state":"Alaska","population":514,"lat":67.57111,"lng":-162.96528}]}}