{"timezone":"America/Argentina/Tucuman","countries":{"Argentina":[{"city":"San Miguel de Tucumán","state":"Tucuman","population":548866,"lat":-26.81601,"lng":-65.21051},{"city":"Yerba Buena","state":"Tucuman","population":50783,"lat":-26.81298,"lng":-65.29543},{"city":"Tafí Viejo","state":"Tucuman","population":48459,"lat":-26.7333,"lng":-65.26146},{"city":"Alderetes","state":"Tucuman","population":38466,"lat":-26.81787,"lng":-65.14202},{"city":"Aguilares","state":"Tucuman","population":32494,"lat":-27.4315,"lng":-65.61465},{"city":"Famaillá","state":"Tucuman","population":30951,"lat":-27.05452,"lng":-65.40189},{"city":"Monteros","state":"Tucuman","population":23771,"lat":-27.16825,"lng":-65.49892},{"city":"Bella Vista","state":"Tucuman","population":15126,"lat":-27.03424,"lng":-65.30196},{"city":"Simoca","state":"Tucuman","population":7939,"lat":-27.2629,"lng":-65.35792},{"city":"La Cocha","state":"Tucuman","population":7066,"lat":-27.76927,"lng":-65.58711},{"city":"Trancas","state":"Tucuman","population":6658,"lat":-26.23136,"lng":-65.28093},{"city":"Graneros","state":"Tucuman","population":5263,"lat":-27.6489,"lng":-65.44004},{"city":"Tafí del Valle","state":"Tucuman","population":4028,"lat":-26.85195,"lng":-65.71069},{"city":"Villa Burruyacú","state":"Tucuman","population":2037,"lat":-26.50047,"lng":-64.74367},{"city":"Lules","state":"Tucuman","population":0,"lat":-26.9282,"lng":-65.33852},{"city":"Concepción","state":"Tucuman","population":0,"lat":-27.34127,"lng":-65.59636},{"city":"Banda del Río Salí","state":"Tucuman","population":0,"lat":-26.84031,"lng":-65.16285}]}}