{"timezone":"America/Lima","countries":{"Peru":[{"city":"Lima","state":"Lima Province","population":7737002,"lat":-12.04318,"lng":-77.02824},{"city":"Callao","state":"Callao","population":1300000,"lat":-12.05162,"lng":-77.13452},{"city":"Arequipa","state":"Arequipa","population":1008290,"lat":-16.39899,"lng":-71.53747},{"city":"Trujillo","state":"La Libertad","population":919899,"lat":-8.11599,"lng":-79.02998},{"city":"Chiclayo","state":"Lambayeque","population":552508,"lat":-6.77008,"lng":-79.85495},{"city":"Piura","state":"Piura","population":484475,"lat":-5.18192,"lng":-80.65715},{"city":"Huancayo","state":"Junin","population":456250,"lat":-12.06866,"lng":-75.21027},{"city":"Cusco","state":"Cuzco Department","population":428450,"lat":-13.53188,"lng":-71.96701},{"city":"Iquitos","state":"Loreto","population":377609,"lat":-3.74814,"lng":-73.2529},{"city":"Pucallpa","state":"Ucayali","population":326040,"lat":-8.37915,"lng":-74.55387},{"city":"Chimbote","state":"Ancash","population":316966,"lat":-9.07508,"lng":-78.59373},{"city":"Tacna","state":"Tacna","population":286240,"lat":-18.01465,"lng":-70.25362},{"city":"Ica","state":"Ica","population":282407,"lat":-14.07538,"lng":-75.73422},{"city":"Santiago de Surco","state":"Lima region","population":251648,"lat":-12.13588,"lng":-77.00742},{"city":"Juliaca","state":"Puno","population":245675,"lat":-15.5,"lng":-70.13333},{"city":"Cajamarca","state":"Cajamarca Department","population":201329,"lat":-7.16378,"lng":-78.50027},{"city":"Huánuco","state":"Huánuco Department","population":196627,"lat":-9.92882,"lng":-76.23989},{"city":"Miraflores","state":"Lima region","population":187401,"lat":-12.11331,"lng":-77.03274},{"city":"Santa Anita - Los Ficus","state":"Lima region","population":184614,"lat":-12.05048,"lng":-76.97335},{"city":"Sullana","state":"Piura","population":160789,"lat":-4.90389,"lng":-80.68528},{"city":"Chincha Alta","state":"Ica","population":153076,"lat":-13.40985,"lng":-76.13235},{"city":"Ayacucho","state":"Ayacucho","population":140033,"lat":-13.1638,"lng":-74.22345},{"city":"San Martin","state":"Piura","population":130000,"lat":-5.18591,"lng":-80.66927},{"city":"Puno","state":"Puno","population":128637,"lat":-15.84003,"lng":-70.02198},{"city":"Huaraz","state":"Ancash","population":118836,"lat":-9.52614,"lng":-77.52869},{"city":"San Francisco De Borja","state":"Lima region","population":105076,"lat":-12.08911,"lng":-76.99876},{"city":"Talara","state":"Piura","population":99074,"lat":-4.57722,"lng":-81.27194},{"city":"Tumbes","state":"Tumbes","population":96946,"lat":-3.55592,"lng":-80.44258},{"city":"Chosica","state":"Lima region","population":88606,"lat":-11.94306,"lng":-76.70944},{"city":"Puerto Maldonado","state":"Madre de Dios","population":85024,"lat":-12.58946,"lng":-69.19948},{"city":"Breña","state":"Lima region","population":81909,"lat":-12.05605,"lng":-77.05295},{"city":"San Juan","state":"Loreto","population":78153,"lat":-3.77611,"lng":-73.28139},{"city":"Ciudad Satelite","state":"Arequipa","population":76410,"lat":-16.43085,"lng":-71.52921},{"city":"Chilca","state":"Junin","population":73371,"lat":-12.08628,"lng":-75.20827},{"city":"Selva Alegre","state":"Arequipa","population":72696,"lat":-16.37057,"lng":-71.52724},{"city":"Abancay","state":"Apurímac Department","population":72277,"lat":-13.63426,"lng":-72.8838},{"city":"Moquegua","state":"Moquegua Department","population":69882,"lat":-17.19747,"lng":-70.93587},{"city":"Chulucanas","state":"Piura","population":68835,"lat":-5.0925,"lng":-80.1625},{"city":"San Isidro","state":"Lima region","population":68309,"lat":-12.09655,"lng":-77.04258},{"city":"San Fernando","state":"Ucayali","population":67844,"lat":-8.39818,"lng":-74.53774},{"city":"Jesus Maria","state":"Lima region","population":66171,"lat":-12.06982,"lng":-77.04495},{"city":"Santiago","state":"Cuzco Department","population":64075,"lat":-13.52728,"lng":-71.9843},{"city":"Huaral","state":"Lima region","population":62174,"lat":-11.495,"lng":-77.20778},{"city":"Pisco","state":"Ica","population":61869,"lat":-13.71029,"lng":-76.20538},{"city":"Villa Poeta José Gálvez Barrenechea","state":"Lima region","population":61000,"lat":-12.21312,"lng":-76.90522},{"city":"Wanchaq","state":"Cuzco Department","population":59134,"lat":-13.52493,"lng":-71.96531},{"city":"Cerro de Pasco","state":"Pasco","population":58899,"lat":-10.66577,"lng":-76.25309},{"city":"Belen","state":"Loreto","population":57824,"lat":-3.76016,"lng":-73.2497},{"city":"Catacaos","state":"Piura","population":57304,"lat":-5.26667,"lng":-80.68333},{"city":"Paita","state":"Piura","population":56151,"lat":-5.08917,"lng":-81.11444},{"city":"Huacho","state":"Lima region","population":54545,"lat":-11.11718,"lng":-77.60584},{"city":"Ilo","state":"Moquegua Department","population":53476,"lat":-17.63185,"lng":-71.34108},{"city":"Tingo María","state":"Huánuco Department","population":53177,"lat":-9.29532,"lng":-75.99574},{"city":"Jaén","state":"Cajamarca Department","population":52493,"lat":-5.70729,"lng":-78.80785},{"city":"Tarma","state":"Junin","population":51350,"lat":-11.41899,"lng":-75.68992},{"city":"Moyobamba","state":"San Martín Department","population":50073,"lat":-6.03441,"lng":-76.97423},{"city":"Huancavelica","state":"Huancavelica","population":49570,"lat":-12.78691,"lng":-74.97298},{"city":"Centenario","state":"Ancash","population":47581,"lat":-9.51656,"lng":-77.53045},{"city":"Cono Norte","state":"Arequipa","population":47347,"lat":-16.32369,"lng":-71.58151},{"city":"Barranca","state":"Lima region","population":46290,"lat":-10.75,"lng":-77.76667},{"city":"Jacobo Hunter","state":"Arequipa","population":46092,"lat":-16.44083,"lng":-71.55333},{"city":"Lambayeque","state":"Lambayeque","population":43710,"lat":-6.70111,"lng":-79.90611},{"city":"Picsi","state":"Lambayeque","population":43610,"lat":-6.71778,"lng":-79.76972},{"city":"Chepén","state":"La Libertad","population":41992,"lat":-7.22436,"lng":-79.42476},{"city":"Carmen De La Legua Reynoso","state":"Callao","population":41863,"lat":-12.05354,"lng":-77.09802},{"city":"Yurimaguas","state":"Loreto","population":41827,"lat":-5.90181,"lng":-76.12234},{"city":"Saña","state":"Lambayeque","population":39200,"lat":-6.91888,"lng":-79.582},{"city":"Tambopata","state":"Madre de Dios","population":38966,"lat":-12.67191,"lng":-69.35547},{"city":"Juanjuí","state":"San Martín Department","population":37715,"lat":-7.17697,"lng":-76.72774},{"city":"Barranco","state":"Lima region","population":37525,"lat":-12.14297,"lng":-77.01862},{"city":"La Unión","state":"Piura","population":34834,"lat":-5.40232,"lng":-80.74224},{"city":"Ferreñafe","state":"Lambayeque","population":34357,"lat":-6.63889,"lng":-79.78889},{"city":"Sicuani","state":"Cuzco Department","population":33575,"lat":-14.26944,"lng":-71.22611},{"city":"La Oroya","state":"Junin","population":33345,"lat":-11.51893,"lng":-75.89935},{"city":"Chocope","state":"La Libertad","population":32370,"lat":-7.79139,"lng":-79.22167},{"city":"Nuevo Imperial","state":"Lima region","population":32344,"lat":-13.07541,"lng":-76.31719},{"city":"Imperial","state":"Lima region","population":32344,"lat":-13.05927,"lng":-76.35269},{"city":"Chachapoyas","state":"Amazonas","population":32026,"lat":-6.23169,"lng":-77.86903},{"city":"Tambo Grande","state":"Piura","population":30033,"lat":-4.92694,"lng":-80.34472},{"city":"La Rinconada","state":"Puno","population":29678,"lat":-14.63126,"lng":-69.44638},{"city":"Pacasmayo","state":"La Libertad","population":29165,"lat":-7.40056,"lng":-79.57139},{"city":"Tocache","state":"San Martín Department","population":29029,"lat":-8.1877,"lng":-76.52046},{"city":"Mollendo","state":"Arequipa","population":28953,"lat":-17.02306,"lng":-72.01472},{"city":"Chaupimarca","state":"Pasco","population":28666,"lat":-10.40696,"lng":-76.46168},{"city":"Paramonga","state":"Lima region","population":27631,"lat":-10.66667,"lng":-77.83333},{"city":"La Peca","state":"Amazonas","population":27045,"lat":-5.61111,"lng":-78.435},{"city":"Chancay","state":"Lima region","population":26958,"lat":-11.57139,"lng":-77.26722},{"city":"Hualmay","state":"Lima region","population":26658,"lat":-11.09639,"lng":-77.61389},{"city":"Monsefú","state":"Lambayeque","population":25707,"lat":-6.87431,"lng":-79.86871},{"city":"Marcavelica","state":"Piura","population":25645,"lat":-4.87778,"lng":-80.70528},{"city":"San Vicente de Cañete","state":"Lima region","population":25517,"lat":-13.07556,"lng":-76.38528},{"city":"Querecotillo","state":"Piura","population":25396,"lat":-4.83778,"lng":-80.64556},{"city":"Guadalupe","state":"La Libertad","population":25376,"lat":-7.25,"lng":-79.48333},{"city":"Santa Ana","state":"Cuzco Department","population":25145,"lat":-12.86667,"lng":-72.71667},{"city":"Rioja","state":"San Martín Department","population":25057,"lat":-6.05675,"lng":-77.16651},{"city":"La Banda","state":"San Martín Department","population":24932,"lat":-6.49265,"lng":-76.34224},{"city":"Laredo","state":"La Libertad","population":24691,"lat":-8.08965,"lng":-78.9602},{"city":"Yanacancha","state":"Pasco","population":24105,"lat":-10.66585,"lng":-76.25525},{"city":"Yauri","state":"Cuzco Department","population":23867,"lat":-14.79083,"lng":-71.40986},{"city":"Nazca","state":"Ica","population":23556,"lat":-14.83098,"lng":-74.93895},{"city":"Yanacancha","state":"Huánuco Department","population":23175,"lat":-10.24111,"lng":-76.64556},{"city":"Sechura","state":"Piura","population":23020,"lat":-5.55694,"lng":-80.82222},{"city":"Moche","state":"La Libertad","population":22581,"lat":-8.17111,"lng":-79.00917},{"city":"Santiago de Cao","state":"La Libertad","population":21982,"lat":-7.95889,"lng":-79.23917},{"city":"Huamachuco","state":"La Libertad","population":21768,"lat":-7.8,"lng":-78.06667},{"city":"Paiján","state":"La Libertad","population":21128,"lat":-7.73291,"lng":-79.3015},{"city":"Jauja","state":"Junin","population":21057,"lat":-11.77584,"lng":-75.49656},{"city":"Virú","state":"La Libertad","population":20774,"lat":-8.41554,"lng":-78.75201},{"city":"Huaura","state":"Lima region","population":20723,"lat":-11.07,"lng":-77.59944},{"city":"Bagua Grande","state":"Amazonas","population":20382,"lat":-5.75611,"lng":-78.44111},{"city":"El Pedregal","state":"Arequipa","population":20063,"lat":-16.36314,"lng":-72.1921},{"city":"Ayaviri","state":"Puno","population":19310,"lat":-14.88639,"lng":-70.58889},{"city":"Huanta","state":"Ayacucho","population":18627,"lat":-12.93333,"lng":-74.25},{"city":"Aguaytía","state":"Ucayali","population":18318,"lat":-9.03778,"lng":-75.50906},{"city":"Santa Rosa","state":"Junin","population":18057,"lat":-10.91908,"lng":-74.88496},{"city":"Uchiza","state":"San Martín Department","population":17742,"lat":-8.45917,"lng":-76.46333},{"city":"La Breita","state":"Piura","population":17693,"lat":-4.25691,"lng":-80.88599},{"city":"Andahuaylas","state":"Apurímac Department","population":17444,"lat":-13.65556,"lng":-73.38722},{"city":"Mala","state":"Lima region","population":17260,"lat":-12.65806,"lng":-76.63083},{"city":"Zarumilla","state":"Tumbes","population":16907,"lat":-3.50306,"lng":-80.27306},{"city":"Camaná","state":"Arequipa","population":16434,"lat":-16.62375,"lng":-72.71055},{"city":"San Martín de Pangoa","state":"Junin","population":16262,"lat":-11.42854,"lng":-74.48834},{"city":"San Pedro de Lloc","state":"La Libertad","population":16250,"lat":-7.4289,"lng":-79.50416},{"city":"Huarmey","state":"Ancash","population":16172,"lat":-10.06806,"lng":-78.15222},{"city":"Yunguyo","state":"Puno","population":16140,"lat":-16.25,"lng":-69.08333},{"city":"Chongoyape","state":"Lambayeque","population":16061,"lat":-6.64056,"lng":-79.38917},{"city":"Ilave","state":"Puno","population":16033,"lat":-16.08333,"lng":-69.66667},{"city":"San Clemente","state":"Ica","population":15815,"lat":-13.66667,"lng":-76.15},{"city":"San Antonio","state":"Moquegua Department","population":15633,"lat":-17.21718,"lng":-70.92593},{"city":"Pimentel","state":"Lambayeque","population":15552,"lat":-6.83667,"lng":-79.93417},{"city":"Satipo","state":"Junin","population":15532,"lat":-11.25222,"lng":-74.63861},{"city":"Minas de Marcona","state":"Ica","population":15478,"lat":-15.21194,"lng":-75.11028},{"city":"Junín","state":"Junin","population":15320,"lat":-11.15895,"lng":-75.99304},{"city":"Pátapo","state":"Lambayeque","population":15270,"lat":-6.73315,"lng":-79.6359},{"city":"Bellavista","state":"San Martín Department","population":15231,"lat":-7.05614,"lng":-76.5911},{"city":"Coishco","state":"Ancash","population":15083,"lat":-9.02306,"lng":-78.61556},{"city":"Chicama","state":"La Libertad","population":14915,"lat":-7.84472,"lng":-79.14694},{"city":"Saposoa","state":"San Martín Department","population":14894,"lat":-6.93395,"lng":-76.77158},{"city":"Santa María","state":"Lima region","population":14853,"lat":-12.00538,"lng":-76.89329},{"city":"Tabalosos","state":"San Martín Department","population":14744,"lat":-6.35,"lng":-76.68333},{"city":"San Ramón","state":"Junin","population":14708,"lat":-11.12417,"lng":-75.35733},{"city":"Celendín","state":"Cajamarca Department","population":14660,"lat":-6.86544,"lng":-78.14552},{"city":"Nauta","state":"Loreto","population":14646,"lat":-4.50561,"lng":-73.58026},{"city":"Cono Norte","state":"Arequipa","population":14542,"lat":-16.30111,"lng":-71.61647},{"city":"Las Nazarenas","state":"Ayacucho","population":14316,"lat":-13.15465,"lng":-74.21553},{"city":"Chota","state":"Cajamarca Department","population":14240,"lat":-6.55,"lng":-78.65},{"city":"Salinera Colán","state":"Piura","population":14210,"lat":-5.03333,"lng":-81.06667},{"city":"Puerto Santa","state":"Ancash","population":14066,"lat":-8.98979,"lng":-78.64603},{"city":"Ascope","state":"La Libertad","population":14015,"lat":-7.71444,"lng":-79.10778},{"city":"Contamana","state":"Loreto","population":13885,"lat":-7.33333,"lng":-75.01667},{"city":"Supe","state":"Lima region","population":13719,"lat":-10.7975,"lng":-77.71306},{"city":"Lamas","state":"San Martín Department","population":13693,"lat":-6.41667,"lng":-76.53333},{"city":"Eten","state":"Lambayeque","population":13693,"lat":-6.90806,"lng":-79.86417},{"city":"Motupe","state":"Lambayeque","population":13681,"lat":-6.15194,"lng":-79.71417},{"city":"Pativilca","state":"Lima region","population":13583,"lat":-10.7,"lng":-77.78333},{"city":"Cajabamba","state":"Cajamarca Department","population":13486,"lat":-7.61667,"lng":-78.05},{"city":"Bambamarca","state":"Cajamarca Department","population":13351,"lat":-6.68333,"lng":-78.53333},{"city":"Pilcomayo","state":"Ancash","population":13295,"lat":-9.04728,"lng":-77.81092},{"city":"Azángaro","state":"Puno","population":13290,"lat":-14.91416,"lng":-70.19846},{"city":"Vice","state":"Piura","population":12915,"lat":-5.41667,"lng":-80.78333},{"city":"Chilca","state":"Lima region","population":12884,"lat":-12.52111,"lng":-76.73722},{"city":"San Juan","state":"Ica","population":12795,"lat":-15.36528,"lng":-75.16222},{"city":"Atuncolla","state":"Puno","population":12654,"lat":-15.68865,"lng":-70.14392},{"city":"Pueblo Nuevo","state":"Lambayeque","population":12471,"lat":-5.71667,"lng":-79.88333},{"city":"Castillo Grande","state":"Huánuco Department","population":12438,"lat":-9.27807,"lng":-76.00871},{"city":"Morropón","state":"Piura","population":12307,"lat":-5.1868,"lng":-79.97076},{"city":"Zorritos","state":"Tumbes","population":12261,"lat":-3.68046,"lng":-80.67819},{"city":"La Rinconada Ana Maria (La Rinconada)","state":"Puno","population":12183,"lat":-14.63392,"lng":-69.44694},{"city":"Oxapampa","state":"Pasco","population":12000,"lat":-10.5775,"lng":-75.40167},{"city":"Supe Puerto","state":"Lima region","population":11450,"lat":-10.80135,"lng":-77.74333},{"city":"Concepción","state":"Junin","population":11330,"lat":-11.91762,"lng":-75.31401},{"city":"Santa Rosa de Sacco","state":"Junin","population":11257,"lat":-11.55067,"lng":-75.94255},{"city":"Tupac Amaru","state":"Ica","population":11159,"lat":-13.71135,"lng":-76.1498},{"city":"Caraz","state":"Ancash","population":10926,"lat":-9.04849,"lng":-77.81005},{"city":"Soritor","state":"San Martín Department","population":10858,"lat":-6.13917,"lng":-77.10389},{"city":"Pichari","state":"Cuzco Department","population":10655,"lat":-12.5,"lng":-73.81667},{"city":"Santa Rosa","state":"Lambayeque","population":10625,"lat":-6.75772,"lng":-79.82747},{"city":"Puquio","state":"Ayacucho","population":10491,"lat":-14.7,"lng":-74.13333},{"city":"Santiago","state":"Ica","population":10449,"lat":-14.18469,"lng":-75.71124},{"city":"Otuzco","state":"La Libertad","population":10134,"lat":-7.9,"lng":-78.58333},{"city":"La Pradera","state":"Lambayeque","population":10072,"lat":-6.779,"lng":-79.886},{"city":"Salaverry","state":"La Libertad","population":10066,"lat":-8.221,"lng":-78.97698},{"city":"Chupaca","state":"Junin","population":9877,"lat":-12.06667,"lng":-75.28333},{"city":"San Lucas ( Pueblo Nuevo de Colan)","state":"Piura","population":9874,"lat":-4.90874,"lng":-81.05686},{"city":"Reque","state":"Lambayeque","population":9808,"lat":-6.86556,"lng":-79.81778},{"city":"Olmos","state":"Lambayeque","population":9800,"lat":-5.98472,"lng":-79.74528},{"city":"Miramar","state":"La Libertad","population":9614,"lat":-8.17945,"lng":-78.99381},{"city":"Ilabaya","state":"Tacna","population":9492,"lat":-17.42072,"lng":-70.51276},{"city":"Sisa","state":"San Martín Department","population":9477,"lat":-6.61085,"lng":-76.69302},{"city":"Las Lomas","state":"Piura","population":9450,"lat":-4.65333,"lng":-80.24667},{"city":"El Alto","state":"Piura","population":9303,"lat":-4.26851,"lng":-81.21719},{"city":"Quiruvilca","state":"La Libertad","population":9226,"lat":-7.96667,"lng":-78.2},{"city":"Lagunas","state":"Loreto","population":9197,"lat":-5.22694,"lng":-75.67528},{"city":"Calca","state":"Cuzco Department","population":9179,"lat":-13.33333,"lng":-71.95},{"city":"Carhuamayo","state":"Junin","population":9122,"lat":-10.91667,"lng":-76.03333},{"city":"Aguas Verdes","state":"Tumbes","population":9106,"lat":-3.48139,"lng":-80.245},{"city":"Máncora","state":"Piura","population":9101,"lat":-4.10778,"lng":-81.0475},{"city":"Subtanjalla","state":"Ica","population":9096,"lat":-14.01889,"lng":-75.75806},{"city":"Yauya","state":"Ancash","population":9092,"lat":-8.99135,"lng":-77.29147},{"city":"Ascencion","state":"Huancavelica","population":9086,"lat":-12.78423,"lng":-74.98058},{"city":"Puente Viru","state":"La Libertad","population":8995,"lat":-8.42513,"lng":-78.78097},{"city":"Campo Verde","state":"Ucayali","population":8945,"lat":-8.47562,"lng":-74.8063},{"city":"San Luis","state":"Lima region","population":8862,"lat":-12.07674,"lng":-76.99435},{"city":"Cocachacra","state":"Arequipa","population":8799,"lat":-17.08833,"lng":-71.7575},{"city":"San Jeronimo De Tunan","state":"Junin","population":8772,"lat":-11.95591,"lng":-75.28411},{"city":"Pacanga","state":"La Libertad","population":8750,"lat":-7.16667,"lng":-79.5},{"city":"Huancabamba","state":"Piura","population":8553,"lat":-5.23861,"lng":-79.45056},{"city":"La Huaca","state":"Piura","population":8468,"lat":-4.91167,"lng":-80.96},{"city":"San Miguel","state":"Ayacucho","population":8400,"lat":-13.0125,"lng":-73.98083},{"city":"Victor Raul","state":"La Libertad","population":8369,"lat":-8.40469,"lng":-78.82276},{"city":"Horacio Zeballos Gamez","state":"Arequipa","population":8365,"lat":-16.49181,"lng":-71.50731},{"city":"Pilcomayo","state":"Junin","population":8169,"lat":-12.04722,"lng":-75.24931},{"city":"Putina","state":"Puno","population":8118,"lat":-15.47506,"lng":-69.43056},{"city":"Chazuta","state":"San Martín Department","population":8029,"lat":-6.57087,"lng":-76.13753},{"city":"San Antonio del Estrecho","state":"Loreto","population":8000,"lat":-2.45012,"lng":-72.66896},{"city":"Buenos Aires","state":"Piura","population":7932,"lat":-5.2671,"lng":-79.96759},{"city":"San Ignacio","state":"Cajamarca Department","population":7912,"lat":-5.14583,"lng":-79.00139},{"city":"Morococha","state":"Junin","population":7890,"lat":-11.58779,"lng":-76.06323},{"city":"Los Aquijes","state":"Ica","population":7848,"lat":-14.09667,"lng":-75.69083},{"city":"Huancane","state":"Puno","population":7831,"lat":-15.82239,"lng":-70.88565},{"city":"Pacocha","state":"Moquegua Department","population":7588,"lat":-17.64604,"lng":-71.34481},{"city":"La Legua - San Jacinto","state":"Piura","population":7548,"lat":-5.23584,"lng":-80.65928},{"city":"Urubamba","state":"Cuzco Department","population":7540,"lat":-13.30472,"lng":-72.11583},{"city":"Mochumí","state":"Lambayeque","population":7460,"lat":-6.54364,"lng":-79.86217},{"city":"Villa Rica","state":"Pasco","population":7448,"lat":-10.73944,"lng":-75.26972},{"city":"San José","state":"Lambayeque","population":7434,"lat":-6.73813,"lng":-79.8275},{"city":"Coracora","state":"Ayacucho","population":7420,"lat":-15.03333,"lng":-73.78333},{"city":"Talavera","state":"Apurímac Department","population":7381,"lat":-13.65306,"lng":-73.42917},{"city":"Juli","state":"Puno","population":7309,"lat":-16.21667,"lng":-69.45},{"city":"Huanchaquito Alto","state":"La Libertad","population":7282,"lat":-8.08791,"lng":-79.09746},{"city":"Tabaloslos","state":"San Martín Department","population":7282,"lat":-6.38559,"lng":-76.63342},{"city":"Cajaruro","state":"Amazonas","population":7281,"lat":-5.73639,"lng":-78.42556},{"city":"Jepelacio","state":"San Martín Department","population":7150,"lat":-6.11667,"lng":-76.95},{"city":"Torata","state":"Moquegua Department","population":7054,"lat":-17.07694,"lng":-70.84333},{"city":"Túcume","state":"Lambayeque","population":7043,"lat":-6.50637,"lng":-79.85725},{"city":"San Juan Bautista","state":"Ica","population":6871,"lat":-14.01083,"lng":-75.73583},{"city":"Ambo","state":"Huánuco Department","population":6865,"lat":-10.13083,"lng":-76.20472},{"city":"Perené","state":"Junin","population":6844,"lat":-10.9489,"lng":-75.22645},{"city":"Sicaya","state":"Junin","population":6842,"lat":-12.0152,"lng":-75.2801},{"city":"Mazamari","state":"Junin","population":6826,"lat":-11.32583,"lng":-74.53083},{"city":"Acolla","state":"Junin","population":6805,"lat":-11.73193,"lng":-75.54634},{"city":"Santiago de Chuco","state":"La Libertad","population":6759,"lat":-8.14099,"lng":-78.17329},{"city":"Huicungo","state":"San Martín Department","population":6757,"lat":-7.3186,"lng":-76.77556},{"city":"Picota","state":"San Martín Department","population":6697,"lat":-6.92033,"lng":-76.33142},{"city":"Mórrope","state":"Lambayeque","population":6662,"lat":-6.53536,"lng":-80.01104},{"city":"Fonavi","state":"Ica","population":6654,"lat":-14.03282,"lng":-75.73697},{"city":"Pangoa","state":"Cuzco Department","population":6638,"lat":-12.11667,"lng":-73.0},{"city":"San Jose De Sisa","state":"San Martín Department","population":6546,"lat":-6.61375,"lng":-76.69309},{"city":"Quilmaná","state":"Lima region","population":6442,"lat":-12.9486,"lng":-76.38112},{"city":"Segunda Jerusalén - Azunguillo","state":"San Martín Department","population":6412,"lat":-5.98917,"lng":-77.27694},{"city":"El Triunfo ( El Cruce)","state":"Arequipa","population":6386,"lat":-16.49319,"lng":-71.85305},{"city":"Punta de Bombón","state":"Arequipa","population":6336,"lat":-17.1719,"lng":-71.7924},{"city":"Oyotún","state":"Lambayeque","population":6330,"lat":-6.84438,"lng":-79.30093},{"city":"Bellavista","state":"Cajamarca Department","population":6320,"lat":-5.66553,"lng":-78.67908},{"city":"Paragsha- San Andres - Jose Carlos Mariategui","state":"Pasco","population":6316,"lat":-10.67147,"lng":-76.27098},{"city":"Hacienda Pucala","state":"Lambayeque","population":6277,"lat":-6.77919,"lng":-79.60258},{"city":"Oyón","state":"Lima region","population":6276,"lat":-10.66846,"lng":-76.77165},{"city":"Végueta","state":"Lima region","population":6219,"lat":-11.02253,"lng":-77.64378},{"city":"Sayán","state":"Lima region","population":6196,"lat":-11.13333,"lng":-77.1946},{"city":"Jayanca","state":"Lambayeque","population":6126,"lat":-6.39083,"lng":-79.82194},{"city":"Macusani","state":"Puno","population":6044,"lat":-14.08333,"lng":-70.43333},{"city":"San Agustin","state":"Junin","population":5998,"lat":-11.99024,"lng":-75.24421},{"city":"Lluta","state":"Arequipa","population":5998,"lat":-16.01472,"lng":-72.01417},{"city":"Yanahuanca","state":"Pasco","population":5992,"lat":-10.51667,"lng":-76.49861},{"city":"Bernal","state":"Piura","population":5916,"lat":-5.45,"lng":-80.75},{"city":"Palpa","state":"Ica","population":5883,"lat":-14.53361,"lng":-75.18556},{"city":"Anta","state":"Cuzco Department","population":5859,"lat":-13.47056,"lng":-72.14833},{"city":"La Matanza","state":"Piura","population":5828,"lat":-5.21334,"lng":-80.09149},{"city":"Huayucachi","state":"Junin","population":5827,"lat":-12.13822,"lng":-75.22317},{"city":"Asentamiento Humano Nicolas de Pierola","state":"Lima region","population":5800,"lat":-11.93573,"lng":-76.70611},{"city":"Barranca","state":"Loreto","population":5779,"lat":-4.83298,"lng":-76.67582},{"city":"Pueblo Nuevo","state":"La Libertad","population":5766,"lat":-7.18806,"lng":-79.51528},{"city":"San Pedro de Cajas","state":"Junin","population":5758,"lat":-11.25061,"lng":-75.86116},{"city":"San Bartolo","state":"Lima region","population":5733,"lat":-12.38333,"lng":-76.78333},{"city":"Yura","state":"Arequipa","population":5686,"lat":-16.25223,"lng":-71.67969},{"city":"Orcopampa","state":"Arequipa","population":5643,"lat":-15.26611,"lng":-72.34167},{"city":"San Jerónimo","state":"Apurímac Department","population":5609,"lat":-13.65138,"lng":-73.36388},{"city":"Pedro Ruiz Gallo","state":"Amazonas","population":5602,"lat":-5.94527,"lng":-77.97993},{"city":"Pampas","state":"Huancavelica","population":5521,"lat":-12.39875,"lng":-74.86846},{"city":"Caleta de Carquín","state":"Lima region","population":5514,"lat":-11.0925,"lng":-77.62667},{"city":"Ramón Castilla","state":"Loreto","population":5495,"lat":-4.26066,"lng":-69.95714},{"city":"Papayal","state":"Tumbes","population":5484,"lat":-4.07771,"lng":-80.7369},{"city":"Nuevo Sullana","state":"Piura","population":5484,"lat":-4.92108,"lng":-80.72695},{"city":"Urcos","state":"Cuzco Department","population":5479,"lat":-13.68611,"lng":-71.62278},{"city":"Salitral","state":"Piura","population":5385,"lat":-4.85722,"lng":-80.68111},{"city":"Desaguadero","state":"Puno","population":5329,"lat":-16.56609,"lng":-69.042},{"city":"San Miguel de Cauri","state":"Huánuco Department","population":5326,"lat":-10.13818,"lng":-76.62288},{"city":"Ayabaca","state":"Piura","population":5270,"lat":-4.63983,"lng":-79.71491},{"city":"Yungay","state":"Ancash","population":5269,"lat":-9.13833,"lng":-77.74361},{"city":"Pampa de Tate","state":"Ica","population":5180,"lat":-14.1453,"lng":-75.69179},{"city":"Huasahuasi","state":"Junin","population":5146,"lat":-11.26527,"lng":-75.64722},{"city":"Tinyahuarco","state":"Pasco","population":5066,"lat":-10.76771,"lng":-76.27523},{"city":"Carhuaz","state":"Ancash","population":5044,"lat":-9.28194,"lng":-77.64472},{"city":"Tambo","state":"Ayacucho","population":5032,"lat":-14.79847,"lng":-73.92438},{"city":"Alto Salaverry","state":"La Libertad","population":5014,"lat":-8.1865,"lng":-78.98639},{"city":"Urb. Santo Domingo","state":"Lima region","population":5000,"lat":-11.87655,"lng":-77.03345},{"city":"Ricardo Palma","state":"Lima region","population":4842,"lat":-11.91978,"lng":-76.6561},{"city":"Islay (Matarani)","state":"Arequipa","population":4823,"lat":-16.9961,"lng":-72.1011},{"city":"La Unión","state":"Huánuco Department","population":4788,"lat":-9.82702,"lng":-76.80199},{"city":"Lampa","state":"Puno","population":4780,"lat":-15.35,"lng":-70.36667},{"city":"Llongasora","state":"Arequipa","population":4753,"lat":-15.63951,"lng":-71.29921},{"city":"Santa Rosa","state":"Ayacucho","population":4702,"lat":-12.68657,"lng":-73.73531},{"city":"Río Grande","state":"Ica","population":4689,"lat":-14.516,"lng":-75.19933},{"city":"Santa Cruz De Succhabamba","state":"Cajamarca Department","population":4660,"lat":-6.62501,"lng":-78.94576},{"city":"Huarancante","state":"Arequipa","population":4638,"lat":-15.76803,"lng":-71.45952},{"city":"Ayna","state":"Ayacucho","population":4588,"lat":-12.65,"lng":-73.91667},{"city":"Llata","state":"Huánuco Department","population":4585,"lat":-9.41667,"lng":-76.78333},{"city":"Chivay","state":"Arequipa","population":4543,"lat":-15.63833,"lng":-71.60111},{"city":"Matucana","state":"Lima region","population":4517,"lat":-11.85,"lng":-76.4},{"city":"Pomabamba","state":"Ancash","population":4453,"lat":-8.83333,"lng":-77.46667},{"city":"Mosoc Cancha","state":"Cuzco Department","population":4450,"lat":-14.28514,"lng":-71.08773},{"city":"Machupicchu","state":"Cuzco Department","population":4446,"lat":-13.15549,"lng":-72.52416},{"city":"Acarí","state":"Arequipa","population":4445,"lat":-15.42393,"lng":-74.61361},{"city":"Huarichancara","state":"Arequipa","population":4445,"lat":-15.63972,"lng":-71.06111},{"city":"Paucartambo","state":"Pasco","population":4438,"lat":-10.77326,"lng":-75.81109},{"city":"Vizcachane","state":"Arequipa","population":4407,"lat":-15.80861,"lng":-71.20111},{"city":"Huari","state":"Ancash","population":4406,"lat":-9.34718,"lng":-77.17072},{"city":"Iberia","state":"Madre de Dios","population":4386,"lat":-11.40613,"lng":-69.49267},{"city":"Kimbiri","state":"Ayacucho","population":4369,"lat":-12.61935,"lng":-73.78814},{"city":"Saquena","state":"Loreto","population":4362,"lat":-4.66667,"lng":-73.51667},{"city":"Jatun Orcochiri","state":"Arequipa","population":4358,"lat":-15.75003,"lng":-71.34641},{"city":"Pucara","state":"Arequipa","population":4335,"lat":-15.97993,"lng":-71.45988},{"city":"Santa Lucía","state":"Puno","population":4320,"lat":-15.69758,"lng":-70.60712},{"city":"Tablazo Norte","state":"Piura","population":4303,"lat":-5.38398,"lng":-80.7641},{"city":"Cascas","state":"La Libertad","population":4299,"lat":-7.48333,"lng":-78.81667},{"city":"Huayna Alcalde","state":"Cuzco Department","population":4298,"lat":-14.26989,"lng":-71.09599},{"city":"Nuñoa","state":"Puno","population":4271,"lat":-14.4775,"lng":-70.63642},{"city":"Jayune","state":"Arequipa","population":4256,"lat":-15.56277,"lng":-71.30312},{"city":"Chuquitira","state":"Tacna","population":4220,"lat":-17.28907,"lng":-70.04343},{"city":"Orcotuna","state":"Junin","population":4199,"lat":-11.96886,"lng":-75.3078},{"city":"Santo Tomas","state":"Cuzco Department","population":4134,"lat":-14.44556,"lng":-72.08417},{"city":"Pujocucho","state":"Tacna","population":4120,"lat":-17.15364,"lng":-70.35651},{"city":"Ccaquiracunca","state":"Cuzco Department","population":4098,"lat":-14.27683,"lng":-71.45026},{"city":"Huepetuhe","state":"Madre de Dios","population":4056,"lat":-12.99475,"lng":-70.52508},{"city":"Palianñuñas","state":"Junin","population":4049,"lat":-12.04038,"lng":-75.19134},{"city":"Callanca","state":"Cuzco Department","population":4046,"lat":-14.18137,"lng":-71.1407},{"city":"Oropesa","state":"Cuzco Department","population":4022,"lat":-13.59454,"lng":-71.7636},{"city":"Huamancaca Chico","state":"Junin","population":4019,"lat":-12.07993,"lng":-75.24523},{"city":"Santa Rita de Siguas","state":"Arequipa","population":4014,"lat":-16.49555,"lng":-72.08667},{"city":"Independencia","state":"Lima region","population":3987,"lat":-11.99,"lng":-77.04583},{"city":"Layo","state":"Cuzco Department","population":3978,"lat":-14.49361,"lng":-71.155},{"city":"Conchopata","state":"Cuzco Department","population":3977,"lat":-14.46968,"lng":-71.19843},{"city":"Langui","state":"Cuzco Department","population":3969,"lat":-14.43194,"lng":-71.27306},{"city":"Cahuanuyo","state":"Cuzco Department","population":3935,"lat":-14.34147,"lng":-71.46311},{"city":"Yanaoca","state":"Cuzco Department","population":3913,"lat":-14.21806,"lng":-71.43167},{"city":"Chignayhua","state":"Cuzco Department","population":3912,"lat":-14.2461,"lng":-71.44442},{"city":"Ccolo","state":"Arequipa","population":3857,"lat":-15.50611,"lng":-71.49184},{"city":"Pampamarca","state":"Cuzco Department","population":3811,"lat":-14.14639,"lng":-71.45944},{"city":"Checca","state":"Cuzco Department","population":3810,"lat":-14.47351,"lng":-71.39426},{"city":"Mosoc Llacta","state":"Cuzco Department","population":3802,"lat":-14.12,"lng":-71.47278},{"city":"Tungasuca","state":"Cuzco Department","population":3791,"lat":-14.16389,"lng":-71.47667},{"city":"Limoncarro","state":"La Libertad","population":3758,"lat":-7.3011,"lng":-79.4168},{"city":"Huangala","state":"Piura","population":3739,"lat":-4.84147,"lng":-80.59948},{"city":"Maranganí","state":"Cuzco Department","population":3709,"lat":-14.35672,"lng":-71.16924},{"city":"Sandia","state":"Puno","population":3675,"lat":-14.32141,"lng":-69.4654},{"city":"Puerto Rosario de Laberinto","state":"Madre de Dios","population":3660,"lat":-12.71732,"lng":-69.58694},{"city":"Cerro Verde","state":"Arequipa","population":3602,"lat":-16.45026,"lng":-71.61552},{"city":"San Alejandro","state":"Ucayali","population":3594,"lat":-8.82936,"lng":-75.21326},{"city":"Cullcuyre","state":"Cuzco Department","population":3593,"lat":-14.09272,"lng":-71.33119},{"city":"Jayobamba","state":"Cuzco Department","population":3593,"lat":-14.09425,"lng":-71.33922},{"city":"Mazuko","state":"Madre de Dios","population":3586,"lat":-13.10012,"lng":-70.36736},{"city":"Florida ( Pomacochas)","state":"Amazonas","population":3570,"lat":-5.82582,"lng":-77.96961},{"city":"Lima Pampa","state":"Cuzco Department","population":3569,"lat":-14.08976,"lng":-71.33664},{"city":"Ccuntuma","state":"Cuzco Department","population":3511,"lat":-14.1254,"lng":-71.41216},{"city":"Queromarca","state":"Cuzco Department","population":3496,"lat":-14.18391,"lng":-71.38343},{"city":"San Pablo","state":"Cuzco Department","population":3486,"lat":-14.20278,"lng":-71.31556},{"city":"Qquea","state":"Cuzco Department","population":3482,"lat":-14.18273,"lng":-71.35774},{"city":"Combapata","state":"Cuzco Department","population":3472,"lat":-14.10111,"lng":-71.42944},{"city":"Tinta","state":"Cuzco Department","population":3466,"lat":-14.145,"lng":-71.40694},{"city":"Checacupe","state":"Cuzco Department","population":3440,"lat":-14.02694,"lng":-71.45278},{"city":"Candarave","state":"Tacna","population":3415,"lat":-17.26778,"lng":-70.24944},{"city":"Quilahuani","state":"Tacna","population":3176,"lat":-17.31802,"lng":-70.25848},{"city":"Tarata","state":"Tacna","population":3052,"lat":-17.47444,"lng":-70.03278},{"city":"Taquile","state":"Puno","population":2000,"lat":-15.76667,"lng":-69.68333},{"city":"Pisac","state":"Cuzco Department","population":2000,"lat":-13.4225,"lng":-71.84667},{"city":"Ollantaytambo","state":"Cuzco Department","population":2000,"lat":-13.25722,"lng":-72.26306},{"city":"Totorales","state":"Tacna","population":1976,"lat":-17.40593,"lng":-70.36642},{"city":"San José","state":"Ucayali","population":1939,"lat":-8.33542,"lng":-74.59605},{"city":"Chipispaya","state":"Tacna","population":1932,"lat":-17.49809,"lng":-70.21687},{"city":"San Juan de la Virgen","state":"Tumbes","population":1559,"lat":-3.62717,"lng":-80.43066},{"city":"San Juan","state":"Ucayali","population":1528,"lat":-8.32281,"lng":-74.60409},{"city":"Papaplaya","state":"San Martín Department","population":1276,"lat":-6.20923,"lng":-75.78168},{"city":"San Francisco","state":"Ucayali","population":1263,"lat":-8.27571,"lng":-74.64114},{"city":"Ticlacayán","state":"Pasco","population":1212,"lat":-10.53448,"lng":-76.16407},{"city":"Paracas","state":"Ica","population":1196,"lat":-13.86667,"lng":-76.26667},{"city":"San Pablo de Pillao","state":"Huánuco Department","population":1182,"lat":-9.78699,"lng":-75.99935},{"city":"Pinto Recodo","state":"San Martín Department","population":1116,"lat":-6.37945,"lng":-76.60432},{"city":"San Juan de Iris","state":"Lima region","population":998,"lat":-11.68322,"lng":-76.52495},{"city":"Ite","state":"Tacna","population":998,"lat":-17.86111,"lng":-70.96516},{"city":"Cultambo","state":"La Libertad","population":997,"lat":-7.33281,"lng":-79.42912},{"city":"Calderones","state":"Ica","population":997,"lat":-14.15713,"lng":-75.70097},{"city":"La Soledad","state":"La Libertad","population":997,"lat":-8.02806,"lng":-77.47424},{"city":"Locumba","state":"Tacna","population":993,"lat":-17.61317,"lng":-70.76266},{"city":"Alto de la Cruz","state":"Piura","population":992,"lat":-5.34569,"lng":-80.76981},{"city":"Vilcabamba","state":"Apurímac Department","population":991,"lat":-14.07783,"lng":-72.62508},{"city":"El Carmen","state":"Ica","population":991,"lat":-13.97096,"lng":-75.72931},{"city":"Vilavila","state":"Puno","population":990,"lat":-15.18849,"lng":-70.65982},{"city":"Buena Vista","state":"Lima region","population":988,"lat":-11.54554,"lng":-77.25413},{"city":"Sondor","state":"Piura","population":987,"lat":-5.31502,"lng":-79.41064},{"city":"Alerta","state":"Madre de Dios","population":986,"lat":-11.6584,"lng":-69.23546},{"city":"Challas","state":"La Libertad","population":986,"lat":-8.43902,"lng":-77.3239},{"city":"Suyo","state":"Piura","population":985,"lat":-4.51367,"lng":-80.00173},{"city":"Santa Isabel","state":"Lambayeque","population":980,"lat":-6.48281,"lng":-79.96403},{"city":"San Pablo","state":"San Martín Department","population":979,"lat":-6.80814,"lng":-76.57314},{"city":"Mavila","state":"Madre de Dios","population":978,"lat":-11.93357,"lng":-69.11911},{"city":"Cancha Cancha","state":"Ayacucho","population":978,"lat":-13.6059,"lng":-74.31335},{"city":"Chavin de Pariarca","state":"Huánuco Department","population":977,"lat":-9.42312,"lng":-76.77111},{"city":"Sacsamarca","state":"Ayacucho","population":977,"lat":-13.9428,"lng":-74.3126},{"city":"Corcona","state":"Lima region","population":977,"lat":-11.90988,"lng":-76.58047},{"city":"Cayna","state":"Huánuco Department","population":976,"lat":-10.27233,"lng":-76.38863},{"city":"Colasay","state":"Cajamarca Department","population":975,"lat":-5.97878,"lng":-79.06868},{"city":"Yamango","state":"Piura","population":973,"lat":-5.18114,"lng":-79.75055},{"city":"El Ñuro","state":"Piura","population":973,"lat":-4.2156,"lng":-81.17229},{"city":"Sausal","state":"Piura","population":971,"lat":-5.08289,"lng":-80.20526},{"city":"Buena Vista","state":"La Libertad","population":971,"lat":-8.47971,"lng":-78.63264},{"city":"Surco","state":"Lima region","population":969,"lat":-11.88401,"lng":-76.44002},{"city":"Palca","state":"Puno","population":969,"lat":-15.2368,"lng":-70.59779},{"city":"Llama","state":"Cajamarca Department","population":968,"lat":-6.51465,"lng":-79.12008},{"city":"San Vicente de Paúl","state":"La Libertad","population":968,"lat":-7.00469,"lng":-77.92275},{"city":"Llusco","state":"Cuzco Department","population":967,"lat":-14.33858,"lng":-72.11453},{"city":"Comas","state":"Junin","population":967,"lat":-11.71807,"lng":-75.0821},{"city":"Jambur","state":"Piura","population":966,"lat":-4.60825,"lng":-79.94455},{"city":"Ingenio","state":"Junin","population":963,"lat":-11.89019,"lng":-75.26641},{"city":"Collazos","state":"Ica","population":963,"lat":-14.00048,"lng":-75.7655},{"city":"Huaquirca","state":"Apurímac Department","population":962,"lat":-14.33987,"lng":-72.89456},{"city":"Usquil","state":"La Libertad","population":961,"lat":-7.81583,"lng":-78.41921},{"city":"Poroy","state":"Cuzco Department","population":961,"lat":-13.49712,"lng":-72.04254},{"city":"Iñapari","state":"Madre de Dios","population":959,"lat":-10.95465,"lng":-69.58162},{"city":"Longar","state":"Amazonas","population":957,"lat":-6.38511,"lng":-77.54636},{"city":"El Papayo","state":"Piura","population":953,"lat":-4.99715,"lng":-80.31641},{"city":"Yacango","state":"Moquegua Department","population":951,"lat":-17.09402,"lng":-70.8649},{"city":"La Pareja","state":"Piura","population":950,"lat":-5.30969,"lng":-79.73546},{"city":"Caleta Vidal","state":"Lima region","population":949,"lat":-10.85536,"lng":-77.70271},{"city":"Ocoto Alto","state":"Piura","population":948,"lat":-4.95284,"lng":-80.3931},{"city":"San Luis de Shuaro","state":"Junin","population":948,"lat":-10.8881,"lng":-75.28739},{"city":"Livitaca","state":"Cuzco Department","population":948,"lat":-14.31314,"lng":-71.68925},{"city":"Chaca","state":"Ayacucho","population":947,"lat":-12.78441,"lng":-74.20589},{"city":"San José de Saramuro","state":"Loreto","population":946,"lat":-4.71837,"lng":-74.92198},{"city":"Shilla","state":"Ancash","population":943,"lat":-9.23073,"lng":-77.62572},{"city":"Chinchaypujio","state":"Cuzco Department","population":943,"lat":-13.6295,"lng":-72.23298},{"city":"Las Palmas","state":"San Martín Department","population":942,"lat":-6.52741,"lng":-76.3431},{"city":"Arahuante","state":"Loreto","population":941,"lat":-5.31109,"lng":-75.7249},{"city":"Asunción","state":"Cajamarca Department","population":940,"lat":-7.32349,"lng":-78.51858},{"city":"Andabamba","state":"Huancavelica","population":940,"lat":-12.69534,"lng":-74.62426},{"city":"Punta Arena","state":"Piura","population":937,"lat":-4.97491,"lng":-80.53692},{"city":"El Tambo","state":"Piura","population":937,"lat":-4.88714,"lng":-81.00432},{"city":"Ranrahirca","state":"Ancash","population":936,"lat":-9.17326,"lng":-77.72292},{"city":"Utao","state":"Huánuco Department","population":935,"lat":-9.7614,"lng":-76.2131},{"city":"Maco","state":"Junin","population":932,"lat":-11.48565,"lng":-75.55074},{"city":"Pacayhua","state":"Huánuco Department","population":930,"lat":-9.98972,"lng":-76.52861},{"city":"Huanca","state":"Arequipa","population":929,"lat":-16.03287,"lng":-71.87794},{"city":"Maldonadillo","state":"Ucayali","population":929,"lat":-10.7402,"lng":-73.72455},{"city":"Mariscal Benavides","state":"Amazonas","population":928,"lat":-6.38696,"lng":-77.50408},{"city":"Francisco de Orellana","state":"Loreto","population":924,"lat":-3.41374,"lng":-72.76907},{"city":"Quequeña","state":"Arequipa","population":924,"lat":-16.5574,"lng":-71.45132},{"city":"Carampa","state":"Ayacucho","population":924,"lat":-13.65302,"lng":-74.23925},{"city":"Otoca","state":"Ayacucho","population":923,"lat":-14.49016,"lng":-74.6864},{"city":"Carumas","state":"Moquegua Department","population":923,"lat":-16.80928,"lng":-70.6948},{"city":"Cochabamba","state":"Huánuco Department","population":922,"lat":-9.78556,"lng":-76.1603},{"city":"Ledoy","state":"San Martín Department","population":922,"lat":-7.12934,"lng":-76.64908},{"city":"Atacocha","state":"Pasco","population":920,"lat":-10.57344,"lng":-76.21493},{"city":"Huaja","state":"San Martín Department","population":920,"lat":-6.59907,"lng":-76.73791},{"city":"Cayara","state":"Ayacucho","population":919,"lat":-13.79555,"lng":-73.99068},{"city":"Pacarán","state":"Lima region","population":918,"lat":-12.86612,"lng":-76.0546},{"city":"Yarusyacán","state":"Pasco","population":917,"lat":-10.49006,"lng":-76.19651},{"city":"Mocán","state":"La Libertad","population":915,"lat":-7.6565,"lng":-79.24088},{"city":"Puerto Ocopa","state":"Junin","population":915,"lat":-11.14457,"lng":-74.30817},{"city":"Yanas","state":"Ancash","population":915,"lat":-9.1592,"lng":-76.7981},{"city":"Vilcabamba","state":"Huánuco Department","population":914,"lat":-9.78491,"lng":-76.17723},{"city":"Pajarillo","state":"San Martín Department","population":912,"lat":-7.179,"lng":-76.68827},{"city":"Puquina","state":"Moquegua Department","population":910,"lat":-16.62416,"lng":-71.18436},{"city":"Huanipaca","state":"Apurímac Department","population":910,"lat":-13.49181,"lng":-72.93356},{"city":"San Juan","state":"Cajamarca Department","population":908,"lat":-7.29176,"lng":-78.49761},{"city":"Maca","state":"Arequipa","population":908,"lat":-15.64127,"lng":-71.76856},{"city":"San Miguel de Eneñas","state":"Pasco","population":908,"lat":-10.74768,"lng":-75.21728},{"city":"Arapa","state":"Puno","population":907,"lat":-15.13902,"lng":-70.10957},{"city":"Tournavista","state":"Huánuco Department","population":903,"lat":-8.92904,"lng":-74.7054},{"city":"Parcoy","state":"La Libertad","population":903,"lat":-8.03503,"lng":-77.48193},{"city":"Querocotillo","state":"Cajamarca Department","population":901,"lat":-6.27356,"lng":-79.03816},{"city":"Acostambo","state":"Huancavelica","population":901,"lat":-12.36525,"lng":-75.05479},{"city":"Apongo","state":"Ayacucho","population":898,"lat":-14.01327,"lng":-73.93247},{"city":"Yanamuclo","state":"Junin","population":897,"lat":-11.87404,"lng":-75.37956},{"city":"San Bartolomé","state":"Lima region","population":896,"lat":-11.91105,"lng":-76.52958},{"city":"Cabanilla","state":"Puno","population":895,"lat":-15.62028,"lng":-70.34583},{"city":"Oventeni","state":"Ucayali","population":895,"lat":-10.75144,"lng":-74.22002},{"city":"Yanas","state":"Huánuco Department","population":894,"lat":-9.71457,"lng":-76.74891},{"city":"Sallique","state":"Cajamarca Department","population":894,"lat":-5.65701,"lng":-79.31591},{"city":"San Jacinto","state":"Arequipa","population":894,"lat":-16.59142,"lng":-72.70725},{"city":"San Pedro de Coris","state":"Huancavelica","population":894,"lat":-12.57869,"lng":-74.4105},{"city":"Tulin","state":"Ica","population":892,"lat":-14.6445,"lng":-75.06945},{"city":"Pacllón","state":"Ancash","population":892,"lat":-10.23361,"lng":-77.07239},{"city":"Huachocolpa","state":"Huancavelica","population":892,"lat":-13.03179,"lng":-74.9471},{"city":"Chijichaya","state":"Puno","population":892,"lat":-16.17067,"lng":-69.68879},{"city":"Huacapampa","state":"Cajamarca Department","population":891,"lat":-6.9253,"lng":-78.13298},{"city":"Tumpa","state":"Ancash","population":891,"lat":-9.1741,"lng":-77.66562},{"city":"Asia","state":"Lima region","population":890,"lat":-12.7794,"lng":-76.55666},{"city":"Casa Blanqueada","state":"Tumbes","population":888,"lat":-3.73661,"lng":-80.45443},{"city":"Salamanca","state":"La Libertad","population":887,"lat":-7.82093,"lng":-79.27372},{"city":"Huaccana","state":"Apurímac Department","population":887,"lat":-13.38791,"lng":-73.69005},{"city":"San Genaro","state":"Huancavelica","population":886,"lat":-13.19418,"lng":-75.14168},{"city":"Rosario","state":"Ayacucho","population":884,"lat":-12.61849,"lng":-73.84512},{"city":"La Quebrada","state":"Piura","population":879,"lat":-4.96338,"lng":-80.58306},{"city":"San Cristobal","state":"Moquegua Department","population":879,"lat":-16.7399,"lng":-70.70647},{"city":"Pachachupan","state":"Huánuco Department","population":878,"lat":-9.78887,"lng":-76.10196},{"city":"Iguara","state":"Puno","population":877,"lat":-14.37147,"lng":-69.49858},{"city":"Challabamba","state":"Cuzco Department","population":875,"lat":-13.21164,"lng":-71.6532},{"city":"Calana","state":"Tacna","population":875,"lat":-17.94347,"lng":-70.18896},{"city":"Ondores","state":"Junin","population":872,"lat":-11.08369,"lng":-76.14705},{"city":"Codo del Pozuzo","state":"Huánuco Department","population":871,"lat":-9.67281,"lng":-75.46217},{"city":"Canchaque","state":"Piura","population":871,"lat":-5.37601,"lng":-79.60983},{"city":"Cabuyal","state":"Tumbes","population":869,"lat":-3.71683,"lng":-80.43693},{"city":"Paucas","state":"Ancash","population":868,"lat":-9.15248,"lng":-76.89849},{"city":"Sitabamba","state":"La Libertad","population":867,"lat":-8.02331,"lng":-77.73155},{"city":"La Raya","state":"Lambayeque","population":867,"lat":-6.51802,"lng":-79.83643},{"city":"Acopampa","state":"Ancash","population":865,"lat":-9.29442,"lng":-77.62574},{"city":"Queropalca","state":"Huánuco Department","population":863,"lat":-10.18191,"lng":-76.80332},{"city":"Ccapi","state":"Cuzco Department","population":862,"lat":-13.85321,"lng":-72.08215},{"city":"Andabamba","state":"Huánuco Department","population":862,"lat":-10.00702,"lng":-76.24426},{"city":"Santa Cruz","state":"San Martín Department","population":862,"lat":-6.61454,"lng":-76.72709},{"city":"Dos Palmas","state":"Ica","population":862,"lat":-13.72127,"lng":-75.96192},{"city":"San Regis","state":"Loreto","population":861,"lat":-4.51146,"lng":-73.90424},{"city":"Puente de Los Serranos","state":"Piura","population":861,"lat":-4.78386,"lng":-80.60955},{"city":"Miraflores","state":"Piura","population":859,"lat":-5.1652,"lng":-80.61384},{"city":"Huántar","state":"Ancash","population":859,"lat":-9.45191,"lng":-77.17523},{"city":"La Pampa","state":"Ancash","population":857,"lat":-8.66202,"lng":-77.9012},{"city":"Kishuara","state":"Apurímac Department","population":857,"lat":-13.69129,"lng":-73.11844},{"city":"Quishuar","state":"Huancavelica","population":854,"lat":-12.24397,"lng":-74.77748},{"city":"Huanca Huanca","state":"Huancavelica","population":853,"lat":-12.91733,"lng":-74.61058},{"city":"Yumbatos","state":"San Martín Department","population":852,"lat":-6.32022,"lng":-76.2977},{"city":"Mariscal Castilla","state":"La Libertad","population":851,"lat":-7.29905,"lng":-79.40803},{"city":"Shelby","state":"Pasco","population":850,"lat":-10.81073,"lng":-76.22386},{"city":"Muruhuay","state":"Junin","population":850,"lat":-11.34902,"lng":-75.65286},{"city":"Huaynacotas","state":"Arequipa","population":849,"lat":-15.12718,"lng":-72.81037},{"city":"San Cristóbal","state":"Junin","population":845,"lat":-11.73493,"lng":-76.0626},{"city":"Julcan","state":"Junin","population":845,"lat":-11.75956,"lng":-75.43564},{"city":"Aija","state":"Ancash","population":843,"lat":-9.78099,"lng":-77.60973},{"city":"Yauli","state":"Junin","population":843,"lat":-11.71334,"lng":-75.47449},{"city":"Bambamarca","state":"La Libertad","population":841,"lat":-7.44146,"lng":-77.6948},{"city":"Zúngaro Cocha","state":"Loreto","population":841,"lat":-3.82961,"lng":-73.35632},{"city":"Chuquis","state":"Huánuco Department","population":840,"lat":-9.67691,"lng":-76.70508},{"city":"Ocros","state":"Ancash","population":840,"lat":-10.40348,"lng":-77.39679},{"city":"La Horca","state":"Piura","population":839,"lat":-4.77926,"lng":-80.59285},{"city":"Las Canteras","state":"Lambayeque","population":839,"lat":-6.71866,"lng":-79.59775},{"city":"Uco","state":"Ancash","population":833,"lat":-9.18831,"lng":-76.92848},{"city":"La Quinua","state":"Pasco","population":831,"lat":-10.61672,"lng":-76.17871},{"city":"Huacachi","state":"Ancash","population":829,"lat":-9.31641,"lng":-76.93577},{"city":"Mazo Cruz","state":"Puno","population":829,"lat":-16.74179,"lng":-69.71644},{"city":"Pusi","state":"Puno","population":828,"lat":-15.44173,"lng":-69.92932},{"city":"Chongos Alto","state":"Junin","population":828,"lat":-12.3113,"lng":-75.28902},{"city":"Carhuacallanga","state":"Junin","population":828,"lat":-12.35472,"lng":-75.20059},{"city":"Río Chari Alto","state":"Junin","population":828,"lat":-11.08853,"lng":-74.65187},{"city":"Sama Grande","state":"Tacna","population":826,"lat":-17.79102,"lng":-70.49952},{"city":"Cabana","state":"Puno","population":824,"lat":-15.64949,"lng":-70.32192},{"city":"Santa Cruz","state":"San Martín Department","population":824,"lat":-8.55398,"lng":-76.28268},{"city":"Ocuviri","state":"Puno","population":823,"lat":-15.11373,"lng":-70.90912},{"city":"Huata","state":"Puno","population":823,"lat":-15.61514,"lng":-69.97149},{"city":"Sapillica","state":"Piura","population":821,"lat":-4.77872,"lng":-79.9822},{"city":"Cerrillo","state":"Cajamarca Department","population":821,"lat":-7.12716,"lng":-78.48932},{"city":"Compañia","state":"Ayacucho","population":821,"lat":-13.06911,"lng":-74.25473},{"city":"Casacancha","state":"Huancavelica","population":821,"lat":-12.78771,"lng":-74.63224},{"city":"Ispacas","state":"Arequipa","population":820,"lat":-15.75804,"lng":-72.91894},{"city":"Cambrune","state":"Moquegua Department","population":820,"lat":-16.82466,"lng":-70.67843},{"city":"Villa El Milagro","state":"Lambayeque","population":818,"lat":-6.8981,"lng":-79.84328},{"city":"San Damián","state":"Lima region","population":818,"lat":-12.01736,"lng":-76.39179},{"city":"Huaytará","state":"Huancavelica","population":818,"lat":-13.60445,"lng":-75.35308},{"city":"Varillal","state":"Loreto","population":818,"lat":-3.88106,"lng":-73.34438},{"city":"Sunchubamba","state":"Cajamarca Department","population":816,"lat":-7.4781,"lng":-78.39648},{"city":"Santa Elena","state":"Piura","population":816,"lat":-5.3235,"lng":-80.77571},{"city":"Julcamarca","state":"Huancavelica","population":816,"lat":-13.01447,"lng":-74.44467},{"city":"Cumbibirá","state":"Piura","population":811,"lat":-5.29479,"lng":-80.73325},{"city":"Puerto Huarmey","state":"Ancash","population":810,"lat":-10.09963,"lng":-78.1697},{"city":"Quinches","state":"Lima region","population":809,"lat":-12.30739,"lng":-76.14318},{"city":"Aquia","state":"Ancash","population":809,"lat":-10.0745,"lng":-77.14475},{"city":"Sallacconi","state":"Puno","population":808,"lat":-14.13788,"lng":-69.99303},{"city":"Urpay","state":"La Libertad","population":805,"lat":-7.79641,"lng":-78.07856},{"city":"Simbal","state":"La Libertad","population":805,"lat":-7.97613,"lng":-78.81346},{"city":"San Rafael","state":"Piura","population":805,"lat":-4.99245,"lng":-80.59602},{"city":"Roaboya","state":"Loreto","population":805,"lat":-7.76359,"lng":-74.92893},{"city":"Cachora","state":"Apurímac Department","population":805,"lat":-13.51227,"lng":-72.81296},{"city":"Paccha","state":"Junin","population":805,"lat":-11.99591,"lng":-75.20881},{"city":"Huancas","state":"Amazonas","population":803,"lat":-6.17372,"lng":-77.8647},{"city":"Conima","state":"Puno","population":803,"lat":-15.45769,"lng":-69.4379},{"city":"El Sol","state":"Lima region","population":803,"lat":-11.04438,"lng":-77.59187},{"city":"Yauyucán","state":"Cajamarca Department","population":802,"lat":-6.67714,"lng":-78.81866},{"city":"Rapayan","state":"Ancash","population":801,"lat":-9.20549,"lng":-76.76138},{"city":"Progreso Bajo","state":"Piura","population":797,"lat":-4.9554,"lng":-80.51638},{"city":"Manchaybamba","state":"Apurímac Department","population":797,"lat":-13.58908,"lng":-73.33369},{"city":"Capachique","state":"La Libertad","population":796,"lat":-7.87494,"lng":-78.30714},{"city":"Laramarca","state":"Huancavelica","population":796,"lat":-13.9485,"lng":-75.03538},{"city":"Mariátegui","state":"Lambayeque","population":794,"lat":-6.71049,"lng":-79.85834},{"city":"Ahuaycha","state":"Huancavelica","population":794,"lat":-12.40738,"lng":-74.89145},{"city":"Garbanzal","state":"Tumbes","population":792,"lat":-3.61114,"lng":-80.43518},{"city":"Cochas","state":"Huánuco Department","population":792,"lat":-10.03416,"lng":-76.50156},{"city":"Angasmarca","state":"Huánuco Department","population":792,"lat":-10.24177,"lng":-76.23074},{"city":"Pueblo Libre","state":"Piura","population":790,"lat":-4.94154,"lng":-80.25701},{"city":"Dos de Mayo","state":"San Martín Department","population":789,"lat":-7.18401,"lng":-77.05688},{"city":"Alto Perú","state":"Ancash","population":788,"lat":-8.9478,"lng":-78.58041},{"city":"Honoria","state":"Huánuco Department","population":787,"lat":-8.76949,"lng":-74.70911},{"city":"Huaribamba","state":"Huancavelica","population":787,"lat":-12.2795,"lng":-74.93822},{"city":"Pueblo Nuevo","state":"Piura","population":786,"lat":-5.23817,"lng":-79.99071},{"city":"Paucarbamba","state":"Huancavelica","population":786,"lat":-12.55441,"lng":-74.53152},{"city":"Santa Elena","state":"Loreto","population":785,"lat":-6.02577,"lng":-74.09093},{"city":"Masma","state":"Junin","population":785,"lat":-11.78692,"lng":-75.42899},{"city":"Esperanza Baja","state":"Lima region","population":784,"lat":-11.43792,"lng":-77.22424},{"city":"Ucrania","state":"San Martín Department","population":783,"lat":-5.9458,"lng":-77.28199},{"city":"Caracoto","state":"Puno","population":782,"lat":-15.5679,"lng":-70.10246},{"city":"Buenos Aires","state":"San Martín Department","population":780,"lat":-6.79415,"lng":-76.32706},{"city":"Las Pirias","state":"Cajamarca Department","population":778,"lat":-5.62725,"lng":-78.85257},{"city":"Pólvora","state":"San Martín Department","population":776,"lat":-7.90764,"lng":-76.67063},{"city":"Incuyo","state":"Ayacucho","population":776,"lat":-15.24935,"lng":-73.57051},{"city":"Chalamarca","state":"Cajamarca Department","population":776,"lat":-6.50287,"lng":-78.4801},{"city":"Pucayacu","state":"Huánuco Department","population":776,"lat":-8.74962,"lng":-76.12131},{"city":"Malingas","state":"Piura","population":775,"lat":-4.95277,"lng":-80.25056},{"city":"Mosca","state":"Huánuco Department","population":775,"lat":-10.34283,"lng":-76.29196},{"city":"Calca","state":"Junin","population":774,"lat":-11.30391,"lng":-75.71256},{"city":"Alto Perú","state":"San Martín Department","population":774,"lat":-6.29892,"lng":-77.09751},{"city":"Nuevo Reque","state":"Lambayeque","population":773,"lat":-6.88023,"lng":-79.81547},{"city":"Ocobamba","state":"Apurímac Department","population":772,"lat":-13.48267,"lng":-73.56029},{"city":"Cucho","state":"Huánuco Department","population":772,"lat":-9.89532,"lng":-76.01912},{"city":"Masanca","state":"La Libertad","population":771,"lat":-7.37636,"lng":-79.4785},{"city":"Trita","state":"Amazonas","population":771,"lat":-6.14734,"lng":-78.01339},{"city":"Pedregal Chico","state":"Piura","population":770,"lat":-5.30058,"lng":-80.6951},{"city":"Pilcuyo","state":"Puno","population":769,"lat":-16.11043,"lng":-69.55424},{"city":"Paca","state":"Junin","population":769,"lat":-11.70891,"lng":-75.51833},{"city":"Juzgara","state":"Piura","population":768,"lat":-5.29329,"lng":-79.47489},{"city":"Angaiza","state":"San Martín Department","population":768,"lat":-5.81931,"lng":-77.38819},{"city":"La Florida","state":"San Martín Department","population":768,"lat":-5.94895,"lng":-77.34157},{"city":"La Traposa","state":"Lambayeque","population":767,"lat":-6.42259,"lng":-79.57414},{"city":"Zapatero","state":"San Martín Department","population":766,"lat":-6.531,"lng":-76.49134},{"city":"Lachaqui","state":"Lima region","population":766,"lat":-11.5529,"lng":-76.62718},{"city":"San António","state":"Loreto","population":766,"lat":-3.81138,"lng":-71.57056},{"city":"Sayapullo","state":"La Libertad","population":764,"lat":-7.59646,"lng":-78.46816},{"city":"Matará","state":"Cajamarca Department","population":763,"lat":-7.25476,"lng":-78.25983},{"city":"Coronado","state":"Piura","population":763,"lat":-5.46962,"lng":-80.73341},{"city":"Cocachacra","state":"Lima region","population":763,"lat":-11.91088,"lng":-76.5404},{"city":"Totoroma","state":"Puno","population":762,"lat":-16.75548,"lng":-69.36292},{"city":"Pativilca","state":"Lambayeque","population":760,"lat":-6.45675,"lng":-79.66559},{"city":"Mariscal Cáceres","state":"Huancavelica","population":760,"lat":-12.53413,"lng":-74.93335},{"city":"Unión Capiri","state":"Junin","population":760,"lat":-11.09225,"lng":-74.70218},{"city":"Acos","state":"Cuzco Department","population":759,"lat":-13.95064,"lng":-71.73857},{"city":"Socos","state":"Ayacucho","population":758,"lat":-13.21454,"lng":-74.28924},{"city":"Huaracayo","state":"Junin","population":758,"lat":-11.35188,"lng":-75.62742},{"city":"Huanta","state":"Loreto","population":756,"lat":-3.48833,"lng":-72.05242},{"city":"Huasimal","state":"Piura","population":755,"lat":-5.1521,"lng":-80.1669},{"city":"Molinos","state":"Junin","population":754,"lat":-11.73759,"lng":-75.44571},{"city":"Huachos","state":"Huancavelica","population":754,"lat":-13.21995,"lng":-75.53364},{"city":"Poroto","state":"La Libertad","population":753,"lat":-8.01137,"lng":-78.76788},{"city":"Dos de Mayo","state":"Amazonas","population":751,"lat":-6.71657,"lng":-77.80125},{"city":"Sion","state":"San Martín Department","population":750,"lat":-7.66581,"lng":-76.78731},{"city":"Linderos","state":"Cajamarca Department","population":750,"lat":-5.69111,"lng":-78.80076},{"city":"Huanuara","state":"Tacna","population":750,"lat":-17.31362,"lng":-70.32221},{"city":"Chipe","state":"Amazonas","population":749,"lat":-4.80657,"lng":-78.30267},{"city":"Inguer","state":"Cajamarca Department","population":748,"lat":-6.24564,"lng":-79.06938},{"city":"Tuti","state":"Arequipa","population":747,"lat":-15.53283,"lng":-71.54984},{"city":"San Juan de La Libertad","state":"Junin","population":747,"lat":-11.25058,"lng":-75.6913},{"city":"Canchayllo","state":"Junin","population":746,"lat":-11.80191,"lng":-75.71777},{"city":"El Cardo","state":"Arequipa","population":744,"lat":-16.60315,"lng":-72.72736},{"city":"Boza","state":"Lima region","population":744,"lat":-11.58476,"lng":-77.20431},{"city":"Aucayo","state":"Loreto","population":743,"lat":-3.8615,"lng":-73.15184},{"city":"Ticaco","state":"Tacna","population":741,"lat":-17.44828,"lng":-70.0466},{"city":"Jecuán","state":"Lima region","population":741,"lat":-11.46879,"lng":-77.27128},{"city":"Nuevo Celedin","state":"San Martín Department","population":741,"lat":-6.58616,"lng":-76.53701},{"city":"Tintay","state":"Apurímac Department","population":740,"lat":-13.95964,"lng":-73.18518},{"city":"Nueva Vida","state":"Loreto","population":740,"lat":-5.55232,"lng":-76.69299},{"city":"Turpo","state":"Apurímac Department","population":739,"lat":-13.78561,"lng":-73.47388},{"city":"Yuyapichis","state":"Huánuco Department","population":739,"lat":-9.62789,"lng":-74.97459},{"city":"Viscas","state":"Ancash","population":739,"lat":-9.14487,"lng":-76.84084},{"city":"Sancor","state":"Piura","population":737,"lat":-4.98527,"lng":-80.16476},{"city":"Pampa Elera Alta","state":"Piura","population":737,"lat":-4.70572,"lng":-80.12001},{"city":"Chosgón","state":"Amazonas","population":737,"lat":-5.93033,"lng":-78.00897},{"city":"Sabaino","state":"Apurímac Department","population":737,"lat":-14.31279,"lng":-72.94515},{"city":"Puerta Pulache","state":"Piura","population":736,"lat":-4.74052,"lng":-80.15863},{"city":"Vischongo","state":"Ayacucho","population":736,"lat":-13.5891,"lng":-73.99503},{"city":"Villa Capiri","state":"Junin","population":736,"lat":-11.12923,"lng":-74.67331},{"city":"Huasicaj","state":"Lambayeque","population":735,"lat":-6.2196,"lng":-79.29463},{"city":"Arirahua","state":"Arequipa","population":735,"lat":-15.66478,"lng":-72.93732},{"city":"Ricrán","state":"Junin","population":735,"lat":-11.54263,"lng":-75.52339},{"city":"San Roque de Cumbaza","state":"San Martín Department","population":735,"lat":-6.3859,"lng":-76.43603},{"city":"Huachis","state":"Ancash","population":734,"lat":-9.40989,"lng":-77.10042},{"city":"Aricapampa","state":"La Libertad","population":734,"lat":-7.80609,"lng":-77.72023},{"city":"Paccaritambo","state":"Cuzco Department","population":734,"lat":-13.75594,"lng":-71.95639},{"city":"Quispe","state":"Amazonas","population":734,"lat":-6.21042,"lng":-78.28601},{"city":"Cayumba","state":"Huánuco Department","population":733,"lat":-9.4831,"lng":-75.94794},{"city":"Llapa","state":"Cajamarca Department","population":732,"lat":-6.98027,"lng":-78.80736},{"city":"Huabal","state":"Cajamarca Department","population":732,"lat":-5.61284,"lng":-78.89958},{"city":"Vilque","state":"Puno","population":731,"lat":-15.76667,"lng":-70.25859},{"city":"Singo","state":"Piura","population":730,"lat":-5.28471,"lng":-79.48166},{"city":"Amashca","state":"Ancash","population":730,"lat":-9.23943,"lng":-77.64649},{"city":"Maranura","state":"Cuzco Department","population":730,"lat":-12.96371,"lng":-72.66428},{"city":"Umamarca","state":"Apurímac Department","population":730,"lat":-14.05302,"lng":-73.56603},{"city":"Santa Ana de Huaycahuacho","state":"Ayacucho","population":730,"lat":-14.22671,"lng":-73.95684},{"city":"Tolón","state":"Cajamarca Department","population":729,"lat":-7.29713,"lng":-79.30325},{"city":"Chingas","state":"Ancash","population":729,"lat":-9.11904,"lng":-76.99153},{"city":"Pallar Alto","state":"La Libertad","population":729,"lat":-7.75632,"lng":-77.90566},{"city":"Mantaro","state":"Cuzco Department","population":729,"lat":-12.32228,"lng":-73.93961},{"city":"Sarín","state":"La Libertad","population":727,"lat":-7.91234,"lng":-77.90471},{"city":"Chimbán","state":"Cajamarca Department","population":727,"lat":-6.25181,"lng":-78.47754},{"city":"Chojata","state":"Moquegua Department","population":727,"lat":-16.38873,"lng":-70.72938},{"city":"Cruz Blanca","state":"Tumbes","population":726,"lat":-3.66792,"lng":-80.42374},{"city":"Quiñota","state":"Cuzco Department","population":726,"lat":-14.31154,"lng":-72.13903},{"city":"La Viña","state":"Piura","population":723,"lat":-5.04688,"lng":-80.15572},{"city":"Pachaconas","state":"Apurímac Department","population":723,"lat":-14.22334,"lng":-73.01635},{"city":"Llacllin","state":"Ancash","population":723,"lat":-10.0689,"lng":-77.6215},{"city":"Pacherrez","state":"Lambayeque","population":722,"lat":-6.77822,"lng":-79.52645},{"city":"La Viña","state":"Lambayeque","population":722,"lat":-6.37105,"lng":-79.76422},{"city":"Cacachaqui","state":"Lima region","population":721,"lat":-11.83483,"lng":-76.3752},{"city":"La Colorada","state":"Lambayeque","population":720,"lat":-6.49252,"lng":-79.99768},{"city":"Quio","state":"Huánuco Department","population":719,"lat":-10.21555,"lng":-76.37163},{"city":"Catache","state":"Cajamarca Department","population":717,"lat":-6.67421,"lng":-79.03257},{"city":"Salala","state":"Piura","population":716,"lat":-5.11151,"lng":-79.46519},{"city":"Colca","state":"Ayacucho","population":714,"lat":-13.71264,"lng":-74.03439},{"city":"Sorochuco","state":"Cajamarca Department","population":713,"lat":-6.91169,"lng":-78.25513},{"city":"Caracucho","state":"Lambayeque","population":713,"lat":-6.48044,"lng":-79.9496},{"city":"Santa Bárbara","state":"Lima region","population":713,"lat":-13.06629,"lng":-76.45397},{"city":"San Juan","state":"Ayacucho","population":712,"lat":-14.66019,"lng":-74.2022},{"city":"Ayamarca","state":"Huancavelica","population":712,"lat":-14.00206,"lng":-75.04913},{"city":"Vilcabamba","state":"Junin","population":711,"lat":-11.35716,"lng":-75.62872},{"city":"Mayocc","state":"Huancavelica","population":711,"lat":-12.80558,"lng":-74.38994},{"city":"Ichupampa","state":"Arequipa","population":710,"lat":-15.64979,"lng":-71.68692},{"city":"Salpo","state":"La Libertad","population":709,"lat":-8.00547,"lng":-78.60649},{"city":"Rondos","state":"Huánuco Department","population":709,"lat":-9.98395,"lng":-76.68904},{"city":"La Portada de la Sierra","state":"La Libertad","population":709,"lat":-7.33757,"lng":-79.38367},{"city":"Huandoval","state":"Ancash","population":709,"lat":-8.33094,"lng":-77.97493},{"city":"Acco","state":"Ayacucho","population":709,"lat":-12.92914,"lng":-74.02667},{"city":"Mache","state":"La Libertad","population":708,"lat":-8.03008,"lng":-78.53501},{"city":"Progreso","state":"Apurímac Department","population":708,"lat":-14.07223,"lng":-72.47652},{"city":"Alegría","state":"Madre de Dios","population":708,"lat":-12.11939,"lng":-69.11964},{"city":"Miricharo","state":"Junin","population":708,"lat":-11.014,"lng":-75.01242},{"city":"Vista Alegre","state":"Cajamarca Department","population":707,"lat":-7.35643,"lng":-78.54948},{"city":"Totorabamba","state":"Apurímac Department","population":706,"lat":-13.54288,"lng":-73.66442},{"city":"Leoncio Prado","state":"San Martín Department","population":705,"lat":-6.98416,"lng":-76.25918},{"city":"Pancan","state":"Junin","population":704,"lat":-11.7488,"lng":-75.48633},{"city":"Paucar","state":"Pasco","population":702,"lat":-10.37037,"lng":-76.44503},{"city":"San Lorenzo","state":"Cajamarca Department","population":700,"lat":-5.5397,"lng":-78.82281},{"city":"Nueva Esperanza","state":"Tumbes","population":699,"lat":-3.64198,"lng":-80.60651},{"city":"Los Angeles","state":"San Martín Department","population":698,"lat":-5.93729,"lng":-77.01323},{"city":"Santa Rosa Alta","state":"Lima region","population":698,"lat":-13.09535,"lng":-76.39009},{"city":"La Pampa","state":"Arequipa","population":697,"lat":-16.48607,"lng":-71.52366},{"city":"Hatumplaya","state":"San Martín Department","population":696,"lat":-5.85172,"lng":-77.23837},{"city":"Huanchuy","state":"Ancash","population":695,"lat":-9.36121,"lng":-78.15364},{"city":"Huaypira","state":"Piura","population":695,"lat":-4.64484,"lng":-80.53825},{"city":"Sobraya","state":"Tacna","population":695,"lat":-17.99471,"lng":-70.19532},{"city":"Iscos","state":"Junin","population":695,"lat":-12.09832,"lng":-75.29333},{"city":"Magdalena","state":"Amazonas","population":694,"lat":-6.37269,"lng":-77.90181},{"city":"Circamarca","state":"Ayacucho","population":694,"lat":-13.72546,"lng":-74.12347},{"city":"Cachinche","state":"Lambayeque","population":693,"lat":-6.52183,"lng":-79.8076},{"city":"Moya","state":"Huancavelica","population":693,"lat":-12.42306,"lng":-75.154},{"city":"Chaccrampa","state":"Apurímac Department","population":693,"lat":-13.96111,"lng":-73.60801},{"city":"Cullashpampa","state":"Ancash","population":693,"lat":-9.01355,"lng":-77.80953},{"city":"Aramachay","state":"Junin","population":693,"lat":-11.91748,"lng":-75.41257},{"city":"Tranca Sasape","state":"Lambayeque","population":692,"lat":-6.49328,"lng":-79.93908},{"city":"Santa Dominguita","state":"Ica","population":692,"lat":-14.27188,"lng":-75.67228},{"city":"Pampa Elera Baja","state":"Piura","population":691,"lat":-4.69744,"lng":-80.14788},{"city":"Tirapata","state":"Puno","population":691,"lat":-14.95474,"lng":-70.40323},{"city":"Pomacocha","state":"Apurímac Department","population":691,"lat":-14.08398,"lng":-73.591},{"city":"Huasicancha","state":"Junin","population":691,"lat":-12.33186,"lng":-75.28217},{"city":"Pampachiri","state":"Apurímac Department","population":690,"lat":-14.18708,"lng":-73.54452},{"city":"Madrigal","state":"Arequipa","population":690,"lat":-15.60804,"lng":-71.80793},{"city":"Yupán","state":"Ancash","population":689,"lat":-8.61473,"lng":-77.9687},{"city":"Junín Pablo","state":"Ucayali","population":689,"lat":-8.85229,"lng":-74.20054},{"city":"Chamaca","state":"Cuzco Department","population":689,"lat":-14.3024,"lng":-71.85268},{"city":"Nueva Luz","state":"Cuzco Department","population":689,"lat":-11.46817,"lng":-73.03162},{"city":"Betania","state":"Junin","population":689,"lat":-11.05095,"lng":-73.75074},{"city":"Espindola","state":"Piura","population":688,"lat":-4.6435,"lng":-79.49155},{"city":"Chambara","state":"Junin","population":688,"lat":-12.02789,"lng":-75.37444},{"city":"Zapotal","state":"Cajamarca Department","population":687,"lat":-5.39844,"lng":-78.70477},{"city":"La Huaca","state":"Lima region","population":687,"lat":-11.5273,"lng":-77.19859},{"city":"Arin","state":"Cuzco Department","population":687,"lat":-13.31273,"lng":-72.01004},{"city":"Acobamba","state":"Ancash","population":685,"lat":-9.14365,"lng":-77.74128},{"city":"Pampas del Carmen","state":"Huánuco Department","population":685,"lat":-9.57934,"lng":-76.7955},{"city":"Barraza","state":"La Libertad","population":683,"lat":-8.11076,"lng":-78.97218},{"city":"Mejía","state":"Arequipa","population":683,"lat":-17.10176,"lng":-71.9057},{"city":"Cuchumbaya","state":"Moquegua Department","population":683,"lat":-16.751,"lng":-70.68593},{"city":"Chinchán","state":"Pasco","population":683,"lat":-10.47452,"lng":-76.15134},{"city":"Menocucho","state":"La Libertad","population":681,"lat":-8.02328,"lng":-78.83876},{"city":"Huasta","state":"Ancash","population":681,"lat":-10.12361,"lng":-77.14642},{"city":"Huertas","state":"Junin","population":681,"lat":-11.7602,"lng":-75.4694},{"city":"Marcas","state":"Huancavelica","population":680,"lat":-12.88948,"lng":-74.39951},{"city":"Huambo","state":"Amazonas","population":680,"lat":-6.42896,"lng":-77.53789},{"city":"Nauta","state":"San Martín Department","population":680,"lat":-6.65535,"lng":-76.73105},{"city":"Llapo","state":"Ancash","population":679,"lat":-8.51444,"lng":-78.04207},{"city":"Macuaco","state":"Lambayeque","population":679,"lat":-6.80218,"lng":-79.23788},{"city":"Huayllapampa","state":"Ancash","population":679,"lat":-10.05525,"lng":-77.53523},{"city":"Sacsamarca","state":"Junin","population":679,"lat":-11.41471,"lng":-75.72296},{"city":"San José de Andaychagua","state":"Junin","population":679,"lat":-11.75051,"lng":-76.01189},{"city":"Cupisa","state":"Apurímac Department","population":679,"lat":-13.68172,"lng":-73.28157},{"city":"Puerto América","state":"Loreto","population":678,"lat":-4.72757,"lng":-77.05976},{"city":"Insculas","state":"Lambayeque","population":676,"lat":-5.75615,"lng":-79.85892},{"city":"Puyca","state":"Arequipa","population":676,"lat":-15.05927,"lng":-72.69152},{"city":"Tingo de Saposoa","state":"San Martín Department","population":675,"lat":-7.09385,"lng":-76.6417},{"city":"Congalla","state":"Huancavelica","population":675,"lat":-12.95642,"lng":-74.49278},{"city":"Surpampa","state":"Piura","population":674,"lat":-4.42782,"lng":-79.9291},{"city":"Pilpichaca","state":"Huancavelica","population":673,"lat":-13.33019,"lng":-74.97699},{"city":"Vinchos","state":"Ayacucho","population":669,"lat":-13.24193,"lng":-74.35433},{"city":"San Cristobal de Jacas Chico","state":"Huánuco Department","population":667,"lat":-9.88619,"lng":-76.50318},{"city":"Ciudad De Dios","state":"La Libertad","population":667,"lat":-7.30354,"lng":-79.477},{"city":"Macabí Alto","state":"La Libertad","population":666,"lat":-7.7158,"lng":-79.36944},{"city":"Naranjitos","state":"Amazonas","population":666,"lat":-5.81776,"lng":-78.27606},{"city":"Santo Domingo","state":"La Libertad","population":665,"lat":-8.10474,"lng":-78.91099},{"city":"Cospán","state":"Cajamarca Department","population":665,"lat":-7.42703,"lng":-78.54233},{"city":"Paccha","state":"Junin","population":665,"lat":-11.85446,"lng":-75.5073},{"city":"Palo","state":"Lima region","population":664,"lat":-13.12784,"lng":-76.30287},{"city":"Chapaya","state":"Piura","population":664,"lat":-5.18847,"lng":-79.42641},{"city":"Mamara","state":"Apurímac Department","population":663,"lat":-14.22906,"lng":-72.59041},{"city":"Concacha","state":"Apurímac Department","population":663,"lat":-13.55091,"lng":-72.79775},{"city":"Anta","state":"Huancavelica","population":663,"lat":-12.27147,"lng":-74.9634},{"city":"Quilcata","state":"Ayacucho","population":662,"lat":-15.24585,"lng":-73.45141},{"city":"Humay","state":"Ica","population":662,"lat":-13.72253,"lng":-75.8866},{"city":"Canis","state":"Ancash","population":662,"lat":-10.3383,"lng":-77.17112},{"city":"Yambrasbamba","state":"Amazonas","population":661,"lat":-5.73581,"lng":-77.92487},{"city":"Ochonga","state":"Junin","population":661,"lat":-11.31684,"lng":-75.75582},{"city":"Quichuas","state":"Huancavelica","population":661,"lat":-12.46944,"lng":-74.77148},{"city":"Otuto","state":"Cajamarca Department","population":660,"lat":-7.51594,"lng":-78.06934},{"city":"Mito","state":"Junin","population":660,"lat":-11.93695,"lng":-75.33887},{"city":"Chuco","state":"Cajamarca Department","population":658,"lat":-7.32488,"lng":-78.09041},{"city":"San Antonio de Cheni","state":"Junin","population":658,"lat":-11.27072,"lng":-73.69456},{"city":"Canelos","state":"Loreto","population":657,"lat":-7.05879,"lng":-75.11173},{"city":"Puerto Enrique","state":"Loreto","population":656,"lat":-5.92013,"lng":-74.84104},{"city":"Sacuaya","state":"Moquegua Department","population":656,"lat":-16.75942,"lng":-70.71442},{"city":"Pona Alta","state":"Amazonas","population":655,"lat":-5.89775,"lng":-78.36398},{"city":"Mirgas","state":"Ancash","population":654,"lat":-9.07921,"lng":-77.09339},{"city":"Colaya","state":"Lambayeque","population":654,"lat":-6.08419,"lng":-79.50874},{"city":"Annape","state":"Lambayeque","population":654,"lat":-6.52345,"lng":-80.0023},{"city":"Quichas","state":"Lima region","population":654,"lat":-10.57662,"lng":-76.76668},{"city":"Bellavista","state":"Junin","population":654,"lat":-11.27388,"lng":-74.65775},{"city":"La Morada","state":"Huánuco Department","population":653,"lat":-8.79141,"lng":-76.24949},{"city":"Costa Rica","state":"San Martín Department","population":653,"lat":-7.27077,"lng":-76.67253},{"city":"Tiruntán","state":"Loreto","population":652,"lat":-7.9445,"lng":-74.84047},{"city":"Solecape","state":"Lambayeque","population":652,"lat":-6.59341,"lng":-79.93464},{"city":"Lucma","state":"La Libertad","population":652,"lat":-7.64064,"lng":-78.55134},{"city":"Callanmarca","state":"Huancavelica","population":652,"lat":-12.86689,"lng":-74.62305},{"city":"Monte Hermoso","state":"Lambayeque","population":651,"lat":-6.47041,"lng":-79.95668},{"city":"Calango","state":"Lima region","population":651,"lat":-12.52618,"lng":-76.54413},{"city":"Tutumberos","state":"Amazonas","population":650,"lat":-5.34213,"lng":-78.44637},{"city":"Lambrama","state":"Apurímac Department","population":650,"lat":-13.87062,"lng":-72.76981},{"city":"Huarán","state":"Cuzco Department","population":649,"lat":-13.31253,"lng":-72.02837},{"city":"Llacanora","state":"Cajamarca Department","population":648,"lat":-7.19362,"lng":-78.42674},{"city":"Yanaca","state":"Apurímac Department","population":648,"lat":-14.22574,"lng":-73.16012},{"city":"Piedra Blanca","state":"Tacna","population":647,"lat":-17.97142,"lng":-70.18095},{"city":"Santa Barbara de Carhuacayan","state":"Junin","population":647,"lat":-11.20418,"lng":-76.28555},{"city":"Ayahuasi","state":"Arequipa","population":647,"lat":-15.14664,"lng":-72.74323},{"city":"La Merced","state":"Huancavelica","population":647,"lat":-12.78824,"lng":-74.359},{"city":"Chavin","state":"Ancash","population":646,"lat":-9.43231,"lng":-77.53499},{"city":"Oidor","state":"Tumbes","population":645,"lat":-3.72225,"lng":-80.45882},{"city":"Monte Bello","state":"Loreto","population":645,"lat":-6.16536,"lng":-75.16721},{"city":"Poyentimari","state":"Cuzco Department","population":645,"lat":-12.32745,"lng":-72.88596},{"city":"Yavirironi","state":"Junin","population":645,"lat":-11.07666,"lng":-74.71697},{"city":"Miraflores","state":"San Martín Department","population":645,"lat":-5.90951,"lng":-77.36901},{"city":"Soledad","state":"Loreto","population":644,"lat":-5.66083,"lng":-76.57452},{"city":"Incahuasi","state":"Lambayeque","population":644,"lat":-6.23725,"lng":-79.31524},{"city":"Huanchar","state":"Junin","population":644,"lat":-11.87356,"lng":-75.31888},{"city":"La Victoria","state":"San Martín Department","population":644,"lat":-7.1353,"lng":-76.74165},{"city":"Mayas","state":"Ancash","population":643,"lat":-8.2703,"lng":-77.66219},{"city":"Llocllapampa","state":"Junin","population":643,"lat":-11.81725,"lng":-75.62424},{"city":"Buena Vista","state":"Apurímac Department","population":643,"lat":-13.69338,"lng":-73.47894},{"city":"Santa Cruz","state":"Lima region","population":643,"lat":-13.07832,"lng":-76.44341},{"city":"San Pedro","state":"Piura","population":642,"lat":-5.08818,"lng":-80.03465},{"city":"Esquena","state":"Puno","population":642,"lat":-13.92672,"lng":-69.95295},{"city":"Los Medanos","state":"Arequipa","population":641,"lat":-16.48927,"lng":-71.8151},{"city":"Palo Blanco","state":"Piura","population":640,"lat":-5.40207,"lng":-79.80569},{"city":"Choccecancha","state":"Apurímac Department","population":640,"lat":-13.6826,"lng":-73.26376},{"city":"Oxahuay","state":"Piura","population":640,"lat":-4.55533,"lng":-79.78453},{"city":"Accomarca","state":"Ayacucho","population":639,"lat":-13.80091,"lng":-73.9041},{"city":"Huantashiri","state":"Junin","population":639,"lat":-11.20686,"lng":-74.52255},{"city":"Cruz Pampa","state":"Huánuco Department","population":639,"lat":-9.71238,"lng":-76.77343},{"city":"Niepos","state":"Cajamarca Department","population":638,"lat":-6.92747,"lng":-79.12898},{"city":"Paras","state":"Ayacucho","population":638,"lat":-13.55224,"lng":-74.62753},{"city":"Casa Blanca","state":"Lima region","population":638,"lat":-13.03377,"lng":-76.45509},{"city":"Cauday","state":"Cajamarca Department","population":637,"lat":-7.574,"lng":-78.07002},{"city":"Puno","state":"Ica","population":637,"lat":-14.14548,"lng":-75.70767},{"city":"Cajacay","state":"Ancash","population":636,"lat":-10.15546,"lng":-77.4397},{"city":"Marca","state":"Ancash","population":635,"lat":-10.08799,"lng":-77.47497},{"city":"Herbay Bajo","state":"Lima region","population":635,"lat":-13.13042,"lng":-76.39509},{"city":"Maya","state":"Ancash","population":635,"lat":-9.28786,"lng":-77.67815},{"city":"La Peña","state":"Tumbes","population":634,"lat":-3.6686,"lng":-80.45404},{"city":"Umachiri","state":"Puno","population":634,"lat":-14.85347,"lng":-70.75351},{"city":"Chiara","state":"Cuzco Department","population":634,"lat":-14.09082,"lng":-71.40121},{"city":"Tamboya","state":"Piura","population":633,"lat":-5.16623,"lng":-79.77738},{"city":"Quillupampa","state":"La Libertad","population":633,"lat":-8.18799,"lng":-78.05304},{"city":"Curimarca","state":"Junin","population":632,"lat":-11.57599,"lng":-75.33298},{"city":"Dos Unidos","state":"San Martín Department","population":632,"lat":-7.17926,"lng":-76.5131},{"city":"Miraflores","state":"Piura","population":631,"lat":-4.84198,"lng":-80.68936},{"city":"Ambato","state":"Huancavelica","population":631,"lat":-12.74977,"lng":-74.82158},{"city":"San Pedrillo","state":"Piura","population":630,"lat":-4.90484,"lng":-80.289},{"city":"Caraybamba","state":"Apurímac Department","population":630,"lat":-14.37833,"lng":-73.16074},{"city":"Balcones de Talandracas","state":"Piura","population":629,"lat":-5.08798,"lng":-80.07519},{"city":"Huancaya","state":"Lima region","population":629,"lat":-12.20335,"lng":-75.79928},{"city":"Hualcán","state":"Ancash","population":629,"lat":-9.256,"lng":-77.6138},{"city":"Parrapos","state":"La Libertad","population":628,"lat":-7.77938,"lng":-78.76915},{"city":"Caral","state":"Lima region","population":628,"lat":-10.88872,"lng":-77.50359},{"city":"Collonce","state":"Amazonas","population":628,"lat":-6.28252,"lng":-78.21092},{"city":"Atahualpa","state":"Loreto","population":628,"lat":-4.8456,"lng":-77.48219},{"city":"Quiches","state":"Ancash","population":627,"lat":-8.39506,"lng":-77.49075},{"city":"Callejones","state":"Piura","population":627,"lat":-5.0315,"lng":-80.2815},{"city":"Llipa","state":"Ancash","population":627,"lat":-10.38107,"lng":-77.20672},{"city":"Pampaconga","state":"Cuzco Department","population":627,"lat":-13.44373,"lng":-72.38716},{"city":"Picoy","state":"Junin","population":627,"lat":-11.3259,"lng":-75.68886},{"city":"Sucre","state":"Ancash","population":626,"lat":-8.96167,"lng":-77.84275},{"city":"Shirac","state":"Cajamarca Department","population":626,"lat":-7.34924,"lng":-78.04782},{"city":"Querobal","state":"La Libertad","population":626,"lat":-7.8406,"lng":-77.9349},{"city":"Las Flores de Mamonaquihua","state":"San Martín Department","population":625,"lat":-6.66299,"lng":-76.46604},{"city":"Huarango Mocho","state":"Ica","population":625,"lat":-14.19269,"lng":-75.69641},{"city":"San José de Secce","state":"Ayacucho","population":625,"lat":-12.76573,"lng":-74.25303},{"city":"Puca Cruz","state":"Huancavelica","population":625,"lat":-12.74552,"lng":-74.62922},{"city":"Nuevo Andoas","state":"Loreto","population":624,"lat":-2.80837,"lng":-76.45467},{"city":"Jacocha","state":"Piura","population":624,"lat":-5.19198,"lng":-79.52998},{"city":"Capacmarca","state":"Cuzco Department","population":624,"lat":-14.008,"lng":-72.00084},{"city":"Vicos","state":"Ancash","population":623,"lat":-9.32788,"lng":-77.5522},{"city":"Chuquibamba","state":"Amazonas","population":623,"lat":-6.9347,"lng":-77.85472},{"city":"Ancobamba","state":"Apurímac Department","population":623,"lat":-14.0355,"lng":-73.09956},{"city":"Chupaca","state":"Huancavelica","population":623,"lat":-12.52319,"lng":-74.82953},{"city":"Huarapa","state":"Huánuco Department","population":622,"lat":-9.77043,"lng":-76.20677},{"city":"Oyolo","state":"Ayacucho","population":622,"lat":-15.17914,"lng":-73.18506},{"city":"Andajes","state":"Lima region","population":621,"lat":-10.79254,"lng":-76.90888},{"city":"San Isidro","state":"Loreto","population":621,"lat":-3.86455,"lng":-71.35332},{"city":"Santiago de Lucanamarca","state":"Ayacucho","population":620,"lat":-13.8436,"lng":-74.37245},{"city":"Montevideo","state":"Amazonas","population":619,"lat":-6.61825,"lng":-77.82315},{"city":"Congona","state":"Cajamarca Department","population":619,"lat":-6.83591,"lng":-78.22196},{"city":"Santa Cruz","state":"Ica","population":619,"lat":-13.83215,"lng":-76.13513},{"city":"Tongos","state":"Huancavelica","population":618,"lat":-12.28333,"lng":-74.98333},{"city":"Santa Maria de Chicmo","state":"Apurímac Department","population":618,"lat":-13.65718,"lng":-73.4946},{"city":"Chalhuanca","state":"Arequipa","population":617,"lat":-15.71776,"lng":-71.32082},{"city":"Ichocán","state":"Cajamarca Department","population":616,"lat":-7.36837,"lng":-78.13042},{"city":"Paucarcolla","state":"Puno","population":616,"lat":-15.74497,"lng":-70.05598},{"city":"Alayo","state":"Junin","population":616,"lat":-11.88606,"lng":-75.29934},{"city":"Pundin","state":"Piura","population":615,"lat":-5.22384,"lng":-79.50095},{"city":"Pulluri","state":"Apurímac Department","population":615,"lat":-13.5471,"lng":-73.28491},{"city":"La Noria","state":"Piura","population":614,"lat":-4.79609,"lng":-80.74513},{"city":"Farías","state":"La Libertad","population":614,"lat":-7.80677,"lng":-79.22485},{"city":"Anta","state":"Ancash","population":614,"lat":-9.35698,"lng":-77.59796},{"city":"Ticllos","state":"Ancash","population":612,"lat":-10.25237,"lng":-77.19115},{"city":"Pichiupata","state":"Apurímac Department","population":610,"lat":-13.67727,"lng":-73.07592},{"city":"Culqui","state":"Piura","population":609,"lat":-4.63221,"lng":-80.00484},{"city":"Vaquería","state":"La Libertad","population":609,"lat":-7.75571,"lng":-77.97102},{"city":"Gallito","state":"Loreto","population":607,"lat":-3.83496,"lng":-73.15442},{"city":"Manacamiri","state":"Loreto","population":607,"lat":-3.71951,"lng":-73.28273},{"city":"Congas","state":"Ancash","population":607,"lat":-10.33615,"lng":-77.44195},{"city":"Quipran","state":"Huánuco Department","population":606,"lat":-9.49577,"lng":-76.77272},{"city":"Panti","state":"Junin","population":606,"lat":-12.03566,"lng":-74.77374},{"city":"Bello Horizonte","state":"San Martín Department","population":605,"lat":-6.52867,"lng":-76.30138},{"city":"Omia","state":"Amazonas","population":604,"lat":-6.46778,"lng":-77.39608},{"city":"Cairani","state":"Tacna","population":604,"lat":-17.2857,"lng":-70.36329},{"city":"La Colpa","state":"La Libertad","population":603,"lat":-7.8349,"lng":-78.0638},{"city":"Turpay","state":"Apurímac Department","population":603,"lat":-14.22794,"lng":-72.62227},{"city":"Tanguche","state":"La Libertad","population":601,"lat":-8.74703,"lng":-78.52241},{"city":"Sartimbamba","state":"La Libertad","population":600,"lat":-7.69954,"lng":-77.74131},{"city":"Coletas","state":"Piura","population":599,"lat":-4.85146,"lng":-80.0006},{"city":"Sinchi Roca","state":"Piura","population":599,"lat":-4.88231,"lng":-80.43541},{"city":"Choquecancha","state":"Cuzco Department","population":599,"lat":-13.03433,"lng":-72.03348},{"city":"Huaylillas","state":"La Libertad","population":598,"lat":-8.18679,"lng":-77.34485},{"city":"Chicchicay","state":"Lima region","population":598,"lat":-12.72292,"lng":-75.95331},{"city":"Vicso","state":"Junin","population":598,"lat":-11.97212,"lng":-75.35491},{"city":"San Joaquín de Omaguas","state":"Loreto","population":597,"lat":-4.27069,"lng":-73.41165},{"city":"Pumachuco","state":"Apurímac Department","population":597,"lat":-13.33252,"lng":-73.73927},{"city":"Corpanqui","state":"Ancash","population":597,"lat":-10.28515,"lng":-77.19904},{"city":"Patay","state":"Junin","population":597,"lat":-11.31007,"lng":-75.57022},{"city":"Viñas","state":"Huancavelica","population":597,"lat":-12.41577,"lng":-74.86205},{"city":"Quillo","state":"Ancash","population":596,"lat":-9.3289,"lng":-78.04198},{"city":"Moyobamba","state":"Ayacucho","population":596,"lat":-14.37597,"lng":-73.89332},{"city":"Samito","state":"Loreto","population":596,"lat":-3.85757,"lng":-73.58343},{"city":"Yungar","state":"Ancash","population":595,"lat":-9.37782,"lng":-77.59224},{"city":"Huamantanga","state":"Lima region","population":595,"lat":-11.49984,"lng":-76.749},{"city":"Chingora","state":"Puno","population":595,"lat":-15.38427,"lng":-70.16552},{"city":"Maucallacta","state":"Apurímac Department","population":595,"lat":-13.55787,"lng":-73.49173},{"city":"Arena Baja","state":"Lima region","population":595,"lat":-13.14914,"lng":-76.38418},{"city":"Huancacarpa Alto","state":"Piura","population":594,"lat":-5.13352,"lng":-79.52437},{"city":"San Juan de Chacña","state":"Apurímac Department","population":593,"lat":-13.92399,"lng":-73.18186},{"city":"La Florida","state":"Cajamarca Department","population":592,"lat":-6.86901,"lng":-79.12253},{"city":"Ocros","state":"Ayacucho","population":592,"lat":-13.39095,"lng":-73.91535},{"city":"Vaquería","state":"Tumbes","population":590,"lat":-3.70577,"lng":-80.45217},{"city":"Tamarindo","state":"La Libertad","population":590,"lat":-7.30664,"lng":-79.44288},{"city":"La Esmeralda","state":"Piura","population":590,"lat":-5.00886,"lng":-81.06503},{"city":"San Agustin de Huayopampa","state":"Lima region","population":590,"lat":-11.35322,"lng":-76.82398},{"city":"San Juan de Cacazú","state":"Pasco","population":590,"lat":-10.65595,"lng":-75.11537},{"city":"Charupa","state":"Loreto","population":589,"lat":-5.00638,"lng":-75.86498},{"city":"Quemazon","state":"Lambayeque","population":588,"lat":-6.52477,"lng":-79.97491},{"city":"Cochabamba","state":"Huánuco Department","population":588,"lat":-9.09496,"lng":-76.83658},{"city":"Callancas","state":"La Libertad","population":587,"lat":-7.76572,"lng":-78.48171},{"city":"Pillpinto","state":"Cuzco Department","population":587,"lat":-13.95328,"lng":-71.762},{"city":"La Otra Banda","state":"Lambayeque","population":586,"lat":-6.94237,"lng":-79.58028},{"city":"Yanacancha","state":"Junin","population":586,"lat":-12.20105,"lng":-75.38647},{"city":"Pachascucho","state":"Junin","population":586,"lat":-11.75514,"lng":-75.53478},{"city":"San Francisco","state":"Ica","population":586,"lat":-13.48227,"lng":-76.08222},{"city":"Yuracmayo","state":"Junin","population":586,"lat":-11.46976,"lng":-75.52546},{"city":"Las Yaras","state":"Tacna","population":585,"lat":-17.8642,"lng":-70.56117},{"city":"Huayo","state":"Pasco","population":584,"lat":-10.48962,"lng":-76.37232},{"city":"Acopalca","state":"Junin","population":584,"lat":-11.9876,"lng":-75.10193},{"city":"San Juan de Huirpacancha","state":"Huancavelica","population":583,"lat":-13.95641,"lng":-75.23868},{"city":"Charcani Chico","state":"Arequipa","population":583,"lat":-16.30946,"lng":-71.50097},{"city":"Caimito","state":"Ucayali","population":581,"lat":-8.85443,"lng":-74.31459},{"city":"Lishinas","state":"Cajamarca Department","population":581,"lat":-6.03713,"lng":-79.13638},{"city":"Huayllahuara","state":"Huancavelica","population":581,"lat":-12.40947,"lng":-75.17827},{"city":"Agallpampa","state":"La Libertad","population":580,"lat":-7.9855,"lng":-78.54827},{"city":"Collud","state":"Lambayeque","population":580,"lat":-6.78699,"lng":-79.77057},{"city":"Izcuchaca","state":"Huancavelica","population":580,"lat":-12.50064,"lng":-74.99718},{"city":"Pinchollo","state":"Arequipa","population":579,"lat":-15.61521,"lng":-71.83949},{"city":"Buenos Aires","state":"San Martín Department","population":578,"lat":-5.92285,"lng":-77.0787},{"city":"Ullusca","state":"Junin","population":578,"lat":-11.82034,"lng":-75.51057},{"city":"San Pedro de Chonta","state":"Huánuco Department","population":577,"lat":-8.65615,"lng":-76.87502},{"city":"Huaylas","state":"Ancash","population":576,"lat":-8.87226,"lng":-77.89297},{"city":"Samán","state":"Loreto","population":575,"lat":-6.13855,"lng":-75.04192},{"city":"Chumpón","state":"La Libertad","population":574,"lat":-7.71855,"lng":-79.31899},{"city":"Huancaraylla","state":"Ayacucho","population":573,"lat":-13.71865,"lng":-74.10207},{"city":"Pampa Yanamayo","state":"Puno","population":573,"lat":-14.00242,"lng":-69.27614},{"city":"Onza de Oro","state":"Piura","population":572,"lat":-5.48828,"lng":-80.74641},{"city":"Alfonso Ugarte","state":"Loreto","population":572,"lat":-7.823,"lng":-74.82838},{"city":"Ocaña","state":"Ayacucho","population":572,"lat":-14.3986,"lng":-74.82275},{"city":"Potrerillo","state":"Piura","population":571,"lat":-4.69978,"lng":-80.10196},{"city":"Bolívar","state":"Cajamarca Department","population":571,"lat":-6.97681,"lng":-79.17801},{"city":"Checcapucara","state":"Cuzco Department","population":571,"lat":-14.18425,"lng":-71.69416},{"city":"Tauribamba","state":"Huancavelica","population":571,"lat":-12.04022,"lng":-74.58296},{"city":"Shunqui","state":"Huánuco Department","population":570,"lat":-9.73137,"lng":-76.78345},{"city":"Chalaco","state":"Piura","population":570,"lat":-5.40855,"lng":-80.76138},{"city":"El Hornito","state":"La Libertad","population":570,"lat":-7.41876,"lng":-79.54682},{"city":"Tunal","state":"Piura","population":568,"lat":-5.21282,"lng":-79.67861},{"city":"Yangas","state":"Lima region","population":568,"lat":-11.69509,"lng":-76.84686},{"city":"Macacará","state":"Piura","population":567,"lat":-4.91831,"lng":-80.86041},{"city":"Pullo","state":"Ayacucho","population":567,"lat":-15.21029,"lng":-73.82664},{"city":"Huaca Rajada","state":"Lambayeque","population":566,"lat":-6.79961,"lng":-79.60153},{"city":"El Verde","state":"Lambayeque","population":566,"lat":-6.43804,"lng":-79.73577},{"city":"Sondondo","state":"Ayacucho","population":566,"lat":-14.29795,"lng":-73.93928},{"city":"Chiara","state":"Apurímac Department","population":566,"lat":-13.86724,"lng":-73.66896},{"city":"Ancomarca","state":"Huánuco Department","population":566,"lat":-9.98657,"lng":-76.06499},{"city":"Huambo","state":"Ayacucho","population":565,"lat":-13.67949,"lng":-74.19161},{"city":"Pantoja","state":"Loreto","population":564,"lat":-0.96435,"lng":-75.18144},{"city":"San Pedro de Chuparo","state":"Apurímac Department","population":564,"lat":-13.52373,"lng":-73.68416},{"city":"Mirave","state":"Tacna","population":564,"lat":-17.47898,"lng":-70.54925},{"city":"Chachas","state":"Arequipa","population":563,"lat":-15.50137,"lng":-72.27014},{"city":"Acpitán","state":"Apurímac Department","population":563,"lat":-13.84264,"lng":-72.41605},{"city":"Paratushiali","state":"Junin","population":563,"lat":-11.29038,"lng":-74.69908},{"city":"Huangashanga","state":"Cajamarca Department","population":561,"lat":-6.86487,"lng":-78.28733},{"city":"Trapiche","state":"Lima region","population":561,"lat":-11.72015,"lng":-76.96379},{"city":"Pariacolca","state":"Ancash","population":561,"lat":-9.32171,"lng":-77.9934},{"city":"La Nueva Esperanza","state":"Junin","population":561,"lat":-11.83368,"lng":-75.32842},{"city":"Tinco","state":"Ancash","population":560,"lat":-9.27071,"lng":-77.67783},{"city":"Coyona","state":"Piura","population":560,"lat":-5.30067,"lng":-79.61521},{"city":"Mollebamba","state":"Apurímac Department","population":560,"lat":-14.42859,"lng":-72.91463},{"city":"Carapo","state":"Ayacucho","population":560,"lat":-13.83719,"lng":-74.31547},{"city":"Pedregal","state":"Piura","population":559,"lat":-5.24202,"lng":-79.98537},{"city":"Shumba Alto","state":"Cajamarca Department","population":559,"lat":-5.56879,"lng":-78.81484},{"city":"Cullhuas","state":"Junin","population":559,"lat":-12.22282,"lng":-75.17179},{"city":"Colquepata","state":"Cuzco Department","population":559,"lat":-13.35955,"lng":-71.67331},{"city":"Huancas","state":"Apurímac Department","population":559,"lat":-13.4769,"lng":-73.37222},{"city":"Pampachacra","state":"Huancavelica","population":559,"lat":-12.80405,"lng":-74.92108},{"city":"San Pedro de Chunan","state":"Junin","population":558,"lat":-11.72617,"lng":-75.48609},{"city":"Compín","state":"La Libertad","population":557,"lat":-7.69869,"lng":-78.62577},{"city":"Siempre Viva","state":"Amazonas","population":557,"lat":-5.74718,"lng":-78.66844},{"city":"San José de Huarcaya","state":"Ayacucho","population":557,"lat":-13.82686,"lng":-74.38528},{"city":"Huamanguilla","state":"Ica","population":557,"lat":-14.07419,"lng":-75.68947},{"city":"Huacho","state":"Ancash","population":557,"lat":-9.30629,"lng":-77.95048},{"city":"Cerro Libre","state":"Lima region","population":557,"lat":-13.08707,"lng":-76.31533},{"city":"Yanama","state":"Ancash","population":556,"lat":-9.02094,"lng":-77.47102},{"city":"Mamonaquihua","state":"San Martín Department","population":556,"lat":-6.65761,"lng":-76.43891},{"city":"Santo Tomás de Pata","state":"Huancavelica","population":556,"lat":-13.11299,"lng":-74.41884},{"city":"Viduque","state":"Piura","population":555,"lat":-5.25039,"lng":-80.66148},{"city":"Nuevo Horizonte","state":"Amazonas","population":555,"lat":-5.83629,"lng":-78.5265},{"city":"Antaparco","state":"Huancavelica","population":555,"lat":-13.07643,"lng":-74.4115},{"city":"Urpay","state":"La Libertad","population":555,"lat":-8.34792,"lng":-77.39183},{"city":"Samne","state":"La Libertad","population":554,"lat":-7.99092,"lng":-78.68139},{"city":"Alto Perillo","state":"Loreto","population":554,"lat":-7.07869,"lng":-75.14333},{"city":"Yanaquihua","state":"Arequipa","population":554,"lat":-15.77511,"lng":-72.87583},{"city":"Platería","state":"Puno","population":554,"lat":-15.94858,"lng":-69.83321},{"city":"Paric","state":"Cajamarca Department","population":553,"lat":-6.28356,"lng":-79.13409},{"city":"Puerto Alegría","state":"Loreto","population":553,"lat":-4.12071,"lng":-70.05312},{"city":"San Pedro de Larcay","state":"Ayacucho","population":553,"lat":-14.16885,"lng":-73.57294},{"city":"Chacos","state":"Huánuco Department","population":553,"lat":-10.35915,"lng":-76.1696},{"city":"Yanacocha","state":"Pasco","population":553,"lat":-10.47135,"lng":-76.50188},{"city":"Llacta","state":"Ancash","population":553,"lat":-9.02964,"lng":-77.8278},{"city":"Las Huacas","state":"Ica","population":553,"lat":-13.4901,"lng":-76.11265},{"city":"Tucsipampa","state":"Huancavelica","population":551,"lat":-13.00084,"lng":-74.78819},{"city":"Tintay","state":"Ayacucho","population":551,"lat":-14.07518,"lng":-73.86114},{"city":"Chungui","state":"Ayacucho","population":551,"lat":-13.222,"lng":-73.6214},{"city":"Monterrico","state":"Cuzco Department","population":551,"lat":-12.82484,"lng":-73.59202},{"city":"Toraya","state":"Apurímac Department","population":550,"lat":-14.05308,"lng":-73.29464},{"city":"Sañayca","state":"Apurímac Department","population":550,"lat":-14.20467,"lng":-73.34717},{"city":"Urpish","state":"Huánuco Department","population":550,"lat":-9.27635,"lng":-76.72504},{"city":"Tororumi","state":"Huancavelica","population":550,"lat":-12.78337,"lng":-74.59023},{"city":"Siracat","state":"Cajamarca Department","population":549,"lat":-7.41242,"lng":-78.58322},{"city":"Pacopampa","state":"Cajamarca Department","population":549,"lat":-6.33738,"lng":-79.02055},{"city":"Fátima","state":"Piura","population":549,"lat":-5.07213,"lng":-80.11053},{"city":"San Juan de Chito","state":"Ayacucho","population":549,"lat":-13.6396,"lng":-73.92608},{"city":"Huantán","state":"Lima region","population":549,"lat":-12.45669,"lng":-75.81208},{"city":"Huiyán","state":"Huánuco Department","population":549,"lat":-9.84731,"lng":-76.00081},{"city":"Santa Paula","state":"Piura","population":548,"lat":-4.956,"lng":-80.5292},{"city":"Cerezal","state":"Piura","population":548,"lat":-5.0585,"lng":-80.6331},{"city":"Longar","state":"Ica","population":548,"lat":-14.00867,"lng":-75.74707},{"city":"Langa","state":"Lima region","population":548,"lat":-12.12579,"lng":-76.4211},{"city":"Tiambra","state":"Junin","population":548,"lat":-11.23807,"lng":-75.69018},{"city":"Alto Mayo","state":"San Martín Department","population":548,"lat":-5.69828,"lng":-77.47193},{"city":"Pongobamba","state":"Cuzco Department","population":548,"lat":-13.42436,"lng":-72.03832},{"city":"Salamanca","state":"Arequipa","population":547,"lat":-15.50475,"lng":-72.83421},{"city":"Vista Alegre","state":"San Martín Department","population":547,"lat":-5.82532,"lng":-77.39486},{"city":"Huanchán","state":"Huánuco Department","population":547,"lat":-9.94272,"lng":-76.49168},{"city":"San Benito","state":"Cajamarca Department","population":546,"lat":-7.42499,"lng":-78.92733},{"city":"Riecito","state":"Piura","population":546,"lat":-4.71789,"lng":-80.51008},