{"timezone":"America/La_Paz","countries":{"Bolivia":[{"city":"La Paz","state":"La Paz Department","population":2004652,"lat":-16.5,"lng":-68.15},{"city":"Santa Cruz de la Sierra","state":"Santa Cruz Department","population":1831434,"lat":-17.78629,"lng":-63.18117},{"city":"Cochabamba","state":"Cochabamba","population":841276,"lat":-17.38195,"lng":-66.15995},{"city":"Sucre","state":"Chuquisaca Department","population":224838,"lat":-19.03332,"lng":-65.26274},{"city":"Oruro","state":"Oruro","population":208684,"lat":-17.97153,"lng":-67.0932},{"city":"Sacaba","state":"Cochabamba","population":180726,"lat":-17.39799,"lng":-66.03825},{"city":"Quillacollo","state":"Cochabamba","population":172405,"lat":-17.39228,"lng":-66.27838},{"city":"Tarija","state":"Tarija Department","population":159269,"lat":-21.53549,"lng":-64.72956},{"city":"Potosí","state":"Potosí Department","population":141251,"lat":-19.58361,"lng":-65.75306},{"city":"Riberalta","state":"Beni Department","population":99070,"lat":-11.01026,"lng":-66.05257},{"city":"Montero","state":"Santa Cruz Department","population":88616,"lat":-17.33874,"lng":-63.25093},{"city":"Viacha","state":"La Paz Department","population":86218,"lat":-16.65,"lng":-68.3},{"city":"Trinidad","state":"Beni Department","population":84259,"lat":-14.83223,"lng":-64.90335},{"city":"Yacuiba","state":"Tarija Department","population":82803,"lat":-22.01643,"lng":-63.67753},{"city":"Tiquipaya","state":"Cochabamba","population":62675,"lat":-17.33801,"lng":-66.21579},{"city":"Vinto","state":"Cochabamba","population":58739,"lat":-17.39141,"lng":-66.31681},{"city":"Colcapirhua","state":"Cochabamba","population":52732,"lat":-17.3857,"lng":-66.23814},{"city":"Sipe Sipe","state":"Cochabamba","population":47000,"lat":-17.45419,"lng":-66.35737},{"city":"Caranavi","state":"La Paz Department","population":45747,"lat":-15.83403,"lng":-67.56586},{"city":"Villamontes","state":"Tarija Department","population":39800,"lat":-21.26235,"lng":-63.46903},{"city":"Guayaramerín","state":"Beni Department","population":36008,"lat":-10.8258,"lng":-65.3581},{"city":"Bermejo","state":"Tarija Department","population":35411,"lat":-22.73206,"lng":-64.33724},{"city":"Mizque","state":"Cochabamba","population":30481,"lat":-17.94101,"lng":-65.34016},{"city":"Villazón","state":"Potosí Department","population":30253,"lat":-22.08659,"lng":-65.59422},{"city":"Llallagua","state":"Potosí Department","population":28069,"lat":-18.42494,"lng":-66.57778},{"city":"Camiri","state":"Santa Cruz Department","population":27961,"lat":-20.04063,"lng":-63.52396},{"city":"Cobija","state":"Pando","population":26585,"lat":-11.02671,"lng":-68.76918},{"city":"San Borja","state":"Beni Department","population":24610,"lat":-14.85195,"lng":-66.74954},{"city":"San Ignacio de Velasco","state":"Santa Cruz Department","population":23569,"lat":-16.37767,"lng":-60.96472},{"city":"Tupiza","state":"Potosí Department","population":22233,"lat":-21.44345,"lng":-65.71875},{"city":"Warnes","state":"Santa Cruz Department","population":22036,"lat":-17.5163,"lng":-63.16778},{"city":"Achocalla","state":"La Paz Department","population":19583,"lat":-16.57386,"lng":-68.15112},{"city":"Ascención de Guarayos","state":"Santa Cruz Department","population":18816,"lat":-15.89299,"lng":-63.18855},{"city":"Cotoca","state":"Santa Cruz Department","population":18347,"lat":-17.81667,"lng":-63.05},{"city":"Villa Yapacaní","state":"Santa Cruz Department","population":18187,"lat":-17.4,"lng":-63.83333},{"city":"Laja","state":"La Paz Department","population":18023,"lat":-16.53333,"lng":-68.38333},{"city":"El Torno","state":"Santa Cruz Department","population":15543,"lat":-18.00014,"lng":-63.38712},{"city":"Huanuni","state":"Oruro","population":15492,"lat":-18.289,"lng":-66.83583},{"city":"Punata","state":"Cochabamba","population":15194,"lat":-17.54234,"lng":-65.83472},{"city":"Ascensión","state":"Santa Cruz Department","population":14429,"lat":-15.7,"lng":-63.08333},{"city":"Mineros","state":"Santa Cruz Department","population":14385,"lat":-17.11918,"lng":-63.23226},{"city":"Mecapaca","state":"La Paz Department","population":13289,"lat":-16.66829,"lng":-68.01808},{"city":"Santa Ana de Yacuma","state":"Beni Department","population":12783,"lat":-13.74406,"lng":-65.42688},{"city":"Puerto Suárez","state":"Santa Cruz Department","population":12546,"lat":-18.96722,"lng":-57.80127},{"city":"Okinawa Uno","state":"Santa Cruz Department","population":12482,"lat":-17.21889,"lng":-62.89528},{"city":"Patacamaya","state":"La Paz Department","population":12260,"lat":-17.23611,"lng":-67.91443},{"city":"Colchani","state":"Potosí Department","population":11988,"lat":-20.3,"lng":-66.93333},{"city":"Rurrenabaque","state":"Beni Department","population":11749,"lat":-14.44125,"lng":-67.52781},{"city":"Portachuelo","state":"Santa Cruz Department","population":11485,"lat":-17.35374,"lng":-63.39571},{"city":"Puerto Quijarro","state":"Santa Cruz Department","population":10392,"lat":-17.78333,"lng":-57.76667},{"city":"Uyuni","state":"Potosí Department","population":10293,"lat":-20.45967,"lng":-66.82503},{"city":"Roboré","state":"Santa Cruz Department","population":9882,"lat":-18.33473,"lng":-59.76142},{"city":"Pailón","state":"Santa Cruz Department","population":9304,"lat":-17.66395,"lng":-62.71804},{"city":"Uncía","state":"Potosí Department","population":8902,"lat":-18.46713,"lng":-66.5671},{"city":"Cliza","state":"Cochabamba","population":8654,"lat":-17.58777,"lng":-65.93253},{"city":"Achacachi","state":"La Paz Department","population":8447,"lat":-16.04707,"lng":-68.68534},{"city":"Vallegrande","state":"Santa Cruz Department","population":8422,"lat":-18.48887,"lng":-64.10827},{"city":"Monteagudo","state":"Chuquisaca Department","population":8289,"lat":-19.79998,"lng":-63.95617},{"city":"Aiquile","state":"Cochabamba","population":8224,"lat":-18.20408,"lng":-65.18068},{"city":"Tarata","state":"Cochabamba","population":8043,"lat":-17.60898,"lng":-66.02135},{"city":"Challapata","state":"Oruro","population":8016,"lat":-18.90208,"lng":-66.77048},{"city":"San Julian","state":"Santa Cruz Department","population":7706,"lat":-17.78333,"lng":-62.86667},{"city":"Reyes","state":"Beni Department","population":7376,"lat":-14.2952,"lng":-67.33624},{"city":"Concepción","state":"Santa Cruz Department","population":6900,"lat":-16.43333,"lng":-60.9},{"city":"San Matías","state":"Santa Cruz Department","population":6352,"lat":-16.3597,"lng":-58.40039},{"city":"Copacabana","state":"La Paz Department","population":6000,"lat":-16.1699,"lng":-69.07919},{"city":"Ixiamas","state":"La Paz Department","population":5625,"lat":-13.76766,"lng":-68.128},{"city":"La Bélgica","state":"Santa Cruz Department","population":5501,"lat":-17.55,"lng":-63.21667},{"city":"Pucarani","state":"La Paz Department","population":5325,"lat":-16.39959,"lng":-68.47753},{"city":"Santa Rosa del Sara","state":"Santa Cruz Department","population":5251,"lat":-17.10805,"lng":-63.59967},{"city":"Capinota","state":"Cochabamba","population":5157,"lat":-17.71113,"lng":-66.26082},{"city":"Chimoré","state":"Cochabamba","population":5147,"lat":-16.99417,"lng":-65.1533},{"city":"San Pedro","state":"La Paz Department","population":5002,"lat":-16.23717,"lng":-68.85063},{"city":"Okinawa Número Uno","state":"Santa Cruz Department","population":4944,"lat":-17.23333,"lng":-62.81667},{"city":"Betanzos","state":"Potosí Department","population":4847,"lat":-19.55293,"lng":-65.45395},{"city":"Camargo","state":"Chuquisaca Department","population":4715,"lat":-20.64064,"lng":-65.20893},{"city":"Santa Rosa de Yacuma","state":"Beni Department","population":4459,"lat":-14.07719,"lng":-66.79349},{"city":"Comarapa","state":"Santa Cruz Department","population":4445,"lat":-17.91537,"lng":-64.53163},{"city":"San Ramón","state":"Beni Department","population":4389,"lat":-13.26647,"lng":-64.61515},{"city":"Mairana","state":"Santa Cruz Department","population":4298,"lat":-18.1199,"lng":-63.96058},{"city":"Buena Vista","state":"Santa Cruz Department","population":4282,"lat":-17.4583,"lng":-63.67126},{"city":"San Carlos","state":"Santa Cruz Department","population":4180,"lat":-17.40447,"lng":-63.732},{"city":"Jorochito","state":"Santa Cruz Department","population":4013,"lat":-18.05608,"lng":-63.42788},{"city":"Campamento Colquiri","state":"La Paz Department","population":3933,"lat":-17.39169,"lng":-67.12526},{"city":"Colomi","state":"Cochabamba","population":3921,"lat":-17.35,"lng":-65.86667},{"city":"Arani","state":"Cochabamba","population":3906,"lat":-17.56854,"lng":-65.76883},{"city":"San Juan del Surutú","state":"Santa Cruz Department","population":3707,"lat":-17.48333,"lng":-63.7},{"city":"Huatajata","state":"La Paz Department","population":3700,"lat":-16.20886,"lng":-68.70041},{"city":"Limoncito","state":"Santa Cruz Department","population":3622,"lat":-18.02782,"lng":-63.40307},{"city":"Samaipata","state":"Santa Cruz Department","population":3500,"lat":-18.17754,"lng":-63.87563},{"city":"Urubichá","state":"Santa Cruz Department","population":3267,"lat":-15.39286,"lng":-62.94661},{"city":"San Pablo de Tiquina","state":"La Paz Department","population":3245,"lat":-16.21795,"lng":-68.8428},{"city":"Lahuachaca","state":"La Paz Department","population":3235,"lat":-17.37692,"lng":-67.67488},{"city":"Boyuibe","state":"Santa Cruz Department","population":3075,"lat":-20.43274,"lng":-63.2823},{"city":"Los Negros","state":"Santa Cruz Department","population":3046,"lat":-17.73333,"lng":-63.43333},{"city":"Tiahuanaco","state":"La Paz Department","population":3037,"lat":-16.55228,"lng":-68.67953},{"city":"Charagua","state":"Santa Cruz Department","population":3025,"lat":-19.79028,"lng":-63.19775},{"city":"San Pedro","state":"Santa Cruz Department","population":2990,"lat":-18.28691,"lng":-59.81742},{"city":"Irpa Irpa","state":"Cochabamba","population":2968,"lat":-17.71667,"lng":-66.26667},{"city":"Chulumani","state":"La Paz Department","population":2952,"lat":-16.40855,"lng":-67.5294},{"city":"Padilla","state":"Chuquisaca Department","population":2920,"lat":-19.30878,"lng":-64.30273},{"city":"Entre Ríos","state":"Tarija Department","population":2685,"lat":-21.52661,"lng":-64.17299},{"city":"Puerto Pailas","state":"Santa Cruz Department","population":2675,"lat":-17.66783,"lng":-62.79025},{"city":"Mapiri","state":"La Paz Department","population":2597,"lat":-15.25,"lng":-68.16667},{"city":"Batallas","state":"La Paz Department","population":2597,"lat":-16.3,"lng":-68.53333},{"city":"Yumani","state":"La Paz Department","population":2500,"lat":-16.03574,"lng":-69.14843},{"city":"Santa Rita","state":"Santa Cruz Department","population":2444,"lat":-17.97974,"lng":-63.37084},{"city":"Santa Bárbara","state":"Potosí Department","population":2434,"lat":-20.91667,"lng":-66.05},{"city":"Tarabuco","state":"Chuquisaca Department","population":2428,"lat":-19.18168,"lng":-64.91517},{"city":"Abapó Viejo","state":"Santa Cruz Department","population":2419,"lat":-18.88562,"lng":-63.3829},{"city":"Quime","state":"La Paz Department","population":2404,"lat":-16.98333,"lng":-67.21667},{"city":"Eucaliptus","state":"La Paz Department","population":2373,"lat":-17.58333,"lng":-67.51667},{"city":"Coroico","state":"La Paz Department","population":2361,"lat":-16.19386,"lng":-67.72998},{"city":"Amarete","state":"La Paz Department","population":2203,"lat":-15.23736,"lng":-68.98517},{"city":"Paurito","state":"Santa Cruz Department","population":2191,"lat":-17.88093,"lng":-62.9414},{"city":"Sorata","state":"La Paz Department","population":2190,"lat":-15.77305,"lng":-68.64973},{"city":"Coripata","state":"La Paz Department","population":2107,"lat":-16.3,"lng":-67.6},{"city":"Machacamarca","state":"Oruro","population":2044,"lat":-18.17251,"lng":-67.02099},{"city":"Viloco","state":"La Paz Department","population":1900,"lat":-16.95,"lng":-67.55},{"city":"Atocha","state":"Potosí Department","population":1833,"lat":-20.93515,"lng":-66.22139},{"city":"Puerto Villarroel","state":"Cochabamba","population":1778,"lat":-16.84286,"lng":-64.79996},{"city":"Poopó","state":"Oruro","population":1720,"lat":-18.37978,"lng":-66.96896},{"city":"Colquechaca","state":"Potosí Department","population":1706,"lat":-18.70031,"lng":-66.00397},{"city":"Totoral","state":"Oruro","population":1645,"lat":-18.4957,"lng":-66.87397},{"city":"Huarina","state":"La Paz Department","population":1616,"lat":-16.19066,"lng":-68.6009},{"city":"Curahuara de Carangas","state":"Oruro","population":1613,"lat":-17.84265,"lng":-68.40877},{"city":"Totora","state":"Cochabamba","population":1597,"lat":-17.72662,"lng":-65.1932},{"city":"Calchani","state":"Cochabamba","population":1074,"lat":-17.32276,"lng":-66.69131},{"city":"Santiváñez","state":"Cochabamba","population":1046,"lat":-17.54598,"lng":-66.2461},{"city":"Belen","state":"La Paz Department","population":620,"lat":-17.36667,"lng":-67.55},{"city":"Cañada Hornillos","state":"Cochabamba","population":518,"lat":-17.68587,"lng":-65.13912},{"city":"Morochata","state":"Cochabamba","population":504,"lat":-17.2349,"lng":-66.53185},{"city":"Nueva Manoa","state":"Pando","population":0,"lat":-9.71828,"lng":-65.39544},{"city":"Yamparáez","state":"Chuquisaca Department","population":0,"lat":-19.18929,"lng":-65.12329},{"city":"Villa Serrano","state":"Chuquisaca Department","population":0,"lat":-19.12489,"lng":-64.32343},{"city":"Yotala","state":"Chuquisaca Department","population":0,"lat":-19.15861,"lng":-65.26417},{"city":"Villa Charcas","state":"Chuquisaca Department","population":0,"lat":-20.72278,"lng":-64.88478},{"city":"Tomina","state":"Chuquisaca Department","population":0,"lat":-19.18333,"lng":-64.53333},{"city":"Sotomayor","state":"Chuquisaca Department","population":0,"lat":-19.34,"lng":-64.99917},{"city":"Sapirangui","state":"Chuquisaca Department","population":0,"lat":-19.93333,"lng":-63.78333},{"city":"Santa Elena","state":"Chuquisaca Department","population":0,"lat":-20.55,"lng":-64.78333},{"city":"San Pedro","state":"Chuquisaca Department","population":0,"lat":-19.61667,"lng":-64.5},{"city":"San Juan","state":"Chuquisaca Department","population":0,"lat":-21.26667,"lng":-65.3},{"city":"San Francisco","state":"Chuquisaca Department","population":0,"lat":-20.71667,"lng":-64.7},{"city":"Salitre","state":"Chuquisaca Department","population":0,"lat":-20.88333,"lng":-64.91667},{"city":"Rosario del Ingre","state":"Chuquisaca Department","population":0,"lat":-20.58333,"lng":-63.9},{"city":"Pulqui","state":"Chuquisaca Department","population":0,"lat":-19.23333,"lng":-65.21667},{"city":"Presto","state":"Chuquisaca Department","population":0,"lat":-18.92944,"lng":-64.93917},{"city":"Potolo","state":"Chuquisaca Department","population":0,"lat":-19.00556,"lng":-65.52861},{"city":"Pocpo","state":"Chuquisaca Department","population":0,"lat":-18.83333,"lng":-65.36667},{"city":"Piocera","state":"Chuquisaca Department","population":0,"lat":-18.75,"lng":-65.4},{"city":"Pilaya","state":"Chuquisaca Department","population":0,"lat":-20.95,"lng":-64.75},{"city":"Mojotoro","state":"Chuquisaca Department","population":0,"lat":-18.91667,"lng":-65.06667},{"city":"Mojocoya","state":"Chuquisaca Department","population":0,"lat":-18.7641,"lng":-64.61978},{"city":"Maragua","state":"Chuquisaca Department","population":0,"lat":-19.04611,"lng":-65.42861},{"city":"Lintaca","state":"Chuquisaca Department","population":0,"lat":-20.76667,"lng":-65.33333},{"city":"Las Carreras","state":"Chuquisaca Department","population":0,"lat":-21.25,"lng":-65.28333},{"city":"Las Carreras","state":"Chuquisaca Department","population":0,"lat":-21.2084,"lng":-65.20988},{"city":"La Cueva","state":"Chuquisaca Department","population":0,"lat":-20.93333,"lng":-64.9},{"city":"Independencia","state":"Cochabamba","population":0,"lat":-17.08389,"lng":-66.81804},{"city":"Huayllas","state":"Chuquisaca Department","population":0,"lat":-19.16972,"lng":-65.32611},{"city":"Huata","state":"Chuquisaca Department","population":0,"lat":-19.01667,"lng":-65.25},{"city":"Huajlaya","state":"Chuquisaca Department","population":0,"lat":-20.6,"lng":-64.55},{"city":"Huachacalla","state":"Oruro","population":0,"lat":-18.79298,"lng":-68.26157},{"city":"Guanay","state":"La Paz Department","population":0,"lat":-15.49756,"lng":-67.88332},{"city":"Culpina","state":"Chuquisaca Department","population":0,"lat":-20.82358,"lng":-64.94492},{"city":"Cotoca","state":"Santa Cruz Department","population":0,"lat":-17.74959,"lng":-62.83442},{"city":"Chuqui Chuqui","state":"Chuquisaca Department","population":0,"lat":-18.81667,"lng":-65.06667},{"city":"Chaunaca","state":"Chuquisaca Department","population":0,"lat":-19.01667,"lng":-65.46667},{"city":"Carandayti","state":"Chuquisaca Department","population":0,"lat":-20.75,"lng":-63.06667},{"city":"Camatindi","state":"Chuquisaca Department","population":0,"lat":-20.98333,"lng":-63.43333},{"city":"Azurduy","state":"Chuquisaca Department","population":0,"lat":-20.10613,"lng":-64.41398},{"city":"Andamarca","state":"Oruro","population":0,"lat":-18.77934,"lng":-67.50753},{"city":"Cruz de Machacamarca","state":"Oruro","population":0,"lat":-18.88395,"lng":-68.41989},{"city":"Santa Fe","state":"Santa Cruz Department","population":0,"lat":-17.90818,"lng":-63.03955},{"city":"San Julian","state":"Santa Cruz Department","population":0,"lat":-17.80623,"lng":-62.89536},{"city":"Puearto Pailas","state":"Santa Cruz Department","population":0,"lat":-17.663,"lng":-62.81227}]}}