{"timezone":"America/Eirunepe","countries":{"Brazil":[{"city":"Benjamin Constant","state":"Amazonas","population":40509,"lat":-4.37555,"lng":-70.03179},{"city":"Eirunepé","state":"Amazonas","population":35534,"lat":-6.66028,"lng":-69.87361},{"city":"Ipixuna","state":"Amazonas","population":25458,"lat":-7.05056,"lng":-71.69472},{"city":"Atalaia do Norte","state":"Amazonas","population":15892,"lat":-4.36652,"lng":-70.19186},{"city":"Guajará","state":"Amazonas","population":14332,"lat":-7.54583,"lng":-72.58361},{"city":"Envira","state":"Amazonas","population":9956,"lat":-7.4373,"lng":-70.02338}]}}