{"timezone":"America/Sao_Paulo","countries":{"Brazil":[{"city":"São Paulo","state":"São Paulo","population":12400232,"lat":-23.5475,"lng":-46.63611},{"city":"Rio de Janeiro","state":"Rio de Janeiro","population":6747815,"lat":-22.90642,"lng":-43.18223},{"city":"Belo Horizonte","state":"Minas Gerais","population":2721564,"lat":-19.92083,"lng":-43.93778},{"city":"Brasília","state":"Federal District","population":2207718,"lat":-15.77972,"lng":-47.92972},{"city":"Curitiba","state":"Paraná","population":1948626,"lat":-25.42778,"lng":-49.27306},{"city":"Goiânia","state":"Goiás","population":1536097,"lat":-16.67861,"lng":-49.25389},{"city":"Porto Alegre","state":"Rio Grande do Sul","population":1488252,"lat":-30.03283,"lng":-51.23019},{"city":"Guarulhos","state":"São Paulo","population":1169577,"lat":-23.46278,"lng":-46.53333},{"city":"Campinas","state":"São Paulo","population":1031554,"lat":-22.90556,"lng":-47.06083},{"city":"Nova Iguaçu","state":"Rio de Janeiro","population":823302,"lat":-22.75917,"lng":-43.45111},{"city":"Duque de Caxias","state":"Rio de Janeiro","population":818329,"lat":-22.78556,"lng":-43.31167},{"city":"São Bernardo do Campo","state":"São Paulo","population":743372,"lat":-23.69389,"lng":-46.565},{"city":"São José dos Campos","state":"São Paulo","population":729737,"lat":-23.17944,"lng":-45.88694},{"city":"Osasco","state":"São Paulo","population":728615,"lat":-23.5325,"lng":-46.79167},{"city":"Ribeirão Preto","state":"São Paulo","population":711825,"lat":-21.1775,"lng":-47.81028},{"city":"Sorocaba","state":"São Paulo","population":687357,"lat":-23.50167,"lng":-47.45806},{"city":"Santo André","state":"São Paulo","population":662373,"lat":-23.66389,"lng":-46.53833},{"city":"Contagem","state":"Minas Gerais","population":627123,"lat":-19.93167,"lng":-44.05361},{"city":"Londrina","state":"Paraná","population":588125,"lat":-23.31028,"lng":-51.16278},{"city":"Juiz de Fora","state":"Minas Gerais","population":573285,"lat":-21.76417,"lng":-43.35028},{"city":"Uberlândia","state":"Minas Gerais","population":563536,"lat":-18.91861,"lng":-48.27722},{"city":"Serra","state":"Espírito Santo","population":520653,"lat":-20.12861,"lng":-40.30778},{"city":"Campos dos Goytacazes","state":"Rio de Janeiro","population":511168,"lat":-21.75227,"lng":-41.33044},{"city":"Aparecida de Goiânia","state":"Goiás","population":510770,"lat":-16.82333,"lng":-49.24389},{"city":"Florianópolis","state":"Santa Catarina","population":508826,"lat":-27.59667,"lng":-48.54917},{"city":"São José do Rio Preto","state":"São Paulo","population":480393,"lat":-20.81972,"lng":-49.37944},{"city":"Mauá","state":"São Paulo","population":477552,"lat":-23.66778,"lng":-46.46139},{"city":"São João de Meriti","state":"Rio de Janeiro","population":466536,"lat":-22.80389,"lng":-43.37222},{"city":"Belford Roxo","state":"Rio de Janeiro","population":466096,"lat":-22.76417,"lng":-43.39944},{"city":"Joinville","state":"Santa Catarina","population":461304,"lat":-26.30444,"lng":-48.84556},{"city":"Niterói","state":"Rio de Janeiro","population":456456,"lat":-22.88333,"lng":-43.10361},{"city":"Jundiaí","state":"São Paulo","population":443221,"lat":-23.18639,"lng":-46.88417},{"city":"Santos","state":"São Paulo","population":433656,"lat":-23.96083,"lng":-46.33361},{"city":"Montes Claros","state":"Minas Gerais","population":414240,"lat":-16.735,"lng":-43.86167},{"city":"Piracicaba","state":"São Paulo","population":407252,"lat":-22.72528,"lng":-47.64917},{"city":"Vila Velha","state":"Espírito Santo","population":394930,"lat":-20.32972,"lng":-40.2925},{"city":"Diadema","state":"São Paulo","population":393237,"lat":-23.68611,"lng":-46.62278},{"city":"Carapicuíba","state":"São Paulo","population":386984,"lat":-23.52272,"lng":-46.835},{"city":"Grajaú","state":"São Paulo","population":384873,"lat":-23.76979,"lng":-46.67112},{"city":"Betim","state":"Minas Gerais","population":384000,"lat":-19.96778,"lng":-44.19833},{"city":"Caxias do Sul","state":"Rio Grande do Sul","population":381270,"lat":-29.16806,"lng":-51.17944},{"city":"Bauru","state":"São Paulo","population":379297,"lat":-22.31472,"lng":-49.06056},{"city":"Itaquaquecetuba","state":"São Paulo","population":369275,"lat":-23.48611,"lng":-46.34833},{"city":"Blumenau","state":"Santa Catarina","population":361855,"lat":-26.91944,"lng":-49.06611},{"city":"Franca","state":"São Paulo","population":358539,"lat":-20.53861,"lng":-47.40083},{"city":"Cariacica","state":"Espírito Santo","population":353491,"lat":-20.26389,"lng":-40.42},{"city":"Praia Grande","state":"São Paulo","population":349935,"lat":-24.00583,"lng":-46.40278},{"city":"Uberaba","state":"Minas Gerais","population":337836,"lat":-19.74833,"lng":-47.93194},{"city":"São Vicente","state":"São Paulo","population":329911,"lat":-23.96306,"lng":-46.39194},{"city":"Ribeirão das Neves","state":"Minas Gerais","population":329794,"lat":-19.76694,"lng":-44.08667},{"city":"São José dos Pinhais","state":"Paraná","population":329628,"lat":-25.5302,"lng":-49.20836},{"city":"Canoas","state":"Rio Grande do Sul","population":328291,"lat":-29.91778,"lng":-51.18361},{"city":"Mogi das Cruzes","state":"São Paulo","population":325746,"lat":-23.52278,"lng":-46.18833},{"city":"Guarujá","state":"São Paulo","population":322750,"lat":-23.99306,"lng":-46.25639},{"city":"Pelotas","state":"Rio Grande do Sul","population":320674,"lat":-31.76997,"lng":-52.34101},{"city":"Anápolis","state":"Goiás","population":319587,"lat":-16.32667,"lng":-48.95278},{"city":"Taubaté","state":"São Paulo","population":317915,"lat":-23.02639,"lng":-45.55528},{"city":"Barueri","state":"São Paulo","population":316473,"lat":-23.51056,"lng":-46.87611},{"city":"Vitória","state":"Espírito Santo","population":312656,"lat":-20.31944,"lng":-40.33778},{"city":"Maringá","state":"Paraná","population":311724,"lat":-23.42528,"lng":-51.93861},{"city":"Jardim Angela","state":"São Paulo","population":311432,"lat":-23.71636,"lng":-46.76872},{"city":"Suzano","state":"São Paulo","population":307429,"lat":-23.5425,"lng":-46.31083},{"city":"Ponta Grossa","state":"Paraná","population":292177,"lat":-25.095,"lng":-50.16194},{"city":"Limeira","state":"São Paulo","population":291869,"lat":-22.56472,"lng":-47.40167},{"city":"Ceilândia","state":"Federal District","population":287023,"lat":-15.8091,"lng":-48.13096},{"city":"Sumaré","state":"São Paulo","population":286211,"lat":-22.82194,"lng":-47.26694},{"city":"Viamão","state":"Rio Grande do Sul","population":285269,"lat":-30.08111,"lng":-51.02333},{"city":"Santa Maria","state":"Rio Grande do Sul","population":283677,"lat":-29.68417,"lng":-53.80694},{"city":"Volta Redonda","state":"Rio de Janeiro","population":279898,"lat":-22.52306,"lng":-44.10417},{"city":"Taboão da Serra","state":"São Paulo","population":273542,"lat":-23.62611,"lng":-46.79167},{"city":"Petrópolis","state":"Rio de Janeiro","population":272691,"lat":-22.505,"lng":-43.17861},{"city":"Capao Redondo","state":"São Paulo","population":270767,"lat":-23.66877,"lng":-46.78051},{"city":"São José","state":"Santa Catarina","population":270299,"lat":-27.61528,"lng":-48.6275},{"city":"Sapopemba","state":"São Paulo","population":266715,"lat":-23.59556,"lng":-46.52472},{"city":"Gravataí","state":"Rio Grande do Sul","population":265074,"lat":-29.94218,"lng":-50.99278},{"city":"Sacomã","state":"São Paulo","population":261436,"lat":-23.63083,"lng":-46.59817},{"city":"Jardim Sao Luis","state":"São Paulo","population":259377,"lat":-23.68073,"lng":-46.7394},{"city":"Foz do Iguaçu","state":"Paraná","population":258248,"lat":-25.54778,"lng":-54.58806},{"city":"Cascavel","state":"Paraná","population":257172,"lat":-24.95583,"lng":-53.45528},{"city":"Indaiatuba","state":"São Paulo","population":256223,"lat":-23.08842,"lng":-47.2119},{"city":"Novo Hamburgo","state":"Rio Grande do Sul","population":253841,"lat":-29.67833,"lng":-51.13056},{"city":"Cotia","state":"São Paulo","population":253608,"lat":-23.60389,"lng":-46.91917},{"city":"Governador Valadares","state":"Minas Gerais","population":250878,"lat":-18.85111,"lng":-41.94944},{"city":"Embu das Artes","state":"São Paulo","population":250691,"lat":-23.64889,"lng":-46.85222},{"city":"Cidade Ademar","state":"São Paulo","population":249218,"lat":-23.67379,"lng":-46.65681},{"city":"Americana","state":"São Paulo","population":246655,"lat":-22.73917,"lng":-47.33139},{"city":"Colombo","state":"Paraná","population":246540,"lat":-25.29167,"lng":-49.22417},{"city":"Magé","state":"Rio de Janeiro","population":244092,"lat":-22.65278,"lng":-43.04056},{"city":"Brasilandia","state":"São Paulo","population":243273,"lat":-23.44859,"lng":-46.68839},{"city":"Itapevi","state":"São Paulo","population":240961,"lat":-23.54889,"lng":-46.93417},{"city":"Marília","state":"São Paulo","population":240590,"lat":-22.21389,"lng":-49.94583},{"city":"Itaboraí","state":"Rio de Janeiro","population":240040,"lat":-22.74444,"lng":-42.85944},{"city":"Cabo Frio","state":"Rio de Janeiro","population":238166,"lat":-22.88717,"lng":-42.02622},{"city":"Campo Limpo","state":"São Paulo","population":236162,"lat":-23.63634,"lng":-46.76565},{"city":"Hortolândia","state":"São Paulo","population":234259,"lat":-22.85833,"lng":-47.22},{"city":"Divinópolis","state":"Minas Gerais","population":231091,"lat":-20.14355,"lng":-44.89065},{"city":"Ipatinga","state":"Minas Gerais","population":228746,"lat":-19.46833,"lng":-42.53667},{"city":"Sete Lagoas","state":"Minas Gerais","population":227397,"lat":-19.46583,"lng":-44.24667},{"city":"Rio Verde","state":"Goiás","population":225696,"lat":-17.79806,"lng":-50.92806},{"city":"Águas Lindas de Goiás","state":"Goiás","population":225693,"lat":-15.76194,"lng":-48.28167},{"city":"Presidente Prudente","state":"São Paulo","population":225668,"lat":-22.12556,"lng":-51.38889},{"city":"Santa Luzia","state":"Minas Gerais","population":219132,"lat":-19.76972,"lng":-43.85139},{"city":"Samambaia","state":"Federal District","population":218840,"lat":-15.88231,"lng":-48.10428},{"city":"Jabaquara","state":"São Paulo","population":214958,"lat":-23.65055,"lng":-46.64591},{"city":"Jacareí","state":"São Paulo","population":213110,"lat":-23.30528,"lng":-45.96583},{"city":"Maricá","state":"Rio de Janeiro","population":211986,"lat":-22.91944,"lng":-42.81861},{"city":"Jaraguá","state":"São Paulo","population":211610,"lat":-23.44077,"lng":-46.73774},{"city":"Itaquera","state":"São Paulo","population":210960,"lat":-23.53194,"lng":-46.44417},{"city":"São Leopoldo","state":"Rio Grande do Sul","population":209229,"lat":-29.76028,"lng":-51.14722},{"city":"Luziânia","state":"Goiás","population":209129,"lat":-16.2525,"lng":-47.95028},{"city":"Itaim Paulista","state":"São Paulo","population":205295,"lat":-23.50308,"lng":-46.38566},{"city":"São Carlos","state":"São Paulo","population":205035,"lat":-22.0175,"lng":-47.89083},{"city":"Rio Claro","state":"São Paulo","population":201418,"lat":-22.41139,"lng":-47.56139},{"city":"São José","state":"Santa Catarina","population":200000,"lat":-28.21344,"lng":-49.16383},{"city":"Valparaíso de Goiás","state":"Goiás","population":198861,"lat":-16.06583,"lng":-47.97861},{"city":"Plano Piloto","state":"Federal District","population":198697,"lat":-15.79411,"lng":-47.8825},{"city":"Taguatinga","state":"Federal District","population":193367,"lat":-15.83326,"lng":-48.05506},{"city":"Cidade Tiradentes","state":"São Paulo","population":192177,"lat":-23.58481,"lng":-46.40084},{"city":"Nova Friburgo","state":"Rio de Janeiro","population":191158,"lat":-22.28194,"lng":-42.53111},{"city":"Planaltina","state":"Federal District","population":189412,"lat":-15.61791,"lng":-47.64874},{"city":"Santa Bárbara d'Oeste","state":"São Paulo","population":188000,"lat":-22.75361,"lng":-47.41361},{"city":"Rio Grande","state":"Rio Grande do Sul","population":187838,"lat":-32.035,"lng":-52.09861},{"city":"Alvorada","state":"Rio Grande do Sul","population":187315,"lat":-30.00018,"lng":-51.07632},{"city":"Cachoeiro de Itapemirim","state":"Espírito Santo","population":187019,"lat":-20.84889,"lng":-41.11278},{"city":"Jaraguá do Sul","state":"Santa Catarina","population":182660,"lat":-26.48611,"lng":-49.06667},{"city":"Cidade Dutra","state":"São Paulo","population":182459,"lat":-23.72576,"lng":-46.7024},{"city":"Guarapuava","state":"Paraná","population":182093,"lat":-25.39048,"lng":-51.46541},{"city":"Pirituba","state":"São Paulo","population":179724,"lat":-23.48982,"lng":-46.7322},{"city":"Passo Fundo","state":"Rio Grande do Sul","population":179529,"lat":-28.26278,"lng":-52.40667},{"city":"Ferraz de Vasconcelos","state":"São Paulo","population":179198,"lat":-23.54083,"lng":-46.36861},{"city":"Angra dos Reis","state":"Rio de Janeiro","population":179120,"lat":-23.00667,"lng":-44.31806},{"city":"Bragança Paulista","state":"São Paulo","population":176811,"lat":-22.9527,"lng":-46.54418},{"city":"Teresópolis","state":"Rio de Janeiro","population":176692,"lat":-22.4167,"lng":-42.97822},{"city":"Palhoça","state":"Santa Catarina","population":175272,"lat":-27.64528,"lng":-48.66778},{"city":"Ibirité","state":"Minas Gerais","population":170537,"lat":-20.02194,"lng":-44.05889},{"city":"Araçatuba","state":"São Paulo","population":170024,"lat":-21.20889,"lng":-50.43278},{"city":"Vila Andrade","state":"São Paulo","population":168669,"lat":-23.62623,"lng":-46.72828},{"city":"Poços de Caldas","state":"Minas Gerais","population":168641,"lat":-21.78778,"lng":-46.56139},{"city":"Araraquara","state":"São Paulo","population":168468,"lat":-21.79444,"lng":-48.17556},{"city":"Rio das Ostras","state":"Rio de Janeiro","population":168099,"lat":-22.52694,"lng":-41.945},{"city":"Linhares","state":"Espírito Santo","population":166786,"lat":-19.39111,"lng":-40.07222},{"city":"São Caetano do Sul","state":"São Paulo","population":165655,"lat":-23.62306,"lng":-46.55111},{"city":"Pindamonhangaba","state":"São Paulo","population":165428,"lat":-22.92389,"lng":-45.46167},{"city":"Francisco Morato","state":"São Paulo","population":165139,"lat":-23.28167,"lng":-46.74528},{"city":"Lages","state":"Santa Catarina","population":164676,"lat":-27.81611,"lng":-50.32611},{"city":"Lajeado","state":"São Paulo","population":164391,"lat":-23.53361,"lng":-46.40866},{"city":"Barra Mansa","state":"Rio de Janeiro","population":164052,"lat":-22.54417,"lng":-44.17139},{"city":"Pedreira","state":"São Paulo","population":163586,"lat":-23.70675,"lng":-46.64982},{"city":"Criciúma","state":"Santa Catarina","population":161954,"lat":-28.6775,"lng":-49.36972},{"city":"Chapecó","state":"Santa Catarina","population":160157,"lat":-27.09639,"lng":-52.61833},{"city":"Patos de Minas","state":"Minas Gerais","population":159235,"lat":-18.57889,"lng":-46.51806},{"city":"Itapecerica da Serra","state":"São Paulo","population":158522,"lat":-23.71694,"lng":-46.84917},{"city":"Itapetininga","state":"São Paulo","population":157790,"lat":-23.59167,"lng":-48.05306},{"city":"Itajaí","state":"Santa Catarina","population":155716,"lat":-26.90778,"lng":-48.66194},{"city":"São Mateus","state":"São Paulo","population":155682,"lat":-23.60583,"lng":-46.47889},{"city":"Santana de Parnaíba","state":"São Paulo","population":154105,"lat":-23.44417,"lng":-46.91778},{"city":"Parelheiros","state":"São Paulo","population":153695,"lat":-23.8275,"lng":-46.72694},{"city":"Mogi Guaçu","state":"São Paulo","population":153658,"lat":-22.3677,"lng":-46.94552},{"city":"Pouso Alegre","state":"Minas Gerais","population":152217,"lat":-22.23,"lng":-45.93639},{"city":"Araucária","state":"Paraná","population":151666,"lat":-25.59306,"lng":-49.41028},{"city":"Iguatemi","state":"São Paulo","population":149700,"lat":-23.61277,"lng":-46.42667},{"city":"Queimados","state":"Rio de Janeiro","population":149093,"lat":-22.71611,"lng":-43.55528},{"city":"Fazenda Rio Grande","state":"Paraná","population":148873,"lat":-25.6575,"lng":-49.30806},{"city":"Sao Rafael","state":"São Paulo","population":148145,"lat":-23.62821,"lng":-46.45395},{"city":"Botucatu","state":"São Paulo","population":148130,"lat":-22.88583,"lng":-48.445},{"city":"Nilópolis","state":"Rio de Janeiro","population":147281,"lat":-22.8075,"lng":-43.41389},{"city":"Franco da Rocha","state":"São Paulo","population":144849,"lat":-23.32167,"lng":-46.72694},{"city":"Atibaia","state":"São Paulo","population":144088,"lat":-23.11694,"lng":-46.55028},{"city":"Cachoeirinha","state":"São Paulo","population":143366,"lat":-23.45442,"lng":-46.66209},{"city":"Macaé","state":"Rio de Janeiro","population":143029,"lat":-22.38484,"lng":-41.78324},{"city":"Trindade","state":"Goiás","population":142431,"lat":-16.64944,"lng":-49.48889},{"city":"Brusque","state":"Santa Catarina","population":141385,"lat":-27.09795,"lng":-48.91281},{"city":"Cangaiba","state":"São Paulo","population":141172,"lat":-23.49696,"lng":-46.52045},{"city":"Paranaguá","state":"Paraná","population":141013,"lat":-25.51626,"lng":-48.52537},{"city":"Vila Curuca","state":"São Paulo","population":140673,"lat":-23.51,"lng":-46.41566},{"city":"Gama","state":"Federal District","population":139467,"lat":-16.02511,"lng":-48.07121},{"city":"Balneário Camboriú","state":"Santa Catarina","population":139155,"lat":-26.99056,"lng":-48.63472},{"city":"Sao Lucas","state":"São Paulo","population":138038,"lat":-23.59468,"lng":-46.54359},{"city":"Araruama","state":"Rio de Janeiro","population":137773,"lat":-22.87278,"lng":-42.34306},{"city":"Itu","state":"São Paulo","population":137586,"lat":-23.26417,"lng":-47.29917},{"city":"Freguesia do Ó","state":"São Paulo","population":137240,"lat":-23.49877,"lng":-46.69983},{"city":"Cidade Lider","state":"São Paulo","population":136660,"lat":-23.56202,"lng":-46.4913},{"city":"Varginha","state":"Minas Gerais","population":136467,"lat":-21.55139,"lng":-45.43028},{"city":"Campo Largo","state":"Paraná","population":136327,"lat":-25.45955,"lng":-49.53014},{"city":"Cachoeirinha","state":"Rio Grande do Sul","population":136258,"lat":-29.95111,"lng":-51.09389},{"city":"Araras","state":"São Paulo","population":135331,"lat":-22.35694,"lng":-47.38417},{"city":"Vila Jacui","state":"São Paulo","population":134189,"lat":-23.50262,"lng":-46.46156},{"city":"Jaú","state":"São Paulo","population":133497,"lat":-22.29639,"lng":-48.55778},{"city":"Santa Cruz do Sul","state":"Rio Grande do Sul","population":133230,"lat":-29.7175,"lng":-52.42583},{"city":"Sapucaia do Sul","state":"Rio Grande do Sul","population":132107,"lat":-29.81782,"lng":-51.14551},{"city":"Rio Pequeno","state":"São Paulo","population":131631,"lat":-23.57139,"lng":-46.75887},{"city":"Apucarana","state":"Paraná","population":130134,"lat":-23.55083,"lng":-51.46083},{"city":"Jardim Helena","state":"São Paulo","population":129409,"lat":-23.4837,"lng":-46.41309},{"city":"Sabará","state":"Minas Gerais","population":129380,"lat":-19.88639,"lng":-43.80667},{"city":"Vespasiano","state":"Minas Gerais","population":129246,"lat":-19.69194,"lng":-43.92333},{"city":"Águas Claras","state":"Federal District","population":128486,"lat":-15.83969,"lng":-48.02675},{"city":"Bosque Saúde","state":"São Paulo","population":128469,"lat":-23.60926,"lng":-46.62304},{"city":"Jose Bonifacio","state":"São Paulo","population":128243,"lat":-23.56742,"lng":-46.43264},{"city":"Votorantim","state":"São Paulo","population":127923,"lat":-23.54667,"lng":-47.43778},{"city":"Vila Mariana","state":"São Paulo","population":127286,"lat":-23.58833,"lng":-46.63464},{"city":"Sertãozinho","state":"São Paulo","population":126887,"lat":-21.13778,"lng":-47.99028},{"city":"Valinhos","state":"São Paulo","population":126373,"lat":-22.97056,"lng":-46.99583},{"city":"Barbacena","state":"Minas Gerais","population":125317,"lat":-21.22583,"lng":-43.77361},{"city":"Guarapari","state":"Espírito Santo","population":124656,"lat":-20.67182,"lng":-40.50196},{"city":"Itaguaí","state":"Rio de Janeiro","population":123980,"lat":-22.85222,"lng":-43.77528},{"city":"São Mateus","state":"Espírito Santo","population":123752,"lat":-18.72011,"lng":-39.85891},{"city":"Butanta","state":"São Paulo","population":123748,"lat":-23.5702,"lng":-46.72628},{"city":"Uruguaiana","state":"Rio Grande do Sul","population":123480,"lat":-29.75472,"lng":-57.08833},{"city":"Caraguatatuba","state":"São Paulo","population":123389,"lat":-23.62028,"lng":-45.41306},{"city":"Bento Gonçalves","state":"Rio Grande do Sul","population":123151,"lat":-29.17139,"lng":-51.51917},{"city":"Tatuí","state":"São Paulo","population":122967,"lat":-23.35556,"lng":-47.85694},{"city":"Itatiba","state":"São Paulo","population":122581,"lat":-23.00583,"lng":-46.83889},{"city":"Barretos","state":"São Paulo","population":122485,"lat":-20.55722,"lng":-48.56778},{"city":"Guará","state":"Federal District","population":120641,"lat":-15.80976,"lng":-47.97202},{"city":"Almirante Tamandaré","state":"Paraná","population":119825,"lat":-25.32472,"lng":-49.31},{"city":"Salto","state":"São Paulo","population":119736,"lat":-23.20083,"lng":-47.28694},{"city":"Toledo","state":"Paraná","population":119313,"lat":-24.71361,"lng":-53.74306},{"city":"Arapongas","state":"Paraná","population":119138,"lat":-23.41944,"lng":-51.42444},{"city":"Piraquara","state":"Paraná","population":118730,"lat":-25.44227,"lng":-49.06795},{"city":"Sarandi","state":"Paraná","population":118455,"lat":-23.44361,"lng":-51.87389},{"city":"Senador Canedo","state":"Goiás","population":118451,"lat":-16.70806,"lng":-49.09306},{"city":"Jandira","state":"São Paulo","population":118045,"lat":-23.5275,"lng":-46.9025},{"city":"Guaratinguetá","state":"São Paulo","population":118044,"lat":-22.81639,"lng":-45.1925},{"city":"Araguari","state":"Minas Gerais","population":117808,"lat":-18.64722,"lng":-48.18722},{"city":"Raposo Tavares","state":"São Paulo","population":117738,"lat":-23.59245,"lng":-46.78561},{"city":"Bairro da Penha","state":"São Paulo","population":117691,"lat":-23.3684,"lng":-46.31102},{"city":"Umuarama","state":"Paraná","population":117095,"lat":-23.76639,"lng":-53.325},{"city":"Pinhais","state":"Paraná","population":117000,"lat":-25.44472,"lng":-49.1925},{"city":"Santa Maria","state":"Federal District","population":116622,"lat":-16.03095,"lng":-48.02929},{"city":"Ipiranga","state":"São Paulo","population":116271,"lat":-23.59957,"lng":-46.61599},{"city":"Campo Grande","state":"São Paulo","population":115925,"lat":-23.67463,"lng":-46.68751},{"city":"Formosa","state":"Goiás","population":115901,"lat":-15.53722,"lng":-47.33444},{"city":"Catanduva","state":"São Paulo","population":115791,"lat":-21.13778,"lng":-48.97278},{"city":"Várzea Paulista","state":"São Paulo","population":115771,"lat":-23.21139,"lng":-46.82833},{"city":"Santana","state":"São Paulo","population":115689,"lat":-23.49032,"lng":-46.6387},{"city":"Ribeirão Pires","state":"São Paulo","population":115559,"lat":-23.71056,"lng":-46.41333},{"city":"Recanto das Emas","state":"Federal District","population":115550,"lat":-15.90864,"lng":-48.06447},{"city":"Vila Medeiros","state":"São Paulo","population":114839,"lat":-23.48874,"lng":-46.57762},{"city":"Catalão","state":"Goiás","population":114427,"lat":-18.16583,"lng":-47.94639},{"city":"Itabira","state":"Minas Gerais","population":113343,"lat":-19.61917,"lng":-43.22694},{"city":"Cubatão","state":"São Paulo","population":112476,"lat":-23.895,"lng":-46.42528},{"city":"Ermelino Matarazzo","state":"São Paulo","population":112333,"lat":-23.49472,"lng":-46.47389},{"city":"Paulínia","state":"São Paulo","population":112003,"lat":-22.76111,"lng":-47.15417},{"city":"Passos","state":"Minas Gerais","population":111939,"lat":-20.71889,"lng":-46.60972},{"city":"Nova Lima","state":"Minas Gerais","population":111697,"lat":-19.98556,"lng":-43.84667},{"city":"Araxá","state":"Minas Gerais","population":111691,"lat":-19.59333,"lng":-46.94056},{"city":"Conselheiro Lafaiete","state":"Minas Gerais","population":111596,"lat":-20.66028,"lng":-43.78611},{"city":"Resende","state":"Rio de Janeiro","population":111514,"lat":-22.46889,"lng":-44.44667},{"city":"São Pedro da Aldeia","state":"Rio de Janeiro","population":110556,"lat":-22.83917,"lng":-42.10278},{"city":"Tubarão","state":"Santa Catarina","population":110088,"lat":-28.46667,"lng":-49.00694},{"city":"Guaianases","state":"São Paulo","population":109316,"lat":-23.54333,"lng":-46.41083},{"city":"Vila Maria","state":"São Paulo","population":108543,"lat":-23.51408,"lng":-46.58625},{"city":"Itaperuna","state":"Rio de Janeiro","population":107246,"lat":-21.205,"lng":-41.88778},{"city":"Cambé","state":"Paraná","population":107208,"lat":-23.27583,"lng":-51.27833},{"city":"Jataí","state":"Goiás","population":105729,"lat":-17.87939,"lng":-51.72166},{"city":"Vila Prudente","state":"São Paulo","population":105590,"lat":-23.59255,"lng":-46.57278},{"city":"Nova Serrana","state":"Minas Gerais","population":105552,"lat":-19.87611,"lng":-44.98361},{"city":"Riacho Fundo II","state":"Federal District","population":105210,"lat":-15.8981,"lng":-48.04671},{"city":"Assis","state":"São Paulo","population":105087,"lat":-22.66167,"lng":-50.41222},{"city":"Planaltina","state":"Goiás","population":105031,"lat":-15.45278,"lng":-47.61417},{"city":"Artur Alvim","state":"São Paulo","population":104864,"lat":-23.54015,"lng":-46.48581},{"city":"Lavras","state":"Minas Gerais","population":104761,"lat":-21.24528,"lng":-44.99972},{"city":"Coronel Fabriciano","state":"Minas Gerais","population":104736,"lat":-19.51861,"lng":-42.62889},{"city":"Muriaé","state":"Minas Gerais","population":104108,"lat":-21.13056,"lng":-42.36639},{"city":"Ourinhos","state":"São Paulo","population":103970,"lat":-22.97889,"lng":-49.87056},{"city":"Novo Gama","state":"Goiás","population":103804,"lat":-16.05917,"lng":-48.03944},{"city":"Poá","state":"São Paulo","population":103765,"lat":-23.52806,"lng":-46.34472},{"city":"Mandaqui","state":"São Paulo","population":103665,"lat":-23.45947,"lng":-46.64086},{"city":"Vila Matilde","state":"São Paulo","population":103558,"lat":-23.53936,"lng":-46.51788},{"city":"Ubá","state":"Minas Gerais","population":103365,"lat":-21.12,"lng":-42.94278},{"city":"Cursino","state":"São Paulo","population":103171,"lat":-23.63143,"lng":-46.62072},{"city":"Itanhaém","state":"São Paulo","population":103102,"lat":-24.18306,"lng":-46.78889},{"city":"Caieiras","state":"São Paulo","population":102775,"lat":-23.36417,"lng":-46.74056},{"city":"Perdizes","state":"São Paulo","population":102391,"lat":-23.53872,"lng":-46.68093},{"city":"Birigui","state":"São Paulo","population":102277,"lat":-21.28861,"lng":-50.34},{"city":"Ituiutaba","state":"Minas Gerais","population":102217,"lat":-18.97428,"lng":-49.46212},{"city":"Japeri","state":"Rio de Janeiro","population":102149,"lat":-22.64306,"lng":-43.65333},{"city":"Mairiporã","state":"São Paulo","population":101937,"lat":-23.31861,"lng":-46.58667},{"city":"Pôr do Sol","state":"Federal District","population":101866,"lat":-15.85502,"lng":-48.12433},{"city":"Itaim Bibi","state":"São Paulo","population":101452,"lat":-23.58581,"lng":-46.68241},{"city":"Colatina","state":"Espírito Santo","population":101190,"lat":-19.53944,"lng":-40.63056},{"city":"Teófilo Otoni","state":"Minas Gerais","population":101170,"lat":-17.8575,"lng":-41.50528},{"city":"Tucuruvi","state":"São Paulo","population":99559,"lat":-23.47544,"lng":-46.60609},{"city":"Campo Mourão","state":"Paraná","population":99432,"lat":-24.04309,"lng":-52.37929},{"city":"Bagé","state":"Rio Grande do Sul","population":98940,"lat":-31.33139,"lng":-54.10694},{"city":"Caldas Novas","state":"Goiás","population":98622,"lat":-17.74431,"lng":-48.62789},{"city":"São Sebastião","state":"Federal District","population":98612,"lat":-15.90287,"lng":-47.77613},{"city":"Tatuapé","state":"São Paulo","population":98601,"lat":-23.53729,"lng":-46.5666},{"city":"Barra do Piraí","state":"Rio de Janeiro","population":98501,"lat":-22.47,"lng":-43.82556},{"city":"Leme","state":"São Paulo","population":98161,"lat":-22.18556,"lng":-47.39028},{"city":"Itaúna","state":"Minas Gerais","population":97669,"lat":-20.07528,"lng":-44.57639},{"city":"Pará de Minas","state":"Minas Gerais","population":97139,"lat":-19.86028,"lng":-44.60833},{"city":"Vicente Pires","state":"Federal District","population":96871,"lat":-15.81009,"lng":-48.03077},{"city":"Francisco Beltrão","state":"Paraná","population":96666,"lat":-26.08111,"lng":-53.055},{"city":"Caçapava","state":"São Paulo","population":96202,"lat":-23.10083,"lng":-45.70694},{"city":"Avaré","state":"São Paulo","population":96098,"lat":-23.09861,"lng":-48.92583},{"city":"Erechim","state":"Rio Grande do Sul","population":96087,"lat":-27.63461,"lng":-52.2754},{"city":"Saquarema","state":"Rio de Janeiro","population":95201,"lat":-22.89889,"lng":-42.46985},{"city":"Aracruz","state":"Espírito Santo","population":94765,"lat":-19.82028,"lng":-40.27333},{"city":"Jaçanã","state":"São Paulo","population":94609,"lat":-23.46013,"lng":-46.5749},{"city":"Paracatu","state":"Minas Gerais","population":94023,"lat":-17.22222,"lng":-46.87472},{"city":"Lajeado","state":"Rio Grande do Sul","population":93646,"lat":-29.46694,"lng":-51.96139},{"city":"Itajubá","state":"Minas Gerais","population":93073,"lat":-22.42556,"lng":-45.45278},{"city":"Guaíba","state":"Rio Grande do Sul","population":92924,"lat":-30.11389,"lng":-51.325},{"city":"Cajamar","state":"São Paulo","population":92689,"lat":-23.35611,"lng":-46.87694},{"city":"São João da Boa Vista","state":"São Paulo","population":92547,"lat":-21.96917,"lng":-46.79806},{"city":"Vila Formosa","state":"São Paulo","population":92186,"lat":-23.56786,"lng":-46.54599},{"city":"Paranavaí","state":"Paraná","population":92001,"lat":-23.07306,"lng":-52.46528},{"city":"Manhuaçu","state":"Minas Gerais","population":91886,"lat":-20.25806,"lng":-42.03361},{"city":"Pato Branco","state":"Paraná","population":91836,"lat":-26.22861,"lng":-52.67056},{"city":"Ubatuba","state":"São Paulo","population":91824,"lat":-23.43389,"lng":-45.07111},{"city":"Cidade Ocidental","state":"Goiás","population":91767,"lat":-16.10971,"lng":-47.93261},{"city":"Arujá","state":"São Paulo","population":91157,"lat":-23.39611,"lng":-46.32083},{"city":"Ponte Rasa","state":"São Paulo","population":89881,"lat":-23.51567,"lng":-46.49373},{"city":"Patrocínio","state":"Minas Gerais","population":89826,"lat":-18.94389,"lng":-46.9925},{"city":"Itapeva","state":"São Paulo","population":89728,"lat":-23.98222,"lng":-48.87556},{"city":"Aricanduva","state":"São Paulo","population":89574,"lat":-23.57381,"lng":-46.51561},{"city":"Sao Domingos","state":"São Paulo","population":88884,"lat":-23.49337,"lng":-46.74761},{"city":"Perus","state":"São Paulo","population":87823,"lat":-23.40472,"lng":-46.75472},{"city":"Caratinga","state":"Minas Gerais","population":87360,"lat":-19.78972,"lng":-42.13917},{"city":"Unaí","state":"Minas Gerais","population":86619,"lat":-16.3575,"lng":-46.90611},{"city":"Navegantes","state":"Santa Catarina","population":86401,"lat":-26.89889,"lng":-48.65417},{"city":"Agua Rasa","state":"São Paulo","population":85788,"lat":-23.56684,"lng":-46.57188},{"city":"Esmeraldas","state":"Minas Gerais","population":85598,"lat":-19.7625,"lng":-44.31389},{"city":"Santo Amaro","state":"São Paulo","population":85349,"lat":-23.64542,"lng":-46.70394},{"city":"Camboriú","state":"Santa Catarina","population":85105,"lat":-27.02528,"lng":-48.65444},{"city":"Lorena","state":"São Paulo","population":84855,"lat":-22.73083,"lng":-45.12472},{"city":"Ijuí","state":"Rio Grande do Sul","population":84780,"lat":-28.38778,"lng":-53.91472},{"city":"Seropédica","state":"Rio de Janeiro","population":84737,"lat":-22.74389,"lng":-43.7075},{"city":"Sant'Ana do Livramento","state":"Rio Grande do Sul","population":84421,"lat":-30.89083,"lng":-55.53278},{"city":"Carrao","state":"São Paulo","population":84397,"lat":-23.55108,"lng":-46.53829},{"city":"Cianorte","state":"Paraná","population":83816,"lat":-23.66333,"lng":-52.605},{"city":"Jardim Paulista","state":"São Paulo","population":83667,"lat":-23.56675,"lng":-46.66439},{"city":"São Bento do Sul","state":"Santa Catarina","population":83277,"lat":-26.25028,"lng":-49.37861},{"city":"Sobradinho II","state":"Federal District","population":82785,"lat":-15.63361,"lng":-47.83478},{"city":"Limão","state":"São Paulo","population":82373,"lat":-23.49283,"lng":-46.66916},{"city":"Três Rios","state":"Rio de Janeiro","population":82300,"lat":-22.11667,"lng":-43.20917},{"city":"Moema","state":"São Paulo","population":81899,"lat":-23.59521,"lng":-46.66449},{"city":"Concórdia","state":"Santa Catarina","population":81646,"lat":-27.23417,"lng":-52.02778},{"city":"São Sebastião","state":"São Paulo","population":81595,"lat":-23.76,"lng":-45.40972},{"city":"Timóteo","state":"Minas Gerais","population":81579,"lat":-19.58106,"lng":-42.64953},{"city":"São Miguel","state":"São Paulo","population":81011,"lat":-23.49417,"lng":-46.43222},{"city":"Santa Cecilia","state":"São Paulo","population":80972,"lat":-23.5318,"lng":-46.65288},{"city":"Mooca","state":"São Paulo","population":80880,"lat":-23.56135,"lng":-46.59641},{"city":"Curvelo","state":"Minas Gerais","population":80665,"lat":-18.75639,"lng":-44.43083},{"city":"Casa Verde","state":"São Paulo","population":80536,"lat":-23.50099,"lng":-46.65744},{"city":"Água Rasa","state":"Minas Gerais","population":80484,"lat":-20.43333,"lng":-45.16667},{"city":"João Monlevade","state":"Minas Gerais","population":80187,"lat":-19.81,"lng":-43.17361},{"city":"Vinhedo","state":"São Paulo","population":80111,"lat":-23.02972,"lng":-46.97528},{"city":"Cachoeira do Sul","state":"Rio Grande do Sul","population":80070,"lat":-30.03917,"lng":-52.89389},{"city":"Itumbiara","state":"Goiás","population":79582,"lat":-18.41917,"lng":-49.21528},{"city":"São Roque","state":"São Paulo","population":79484,"lat":-23.52917,"lng":-47.13528},{"city":"Matão","state":"São Paulo","population":79033,"lat":-21.60333,"lng":-48.36583},{"city":"Alfenas","state":"Minas Gerais","population":78970,"lat":-21.42917,"lng":-45.94722},{"city":"São João del Rei","state":"Minas Gerais","population":78592,"lat":-21.13556,"lng":-44.26167},{"city":"Lins","state":"São Paulo","population":78503,"lat":-21.67861,"lng":-49.7425},{"city":"Mogi Mirim","state":"São Paulo","population":78244,"lat":-22.43194,"lng":-46.95778},{"city":"Jardim Botânico","state":"Federal District","population":77767,"lat":-15.86527,"lng":-47.81477},{"city":"Campo Limpo Paulista","state":"São Paulo","population":77632,"lat":-23.20554,"lng":-46.7838},{"city":"Santa Rosa","state":"Rio Grande do Sul","population":76963,"lat":-27.87083,"lng":-54.48139},{"city":"Santo Ângelo","state":"Rio Grande do Sul","population":76917,"lat":-28.29917,"lng":-54.26306},{"city":"Biguaçu","state":"Santa Catarina","population":76773,"lat":-27.49417,"lng":-48.65556},{"city":"Viçosa","state":"Minas Gerais","population":76430,"lat":-20.75389,"lng":-42.88194},{"city":"Bebedouro","state":"São Paulo","population":76373,"lat":-20.94944,"lng":-48.47917},{"city":"Esteio","state":"Rio Grande do Sul","population":76137,"lat":-29.86139,"lng":-51.17917},{"city":"Itapema","state":"Santa Catarina","population":75940,"lat":-27.09028,"lng":-48.61139},{"city":"Sapiranga","state":"Rio Grande do Sul","population":75648,"lat":-29.63806,"lng":-51.00694},{"city":"Ibiúna","state":"São Paulo","population":75605,"lat":-23.65639,"lng":-47.2225},{"city":"Lapa","state":"São Paulo","population":75533,"lat":-23.52355,"lng":-46.70726},{"city":"Três Corações","state":"Minas Gerais","population":75485,"lat":-21.69694,"lng":-45.25333},{"city":"Anhanguera","state":"São Paulo","population":75360,"lat":-23.43088,"lng":-46.79295},{"city":"Lagoa Santa","state":"Minas Gerais","population":75145,"lat":-19.63006,"lng":-43.9009},{"city":"Telêmaco Borba","state":"Paraná","population":75042,"lat":-24.32389,"lng":-50.61556},{"city":"Cruzeiro","state":"São Paulo","population":74961,"lat":-22.57316,"lng":-44.97108},{"city":"Ouro Preto","state":"Minas Gerais","population":74821,"lat":-20.39484,"lng":-43.50517},{"city":"Parque Do Carmo","state":"São Paulo","population":74677,"lat":-23.57595,"lng":-46.46298},{"city":"Caçador","state":"Santa Catarina","population":73720,"lat":-26.77528,"lng":-51.015},{"city":"Goianésia","state":"Goiás","population":73707,"lat":-15.3175,"lng":-49.1175},{"city":"Pirassununga","state":"São Paulo","population":73545,"lat":-21.99611,"lng":-47.42583},{"city":"Viana","state":"Espírito Santo","population":73423,"lat":-20.39028,"lng":-40.49611},{"city":"Castro","state":"Paraná","population":73075,"lat":-24.78927,"lng":-50.01225},{"city":"Amparo","state":"São Paulo","population":72677,"lat":-22.70111,"lng":-46.76444},{"city":"Rio do Sul","state":"Santa Catarina","population":72587,"lat":-27.21417,"lng":-49.64306},{"city":"Gaspar","state":"Santa Catarina","population":72570,"lat":-26.93139,"lng":-48.95889},{"city":"Alegrete","state":"Rio Grande do Sul","population":72409,"lat":-29.78306,"lng":-55.79194},{"city":"Sobradinho","state":"Federal District","population":72273,"lat":-15.64713,"lng":-47.79315},{"city":"Santo Antônio do Descoberto","state":"Goiás","population":72127,"lat":-15.93972,"lng":-48.255},{"city":"Itapira","state":"São Paulo","population":72022,"lat":-22.43611,"lng":-46.82167},{"city":"Araranguá","state":"Santa Catarina","population":71922,"lat":-28.93575,"lng":-49.49538},{"city":"Goianira","state":"Goiás","population":71916,"lat":-16.49611,"lng":-49.42639},{"city":"Jaboticabal","state":"São Paulo","population":71821,"lat":-21.25472,"lng":-48.32222},{"city":"São Sebastião do Paraíso","state":"Minas Gerais","population":71796,"lat":-20.91694,"lng":-46.99139},{"city":"Rolândia","state":"Paraná","population":71670,"lat":-23.30972,"lng":-51.36917},{"city":"Indaial","state":"Santa Catarina","population":71549,"lat":-26.89778,"lng":-49.23167},{"city":"Valença","state":"Rio de Janeiro","population":71462,"lat":-22.24556,"lng":-43.70028},{"city":"Fernandópolis","state":"São Paulo","population":71186,"lat":-20.28389,"lng":-50.24639},{"city":"Campo Belo","state":"São Paulo","population":71058,"lat":-23.62808,"lng":-46.66791},{"city":"Janaúba","state":"Minas Gerais","population":70699,"lat":-15.8025,"lng":-43.30889},{"city":"Farroupilha","state":"Rio Grande do Sul","population":70286,"lat":-29.225,"lng":-51.34778},{"city":"Mineiros","state":"Goiás","population":70081,"lat":-17.56944,"lng":-52.55111},{"city":"Votuporanga","state":"São Paulo","population":69863,"lat":-20.42278,"lng":-49.97278},{"city":"Bairro Parque Nossa Senhora do Carmo","state":"São Paulo","population":69630,"lat":-23.40598,"lng":-46.31611},{"city":"Venâncio Aires","state":"Rio Grande do Sul","population":68763,"lat":-29.60639,"lng":-52.19194},{"city":"Peruíbe","state":"São Paulo","population":68352,"lat":-24.32,"lng":-46.99833},{"city":"Formiga","state":"Minas Gerais","population":68248,"lat":-20.46444,"lng":-45.42639},{"city":"Mococa","state":"São Paulo","population":67681,"lat":-21.46778,"lng":-47.00472},{"city":"Embu-Guaçu","state":"São Paulo","population":66970,"lat":-23.83222,"lng":-46.81139},{"city":"Lençóis Paulista","state":"São Paulo","population":66505,"lat":-22.59861,"lng":-48.80028},{"city":"Cataguases","state":"Minas Gerais","population":66261,"lat":-21.38917,"lng":-42.69667},{"city":"Liberdade","state":"São Paulo","population":66056,"lat":-23.56338,"lng":-46.63228},{"city":"Montenegro","state":"Rio Grande do Sul","population":65721,"lat":-29.68861,"lng":-51.46111},{"city":"Itapoã","state":"Federal District","population":65408,"lat":-15.74937,"lng":-47.7686},{"city":"Januária","state":"Minas Gerais","population":65150,"lat":-15.47949,"lng":-44.3652},{"city":"Pinheiros","state":"São Paulo","population":65145,"lat":-23.56729,"lng":-46.69232},{"city":"Bertioga","state":"São Paulo","population":64723,"lat":-23.85444,"lng":-46.13861},{"city":"Monte Mor","state":"São Paulo","population":64662,"lat":-22.94667,"lng":-47.31583},{"city":"Vacaria","state":"Rio Grande do Sul","population":64197,"lat":-28.51222,"lng":-50.93389},{"city":"Tupã","state":"São Paulo","population":63928,"lat":-21.93472,"lng":-50.51361},{"city":"Paranoá","state":"Federal District","population":63923,"lat":-15.77553,"lng":-47.78117},{"city":"Capão da Canoa","state":"Rio Grande do Sul","population":63594,"lat":-29.74556,"lng":-50.00972},{"city":"Mirassol","state":"São Paulo","population":63337,"lat":-20.81917,"lng":-49.52111},{"city":"Campo Bom","state":"Rio Grande do Sul","population":62886,"lat":-29.67889,"lng":-51.05333},{"city":"Pedro Leopoldo","state":"Minas Gerais","population":62580,"lat":-19.61806,"lng":-44.04306},{"city":"Camaquã","state":"Rio Grande do Sul","population":62200,"lat":-30.85111,"lng":-51.81222},{"city":"Boituva","state":"São Paulo","population":62170,"lat":-23.28333,"lng":-47.67222},{"city":"Nova Odessa","state":"São Paulo","population":62019,"lat":-22.7775,"lng":-47.29583},{"city":"Carazinho","state":"Rio Grande do Sul","population":61804,"lat":-28.28389,"lng":-52.78639},{"city":"Penápolis","state":"São Paulo","population":61679,"lat":-21.41972,"lng":-50.0775},{"city":"Andradina","state":"São Paulo","population":61473,"lat":-20.89611,"lng":-51.37944},{"city":"Mariana","state":"Minas Gerais","population":61387,"lat":-20.37778,"lng":-43.41611},{"city":"Republica","state":"São Paulo","population":60720,"lat":-23.54476,"lng":-46.64105},{"city":"Cristalina","state":"Goiás","population":60210,"lat":-16.76769,"lng":-47.6153},{"city":"Ibitinga","state":"São Paulo","population":60033,"lat":-21.75778,"lng":-48.82889},{"city":"Bela Vista","state":"São Paulo","population":60024,"lat":-23.56086,"lng":-46.64758},{"city":"São Borja","state":"Rio Grande do Sul","population":60019,"lat":-28.66056,"lng":-56.00444},{"city":"Registro","state":"São Paulo","population":59947,"lat":-24.4875,"lng":-47.84361},{"city":"Cachoeiras de Macacu","state":"Rio de Janeiro","population":59837,"lat":-22.4625,"lng":-42.65306},{"city":"Cosmópolis","state":"São Paulo","population":59773,"lat":-22.64583,"lng":-47.19611},{"city":"Irati","state":"Paraná","population":59250,"lat":-25.46722,"lng":-50.65111},{"city":"Rio Bonito","state":"Rio de Janeiro","population":59113,"lat":-22.70861,"lng":-42.60972},{"city":"Içara","state":"Santa Catarina","population":59035,"lat":-28.71333,"lng":-49.3},{"city":"Cruz Alta","state":"Rio Grande do Sul","population":58913,"lat":-28.64397,"lng":-53.60633},{"city":"Jaguariúna","state":"São Paulo","population":58722,"lat":-22.70556,"lng":-46.98583},{"city":"Frutal","state":"Minas Gerais","population":58588,"lat":-20.02472,"lng":-48.94056},{"city":"São Gabriel","state":"Rio Grande do Sul","population":58487,"lat":-30.33639,"lng":-54.32},{"city":"Batatais","state":"São Paulo","population":58402,"lat":-20.89111,"lng":-47.585},{"city":"Ponte Nova","state":"Minas Gerais","population":57776,"lat":-20.41639,"lng":-42.90861},{"city":"Mongaguá","state":"São Paulo","population":57648,"lat":-24.09306,"lng":-46.62083},{"city":"Marechal Cândido Rondon","state":"Paraná","population":55836,"lat":-24.55611,"lng":-54.05667},{"city":"Belem","state":"São Paulo","population":55785,"lat":-23.5376,"lng":-46.59482},{"city":"Pirapora","state":"Minas Gerais","population":55606,"lat":-17.345,"lng":-44.94194},{"city":"Brazlândia","state":"Federal District","population":55561,"lat":-15.67941,"lng":-48.19667},{"city":"Videira","state":"Santa Catarina","population":55466,"lat":-27.00833,"lng":-51.15167},{"city":"Jaguare","state":"São Paulo","population":55382,"lat":-23.54382,"lng":-46.74871},{"city":"Mafra","state":"Santa Catarina","population":55286,"lat":-26.11139,"lng":-49.80528},{"city":"Três Pontas","state":"Minas Gerais","population":55255,"lat":-21.36667,"lng":-45.5125},{"city":"Olímpia","state":"São Paulo","population":55074,"lat":-20.73722,"lng":-48.91472},{"city":"União da Vitória","state":"Paraná","population":55033,"lat":-26.23,"lng":-51.08639},{"city":"Canoinhas","state":"Santa Catarina","population":55016,"lat":-26.17722,"lng":-50.39},{"city":"Tramandaí","state":"Rio Grande do Sul","population":54387,"lat":-29.98472,"lng":-50.13361},{"city":"Medianeira","state":"Paraná","population":54369,"lat":-25.29528,"lng":-54.09389},{"city":"Guapimirim","state":"Rio de Janeiro","population":54300,"lat":-22.53722,"lng":-42.98194},{"city":"Extrema","state":"Minas Gerais","population":53482,"lat":-22.85472,"lng":-46.31833},{"city":"Porto Feliz","state":"São Paulo","population":53402,"lat":-23.21472,"lng":-47.52389},{"city":"Itabirito","state":"Minas Gerais","population":53365,"lat":-20.25333,"lng":-43.80139},{"city":"Consolação","state":"São Paulo","population":53249,"lat":-23.55242,"lng":-46.65735},{"city":"Taquara","state":"Rio Grande do Sul","population":53242,"lat":-29.65056,"lng":-50.78056},{"city":"Santa Isabel","state":"São Paulo","population":53174,"lat":-23.31556,"lng":-46.22139},{"city":"Artur Nogueira","state":"São Paulo","population":53157,"lat":-22.57306,"lng":-47.1725},{"city":"Piedade","state":"São Paulo","population":52970,"lat":-23.71194,"lng":-47.42778},{"city":"Congonhas","state":"Minas Gerais","population":52890,"lat":-20.50525,"lng":-43.8588},{"city":"São Francisco","state":"Minas Gerais","population":52762,"lat":-15.94861,"lng":-44.86444},{"city":"São Francisco do Sul","state":"Santa Catarina","population":52674,"lat":-26.24333,"lng":-48.63806},{"city":"Porto Ferreira","state":"São Paulo","population":52649,"lat":-21.85389,"lng":-47.47917},{"city":"Vila Guilherme","state":"São Paulo","population":52587,"lat":-23.50918,"lng":-46.60577},{"city":"Imbituba","state":"Santa Catarina","population":52579,"lat":-28.24,"lng":-48.67028},{"city":"Campos do Jordão","state":"São Paulo","population":52405,"lat":-22.73944,"lng":-45.59139},{"city":"Campo Belo","state":"Minas Gerais","population":52277,"lat":-20.89722,"lng":-45.27722},{"city":"Taquaritinga","state":"São Paulo","population":52260,"lat":-21.40611,"lng":-48.50472},{"city":"São José do Rio Pardo","state":"São Paulo","population":52205,"lat":-21.59556,"lng":-46.88861},{"city":"Inhumas","state":"Goiás","population":52204,"lat":-16.35778,"lng":-49.49611},{"city":"Parobé","state":"Rio Grande do Sul","population":52058,"lat":-29.62861,"lng":-50.83472},{"city":"Louveira","state":"São Paulo","population":51847,"lat":-23.08639,"lng":-46.95056},{"city":"Bom Despacho","state":"Minas Gerais","population":51737,"lat":-19.73639,"lng":-45.25222},{"city":"Morumbi","state":"São Paulo","population":51715,"lat":-23.59632,"lng":-46.70802},{"city":"Xanxerê","state":"Santa Catarina","population":51607,"lat":-26.87694,"lng":-52.40417},{"city":"Ibiporã","state":"Paraná","population":51603,"lat":-23.26917,"lng":-51.04806},{"city":"Tijucas","state":"Santa Catarina","population":51592,"lat":-27.24139,"lng":-48.63361},{"city":"Lagoa da Prata","state":"Minas Gerais","population":51412,"lat":-20.0225,"lng":-45.54361},{"city":"Morrinhos","state":"Goiás","population":51351,"lat":-17.73111,"lng":-49.09944},{"city":"Tremembé","state":"São Paulo","population":51173,"lat":-22.95833,"lng":-45.54944},{"city":"Leopoldina","state":"Minas Gerais","population":51145,"lat":-21.53194,"lng":-42.64306},{"city":"Guaxupé","state":"Minas Gerais","population":50911,"lat":-21.30528,"lng":-46.71278},{"city":"Vargem Grande Paulista","state":"São Paulo","population":50415,"lat":-23.60333,"lng":-47.02639},{"city":"Capivari","state":"São Paulo","population":50068,"lat":-22.995,"lng":-47.50778},{"city":"Mairinque","state":"São Paulo","population":50027,"lat":-23.54583,"lng":-47.18333},{"city":"Canguçu","state":"Rio Grande do Sul","population":49680,"lat":-31.395,"lng":-52.67556},{"city":"Prudentópolis","state":"Paraná","population":49393,"lat":-25.21306,"lng":-50.97778},{"city":"Nova Venécia","state":"Espírito Santo","population":49065,"lat":-18.71056,"lng":-40.40056},{"city":"Canela","state":"Rio Grande do Sul","population":48946,"lat":-29.35622,"lng":-50.81357},{"city":"Santiago","state":"Rio Grande do Sul","population":48938,"lat":-29.19167,"lng":-54.86722},{"city":"Jales","state":"São Paulo","population":48776,"lat":-20.26889,"lng":-50.54583},{"city":"Casimiro de Abreu","state":"Rio de Janeiro","population":48563,"lat":-22.48056,"lng":-42.20417},{"city":"São Joaquim da Barra","state":"São Paulo","population":48558,"lat":-20.58139,"lng":-47.85472},{"city":"Quirinópolis","state":"Goiás","population":48447,"lat":-18.44833,"lng":-50.45167},{"city":"Palmas","state":"Paraná","population":48247,"lat":-26.48417,"lng":-51.99056},{"city":"Bocaiúva","state":"Minas Gerais","population":48032,"lat":-17.10778,"lng":-43.815},{"city":"Estância Velha","state":"Rio Grande do Sul","population":47924,"lat":-29.64833,"lng":-51.17389},{"city":"Campina Grande do Sul","state":"Paraná","population":47825,"lat":-25.30556,"lng":-49.05528},{"city":"Diamantina","state":"Minas Gerais","population":47702,"lat":-18.24692,"lng":-43.60345},{"city":"Monte Carmelo","state":"Minas Gerais","population":47692,"lat":-18.72472,"lng":-47.49861},{"city":"Monte Alto","state":"São Paulo","population":47574,"lat":-21.26111,"lng":-48.49639},{"city":"Osório","state":"Rio Grande do Sul","population":47396,"lat":-29.88667,"lng":-50.26972},{"city":"São Francisco de Itabapoana","state":"Rio de Janeiro","population":47368,"lat":-21.30194,"lng":-40.96139},{"city":"Cabreúva","state":"São Paulo","population":47011,"lat":-23.3075,"lng":-47.13278},{"city":"Vila Leopoldina","state":"São Paulo","population":46875,"lat":-23.52927,"lng":-46.73437},{"city":"João Pinheiro","state":"Minas Gerais","population":46801,"lat":-17.7425,"lng":-46.1725},{"city":"Guaramirim","state":"Santa Catarina","population":46711,"lat":-26.47306,"lng":-49.00278},{"city":"Santa Cruz do Rio Pardo","state":"São Paulo","population":46442,"lat":-22.89889,"lng":-49.6325},{"city":"Capão Bonito","state":"São Paulo","population":46337,"lat":-24.00583,"lng":-48.34944},{"city":"Timbó","state":"Santa Catarina","population":46099,"lat":-26.82333,"lng":-49.27167},{"city":"Paiçandu","state":"Paraná","population":45962,"lat":-23.4575,"lng":-52.04861},{"city":"Igarapé","state":"Minas Gerais","population":45847,"lat":-20.07028,"lng":-44.30167},{"city":"Dracena","state":"São Paulo","population":45474,"lat":-21.4825,"lng":-51.53278},{"city":"Barra Velha","state":"Santa Catarina","population":45369,"lat":-26.63222,"lng":-48.68472},{"city":"Araquari","state":"Santa Catarina","population":45283,"lat":-26.37,"lng":-48.72222},{"city":"Jardinópolis","state":"São Paulo","population":45282,"lat":-21.01778,"lng":-47.76389},{"city":"Jaraguá","state":"Goiás","population":45223,"lat":-15.75694,"lng":-49.33444},{"city":"Cornélio Procópio","state":"Paraná","population":45206,"lat":-23.18111,"lng":-50.64667},{"city":"Cambuci","state":"São Paulo","population":45163,"lat":-23.56439,"lng":-46.61695},{"city":"Marau","state":"Rio Grande do Sul","population":45124,"lat":-28.44917,"lng":-52.2},{"city":"Lapa","state":"Paraná","population":45003,"lat":-25.76972,"lng":-49.71583},{"city":"Dois Vizinhos","state":"Paraná","population":44869,"lat":-25.73361,"lng":-53.05722},{"city":"Pederneiras","state":"São Paulo","population":44827,"lat":-22.35167,"lng":-48.775},{"city":"Santana do Paraíso","state":"Minas Gerais","population":44800,"lat":-19.36361,"lng":-42.56861},{"city":"São Lourenço","state":"Minas Gerais","population":44798,"lat":-22.11639,"lng":-45.05444},{"city":"Itaberaí","state":"Goiás","population":44734,"lat":-16.02028,"lng":-49.81028},{"city":"Cerquilho","state":"São Paulo","population":44695,"lat":-23.165,"lng":-47.74361},{"city":"Paraíba do Sul","state":"Rio de Janeiro","population":44467,"lat":-22.15847,"lng":-43.29321},{"city":"Itararé","state":"São Paulo","population":44438,"lat":-24.1125,"lng":-49.33167},{"city":"Santo Antônio da Platina","state":"Paraná","population":44369,"lat":-23.295,"lng":-50.07722},{"city":"Sudoeste/Octagonal","state":"Federal District","population":44354,"lat":-15.80152,"lng":-47.92706},{"city":"São Miguel d'Oeste","state":"Santa Catarina","population":44330,"lat":-26.72528,"lng":-53.51806},{"city":"Porangatu","state":"Goiás","population":44317,"lat":-13.44083,"lng":-49.14861},{"city":"Rio Grande da Serra","state":"São Paulo","population":44170,"lat":-23.74417,"lng":-46.39833},{"city":"Serrana","state":"São Paulo","population":43909,"lat":-21.21139,"lng":-47.59556},{"city":"Salto de Pirapora","state":"São Paulo","population":43748,"lat":-23.64889,"lng":-47.57333},{"city":"Santo Antônio de Pádua","state":"Rio de Janeiro","population":43686,"lat":-21.53944,"lng":-42.18028},{"city":"Paracambi","state":"Rio de Janeiro","population":43656,"lat":-22.6083,"lng":-43.70948},{"city":"Mangaratiba","state":"Rio de Janeiro","population":43624,"lat":-22.95972,"lng":-44.04056},{"city":"Panambi","state":"Rio Grande do Sul","population":43515,"lat":-28.2925,"lng":-53.50167},{"city":"Pedreira","state":"São Paulo","population":43112,"lat":-22.74194,"lng":-46.90139},{"city":"Santo Antônio da Patrulha","state":"Rio Grande do Sul","population":42947,"lat":-29.8175,"lng":-50.51972},{"city":"Laguna","state":"Santa Catarina","population":42785,"lat":-28.4825,"lng":-48.78083},{"city":"Uruaçu","state":"Goiás","population":42546,"lat":-14.52472,"lng":-49.14083},{"city":"Barra de São Francisco","state":"Espírito Santo","population":42498,"lat":-18.755,"lng":-40.89083},{"city":"Armação dos Búzios","state":"Rio de Janeiro","population":42442,"lat":-22.74694,"lng":-41.88167},{"city":"Santos Dumont","state":"Minas Gerais","population":42406,"lat":-21.45667,"lng":-43.5525},{"city":"São Mateus do Sul","state":"Paraná","population":42366,"lat":-25.87417,"lng":-50.38278},{"city":"Garça","state":"São Paulo","population":42110,"lat":-22.21056,"lng":-49.65611},{"city":"Guaratuba","state":"Paraná","population":42062,"lat":-25.88278,"lng":-48.57472},{"city":"São Lourenço do Sul","state":"Rio Grande do Sul","population":41989,"lat":-31.36528,"lng":-51.97833},{"city":"Marataizes","state":"Espírito Santo","population":41929,"lat":-21.04333,"lng":-40.82444},{"city":"Marialva","state":"Paraná","population":41851,"lat":-23.485,"lng":-51.79167},{"city":"Lago Norte","state":"Federal District","population":41778,"lat":-15.73948,"lng":-47.85686},{"city":"Torres","state":"Rio Grande do Sul","population":41751,"lat":-29.33528,"lng":-49.72694},{"city":"Santa Maria de Jetibá","state":"Espírito Santo","population":41636,"lat":-20.02745,"lng":-40.74336},{"city":"Arcos","state":"Minas Gerais","population":41416,"lat":-20.28194,"lng":-45.53944},{"city":"Socorro","state":"São Paulo","population":41352,"lat":-22.59139,"lng":-46.52889},{"city":"São Fidélis","state":"Rio de Janeiro","population":41197,"lat":-21.64611,"lng":-41.74694},{"city":"Paraguaçu Paulista","state":"São Paulo","population":41120,"lat":-22.41278,"lng":-50.57583},{"city":"São Gotardo","state":"Minas Gerais","population":40910,"lat":-19.31111,"lng":-46.04889},{"city":"Santa Rita do Sapucaí","state":"Minas Gerais","population":40635,"lat":-22.25222,"lng":-45.70333},{"city":"Andradas","state":"Minas Gerais","population":40553,"lat":-22.06806,"lng":-46.56917},{"city":"Jacarezinho","state":"Paraná","population":40375,"lat":-23.16056,"lng":-49.96944},{"city":"Almenara","state":"Minas Gerais","population":40364,"lat":-16.18361,"lng":-40.69444},{"city":"Salinas","state":"Minas Gerais","population":40178,"lat":-16.17028,"lng":-42.29028},{"city":"Vargem Grande do Sul","state":"São Paulo","population":40133,"lat":-21.83222,"lng":-46.89361},{"city":"Curitibanos","state":"Santa Catarina","population":40045,"lat":-27.28278,"lng":-50.58444},{"city":"Boa Esperança","state":"Minas Gerais","population":39848,"lat":-21.09,"lng":-45.56583},{"city":"Itapemirim","state":"Espírito Santo","population":39832,"lat":-21.01111,"lng":-40.83389},{"city":"Espírito Santo do Pinhal","state":"São Paulo","population":39816,"lat":-22.19591,"lng":-46.74884},{"city":"Capelinha","state":"Minas Gerais","population":39626,"lat":-17.69139,"lng":-42.51583},{"city":"Eldorado do Sul","state":"Rio Grande do Sul","population":39559,"lat":-30.08389,"lng":-51.61611},{"city":"Riacho Fundo","state":"Federal District","population":39552,"lat":-15.88378,"lng":-48.01634},{"city":"Presidente Epitácio","state":"São Paulo","population":39505,"lat":-21.76333,"lng":-52.11556},{"city":"Itápolis","state":"São Paulo","population":39493,"lat":-21.59556,"lng":-48.81278},{"city":"Barra da Tijuca","state":"Rio de Janeiro","population":39403,"lat":-22.99835,"lng":-43.36545},{"city":"Guaíra","state":"São Paulo","population":39279,"lat":-20.31833,"lng":-48.31056},{"city":"Oliveira","state":"Minas Gerais","population":39262,"lat":-20.69639,"lng":-44.82722},{"city":"Rio Negrinho","state":"Santa Catarina","population":39261,"lat":-26.25444,"lng":-49.51833},{"city":"Matinhos","state":"Paraná","population":39259,"lat":-25.83219,"lng":-48.53966},{"city":"Visconde do Rio Branco","state":"Minas Gerais","population":39160,"lat":-21.01028,"lng":-42.84056},{"city":"Brumadinho","state":"Minas Gerais","population":38915,"lat":-20.14333,"lng":-44.19972},{"city":"Caeté","state":"Minas Gerais","population":38776,"lat":-19.88,"lng":-43.66972},{"city":"Brás","state":"São Paulo","population":38750,"lat":-23.55,"lng":-46.61667},{"city":"Ouro Branco","state":"Minas Gerais","population":38724,"lat":-20.52334,"lng":-43.69486},{"city":"São João da Barra","state":"Rio de Janeiro","population":38708,"lat":-21.64028,"lng":-41.05111},{"city":"Santa Helena de Goiás","state":"Goiás","population":38492,"lat":-17.81361,"lng":-50.59694},{"city":"Novo Horizonte","state":"São Paulo","population":38324,"lat":-21.46806,"lng":-49.22083},{"city":"Orlândia","state":"São Paulo","population":38319,"lat":-20.72028,"lng":-47.88667},{"city":"Iturama","state":"Minas Gerais","population":38295,"lat":-19.72806,"lng":-50.19556},{"city":"São Pedro","state":"São Paulo","population":38256,"lat":-22.54861,"lng":-47.91389},{"city":"Socorro","state":"São Paulo","population":38051,"lat":-23.68528,"lng":-46.71372},{"city":"Mateus Leme","state":"Minas Gerais","population":37841,"lat":-19.98639,"lng":-44.42778},{"city":"Leblon","state":"Rio de Janeiro","population":37709,"lat":-22.98444,"lng":-43.22315},{"city":"Machado","state":"Minas Gerais","population":37684,"lat":-21.67472,"lng":-45.91972},{"city":"Agudos","state":"São Paulo","population":37680,"lat":-22.46917,"lng":-48.9875},{"city":"Tietê","state":"São Paulo","population":37663,"lat":-23.10194,"lng":-47.71472},{"city":"Jaíba","state":"Minas Gerais","population":37660,"lat":-15.33833,"lng":-43.67444},{"city":"Matozinhos","state":"Minas Gerais","population":37618,"lat":-19.55778,"lng":-44.08139},{"city":"Pontal","state":"São Paulo","population":37607,"lat":-21.0225,"lng":-48.03722},{"city":"Ituverava","state":"São Paulo","population":37571,"lat":-20.33944,"lng":-47.78056},{"city":"Rio Branco do Sul","state":"Paraná","population":37558,"lat":-25.19,"lng":-49.31417},{"city":"Jarinu","state":"São Paulo","population":37535,"lat":-23.10139,"lng":-46.72833},{"city":"Guariba","state":"São Paulo","population":37498,"lat":-21.36,"lng":-48.22833},{"city":"Porteirinha","state":"Minas Gerais","population":37438,"lat":-15.74333,"lng":-43.02833},{"city":"Ipanema","state":"Rio de Janeiro","population":37392,"lat":-22.98436,"lng":-43.20285},{"city":"Alto De Pinheiros","state":"São Paulo","population":37359,"lat":-23.54761,"lng":-46.71196},{"city":"São Manuel","state":"São Paulo","population":37289,"lat":-22.73111,"lng":-48.57056},{"city":"Bom Jesus do Itabapoana","state":"Rio de Janeiro","population":37172,"lat":-21.13389,"lng":-41.67972},{"city":"Dom Pedrito","state":"Rio Grande do Sul","population":36981,"lat":-30.98278,"lng":-54.67306},{"city":"Campos Novos","state":"Santa Catarina","population":36932,"lat":-27.40167,"lng":-51.225},{"city":"Castelo","state":"Espírito Santo","population":36930,"lat":-20.60361,"lng":-41.18472},{"city":"Sarzedo","state":"Minas Gerais","population":36844,"lat":-20.03528,"lng":-44.14472},{"city":"Assis Chateaubriand","state":"Paraná","population":36808,"lat":-24.42,"lng":-53.52139},{"city":"Mandaguari","state":"Paraná","population":36716,"lat":-23.52098,"lng":-51.68179},{"city":"José Bonifácio","state":"São Paulo","population":36633,"lat":-21.05278,"lng":-49.68833},{"city":"Rosário do Sul","state":"Rio Grande do Sul","population":36630,"lat":-30.25833,"lng":-54.91417},{"city":"Iperó","state":"São Paulo","population":36459,"lat":-23.35028,"lng":-47.68861},{"city":"Piumhi","state":"Minas Gerais","population":36062,"lat":-20.46528,"lng":-45.95806},{"city":"Setor Complementar de Indústria e Abastecimento","state":"Federal District","population":36042,"lat":-15.78218,"lng":-47.98819},{"city":"Vassouras","state":"Rio de Janeiro","population":35904,"lat":-22.40389,"lng":-43.6625},{"city":"Santa Teresa","state":"Rio de Janeiro","population":35873,"lat":-22.91769,"lng":-43.18812},{"city":"Itaqui","state":"Rio Grande do Sul","population":35768,"lat":-29.12528,"lng":-56.55306},{"city":"Iporá","state":"Goiás","population":35684,"lat":-16.44194,"lng":-51.11778},{"city":"Goiatuba","state":"Goiás","population":35664,"lat":-18.0125,"lng":-49.35472},{"city":"Adamantina","state":"São Paulo","population":35642,"lat":-21.68528,"lng":-51.0725},{"city":"Ilhabela","state":"São Paulo","population":35591,"lat":-23.77806,"lng":-45.35806},{"city":"Domingos Martins","state":"Espírito Santo","population":35416,"lat":-20.36333,"lng":-40.65917},{"city":"Presidente Venceslau","state":"São Paulo","population":35201,"lat":-21.87611,"lng":-51.84389},{"city":"Jaguariaíva","state":"Paraná","population":35141,"lat":-24.24423,"lng":-49.70932},{"city":"Promissão","state":"São Paulo","population":35131,"lat":-21.53667,"lng":-49.85806},{"city":"Nanuque","state":"Minas Gerais","population":35038,"lat":-17.83917,"lng":-40.35389},{"city":"Charqueadas","state":"Rio Grande do Sul","population":35012,"lat":-29.95472,"lng":-51.62528},{"city":"Palotina","state":"Paraná","population":35011,"lat":-24.28389,"lng":-53.84},{"city":"Padre Bernardo","state":"Goiás","population":34967,"lat":-15.16538,"lng":-48.28416},{"city":"Niquelândia","state":"Goiás","population":34964,"lat":-14.47389,"lng":-48.45972},{"city":"Posse","state":"Goiás","population":34914,"lat":-14.09306,"lng":-46.36944},{"city":"Santa Fé do Sul","state":"São Paulo","population":34794,"lat":-20.21111,"lng":-50.92583},{"city":"São Luiz Gonzaga","state":"Rio Grande do Sul","population":34752,"lat":-28.40833,"lng":-54.96083},{"city":"Rio Pardo","state":"Rio Grande do Sul","population":34654,"lat":-29.98972,"lng":-52.37806},{"city":"Bela Vista de Goiás","state":"Goiás","population":34445,"lat":-16.97278,"lng":-48.95333},{"city":"São Joaquim de Bicas","state":"Minas Gerais","population":34348,"lat":-20.04917,"lng":-44.27389},{"city":"Barra Bonita","state":"São Paulo","population":34346,"lat":-22.49472,"lng":-48.55806},{"city":"Garibaldi","state":"Rio Grande do Sul","population":34335,"lat":-29.25611,"lng":-51.53361},{"city":"Araçuaí","state":"Minas Gerais","population":34297,"lat":-16.84972,"lng":-42.07028},{"city":"Pomerode","state":"Santa Catarina","population":34289,"lat":-26.74056,"lng":-49.17694},{"city":"Portão","state":"Rio Grande do Sul","population":34071,"lat":-29.70167,"lng":-51.24194},{"city":"Palmeira","state":"Paraná","population":33855,"lat":-25.42944,"lng":-50.00639},{"city":"São Luís de Montes Belos","state":"Goiás","population":33852,"lat":-16.525,"lng":-50.37222},{"city":"Braço do Norte","state":"Santa Catarina","population":33773,"lat":-28.275,"lng":-49.16556},{"city":"Américo Brasiliense","state":"São Paulo","population":33757,"lat":-21.72444,"lng":-48.10167},{"city":"Várzea da Palma","state":"Minas Gerais","population":33744,"lat":-17.5976,"lng":-44.73367},{"city":"Pitangueiras","state":"São Paulo","population":33674,"lat":-21.00944,"lng":-48.22167},{"city":"Penha","state":"Santa Catarina","population":33663,"lat":-26.76944,"lng":-48.64583},{"city":"Araçoiaba da Serra","state":"São Paulo","population":33656,"lat":-23.50528,"lng":-47.61417},{"city":"Pitanga","state":"Paraná","population":33567,"lat":-24.75722,"lng":-51.76139},{"city":"Bom Retiro","state":"São Paulo","population":33520,"lat":-23.52508,"lng":-46.63889},{"city":"Fraiburgo","state":"Santa Catarina","population":33481,"lat":-27.02611,"lng":-50.92139},{"city":"Barra Funda","state":"São Paulo","population":33436,"lat":-23.5212,"lng":-46.67409},{"city":"Cravinhos","state":"São Paulo","population":33281,"lat":-21.34028,"lng":-47.72944},{"city":"Aparecida","state":"São Paulo","population":33223,"lat":-22.84694,"lng":-45.22972},{"city":"Palmeira das Missões","state":"Rio Grande do Sul","population":33216,"lat":-27.89944,"lng":-53.31361},{"city":"Taiobeiras","state":"Minas Gerais","population":33050,"lat":-15.80778,"lng":-42.23306},{"city":"Porto União","state":"Santa Catarina","population":32970,"lat":-26.23806,"lng":-51.07833},{"city":"Itamarandiba","state":"Minas Gerais","population":32948,"lat":-17.85722,"lng":-42.85889},{"city":"Aguaí","state":"São Paulo","population":32888,"lat":-22.05944,"lng":-46.97861},{"city":"Tanguá","state":"Rio de Janeiro","population":32858,"lat":-22.73028,"lng":-42.71417},{"city":"Igrejinha","state":"Rio Grande do Sul","population":32808,"lat":-29.57444,"lng":-50.79028},{"city":"Teutônia","state":"Rio Grande do Sul","population":32797,"lat":-29.44806,"lng":-51.80639},{"city":"Arraial do Cabo","state":"Rio de Janeiro","population":32794,"lat":-22.96611,"lng":-42.02778},{"city":"Ivaiporã","state":"Paraná","population":32720,"lat":-24.24778,"lng":-51.68472},{"city":"Itatiaia","state":"Rio de Janeiro","population":32694,"lat":-22.49611,"lng":-44.56333},{"city":"São João Batista","state":"Santa Catarina","population":32687,"lat":-27.27611,"lng":-48.84944},{"city":"Frederico Westphalen","state":"Rio Grande do Sul","population":32627,"lat":-27.35917,"lng":-53.39444},{"city":"Caçapava do Sul","state":"Rio Grande do Sul","population":32515,"lat":-30.51436,"lng":-53.48496},{"city":"Pires do Rio","state":"Goiás","population":32373,"lat":-17.29972,"lng":-48.27944},{"city":"São Gabriel da Palha","state":"Espírito Santo","population":32252,"lat":-19.01809,"lng":-40.5373},{"city":"Guanhães","state":"Minas Gerais","population":32244,"lat":-18.775,"lng":-42.9325},{"city":"Laranjeiras do Sul","state":"Paraná","population":32227,"lat":-25.40778,"lng":-52.41611},{"city":"Estrela","state":"Rio Grande do Sul","population":32183,"lat":-29.50194,"lng":-51.96639},{"city":"Ibaté","state":"São Paulo","population":32178,"lat":-21.95472,"lng":-47.99667},{"city":"Guaíra","state":"Paraná","population":32097,"lat":-24.08204,"lng":-54.24622},{"city":"Ouro Fino","state":"Minas Gerais","population":32094,"lat":-22.28306,"lng":-46.36889},{"city":"Barrinha","state":"São Paulo","population":32092,"lat":-21.19361,"lng":-48.16389},{"city":"São Miguel Arcanjo","state":"São Paulo","population":32039,"lat":-23.87833,"lng":-47.99722},{"city":"Brasília de Minas","state":"Minas Gerais","population":32025,"lat":-16.20639,"lng":-44.43333},{"city":"Nerópolis","state":"Goiás","population":31932,"lat":-16.40639,"lng":-49.21861},{"city":"Xaxim","state":"Santa Catarina","population":31918,"lat":-26.96167,"lng":-52.53472},{"city":"Palmeiras de Goiás","state":"Goiás","population":31858,"lat":-16.805,"lng":-49.92583},{"city":"Descalvado","state":"São Paulo","population":31756,"lat":-21.90389,"lng":-47.61944},{"city":"Bariri","state":"São Paulo","population":31595,"lat":-22.07444,"lng":-48.74028},{"city":"Cachoeira Paulista","state":"São Paulo","population":31564,"lat":-22.665,"lng":-45.00944},{"city":"Mandaguaçu","state":"Paraná","population":31457,"lat":-23.34722,"lng":-52.09528},{"city":"Forquilhinha","state":"Santa Catarina","population":31431,"lat":-28.7475,"lng":-49.47222},{"city":"Rio das Pedras","state":"São Paulo","population":31328,"lat":-22.84333,"lng":-47.60611},{"city":"Rio Negro","state":"Paraná","population":31324,"lat":-26.10583,"lng":-49.7975},{"city":"Bandeirantes","state":"Paraná","population":31273,"lat":-23.11,"lng":-50.3675},{"city":"Osvaldo Cruz","state":"São Paulo","population":31272,"lat":-21.79667,"lng":-50.87861},{"city":"Carangola","state":"Minas Gerais","population":31240,"lat":-20.73306,"lng":-42.02944},{"city":"Guararema","state":"São Paulo","population":31236,"lat":-23.415,"lng":-46.035},{"city":"Itaperuçu","state":"Paraná","population":31217,"lat":-25.22,"lng":-49.34778},{"city":"Pompéu","state":"Minas Gerais","population":31047,"lat":-19.22444,"lng":-44.93528},{"city":"Guararapes","state":"São Paulo","population":31043,"lat":-21.26083,"lng":-50.64278},{"city":"Santa Vitória do Palmar","state":"Rio Grande do Sul","population":30983,"lat":-33.51889,"lng":-53.36806},{"city":"Flores da Cunha","state":"Rio Grande do Sul","population":30892,"lat":-29.02889,"lng":-51.18167},{"city":"Barão de Cocais","state":"Minas Gerais","population":30778,"lat":-19.94583,"lng":-43.48722},{"city":"Itapoá","state":"Santa Catarina","population":30750,"lat":-26.11694,"lng":-48.61611},{"city":"Quedas do Iguaçu","state":"Paraná","population":30738,"lat":-25.45303,"lng":-52.90464},{"city":"Além Paraíba","state":"Minas Gerais","population":30717,"lat":-21.88778,"lng":-42.70444},{"city":"Juatuba","state":"Minas Gerais","population":30716,"lat":-19.95194,"lng":-44.34278},{"city":"Dois Irmãos","state":"Rio Grande do Sul","population":30709,"lat":-29.58028,"lng":-51.08528},{"city":"Afonso Cláudio","state":"Espírito Santo","population":30684,"lat":-20.07417,"lng":-41.12389},{"city":"Baixo Guandu","state":"Espírito Santo","population":30674,"lat":-19.51889,"lng":-41.01583},{"city":"Santa Bárbara","state":"Minas Gerais","population":30466,"lat":-19.95944,"lng":-43.41528},{"city":"Espinosa","state":"Minas Gerais","population":30443,"lat":-14.92611,"lng":-42.81917},{"city":"Pontal do Paraná","state":"Paraná","population":30426,"lat":-25.67361,"lng":-48.51111},{"city":"Carlos Barbosa","state":"Rio Grande do Sul","population":30420,"lat":-29.2975,"lng":-51.50361},{"city":"Campo Magro","state":"Paraná","population":30160,"lat":-25.36861,"lng":-49.45139},{"city":"Cláudio","state":"Minas Gerais","population":30159,"lat":-20.44333,"lng":-44.76583},{"city":"Joaçaba","state":"Santa Catarina","population":30146,"lat":-27.17806,"lng":-51.50472},{"city":"Sombrio","state":"Santa Catarina","population":29991,"lat":-29.11389,"lng":-49.61667},{"city":"Soledade","state":"Rio Grande do Sul","population":29991,"lat":-28.81833,"lng":-52.51028},{"city":"Anchieta","state":"Espírito Santo","population":29984,"lat":-20.80583,"lng":-40.64556},{"city":"Vila Galvão","state":"São Paulo","population":29968,"lat":-23.4717,"lng":-46.57923},{"city":"Garopaba","state":"Santa Catarina","population":29959,"lat":-28.02333,"lng":-48.61333},{"city":"Imbituva","state":"Paraná","population":29924,"lat":-25.23,"lng":-50.60444},{"city":"Serra Negra","state":"São Paulo","population":29894,"lat":-22.61222,"lng":-46.70056},{"city":"Pinhão","state":"Paraná","population":29886,"lat":-25.69556,"lng":-51.65972},{"city":"Bom Jardim","state":"Rio de Janeiro","population":29736,"lat":-22.15194,"lng":-42.41944},{"city":"Biritiba Mirim","state":"São Paulo","population":29683,"lat":-23.5725,"lng":-46.03861},{"city":"Paty do Alferes","state":"Rio de Janeiro","population":29619,"lat":-22.42861,"lng":-43.41861},{"city":"Iguaba Grande","state":"Rio de Janeiro","population":29577,"lat":-22.83917,"lng":-42.22889},{"city":"Cambuí","state":"Minas Gerais","population":29536,"lat":-22.61222,"lng":-46.0575},{"city":"Cândido Mota","state":"São Paulo","population":29449,"lat":-22.74639,"lng":-50.38694},{"city":"Piraju","state":"São Paulo","population":29436,"lat":-23.19361,"lng":-49.38389},{"city":"Guaçuí","state":"Espírito Santo","population":29358,"lat":-20.77556,"lng":-41.67944},{"city":"Alegre","state":"Espírito Santo","population":29177,"lat":-20.76361,"lng":-41.53306},{"city":"São Miguel do Iguaçu","state":"Paraná","population":29122,"lat":-25.34806,"lng":-54.23778},{"city":"Iguape","state":"São Paulo","population":29115,"lat":-24.70806,"lng":-47.55528},{"city":"Piraí","state":"Rio de Janeiro","population":29054,"lat":-22.62917,"lng":-43.89806},{"city":"Nova Santa Rita","state":"Rio Grande do Sul","population":29024,"lat":-29.8522,"lng":-51.27696},{"city":"Carmo do Paranaíba","state":"Minas Gerais","population":29011,"lat":-19.00083,"lng":-46.31611},{"city":"Jaguaré","state":"Espírito Santo","population":28931,"lat":-18.90556,"lng":-40.07611},{"city":"Candelária","state":"Rio Grande do Sul","population":28906,"lat":-29.66917,"lng":-52.78889},{"city":"Três Marias","state":"Minas Gerais","population":28895,"lat":-18.20639,"lng":-45.24167},{"city":"Coromandel","state":"Minas Gerais","population":28894,"lat":-18.47333,"lng":-47.20028},{"city":"Santa Cruz das Palmeiras","state":"São Paulo","population":28864,"lat":-21.82694,"lng":-47.24861},{"city":"Ibaiti","state":"Paraná","population":28830,"lat":-23.84861,"lng":-50.18778},{"city":"Santo Antônio do Sudoeste","state":"Paraná","population":28673,"lat":-26.07361,"lng":-53.72528},{"city":"Iúna","state":"Espírito Santo","population":28590,"lat":-20.34583,"lng":-41.53583},{"city":"Rancharia","state":"São Paulo","population":28588,"lat":-22.22917,"lng":-50.89306},{"city":"Cajati","state":"São Paulo","population":28515,"lat":-24.73611,"lng":-48.12278},{"city":"Goioerê","state":"Paraná","population":28437,"lat":-24.18472,"lng":-53.0275},{"city":"Miracema","state":"Rio de Janeiro","population":28411,"lat":-21.41222,"lng":-42.19667},{"city":"Conceição das Alagoas","state":"Minas Gerais","population":28381,"lat":-19.91472,"lng":-48.38833},{"city":"Prata","state":"Minas Gerais","population":28342,"lat":-19.30722,"lng":-48.92417},{"city":"Rio Pardo de Minas","state":"Minas Gerais","population":28271,"lat":-15.60972,"lng":-42.53972},{"city":"Maravilha","state":"Santa Catarina","population":28251,"lat":-26.76083,"lng":-53.1725},{"city":"Álvares Machado","state":"São Paulo","population":28250,"lat":-22.07944,"lng":-51.47194},{"city":"Miguel Pereira","state":"Rio de Janeiro","population":28123,"lat":-22.45389,"lng":-43.46889},{"city":"Conchal","state":"São Paulo","population":28101,"lat":-22.33028,"lng":-47.1725},{"city":"Casa Branca","state":"São Paulo","population":28083,"lat":-21.77389,"lng":-47.08639},{"city":"Mirandópolis","state":"São Paulo","population":27983,"lat":-21.13361,"lng":-51.10167},{"city":"Morro Agudo","state":"São Paulo","population":27933,"lat":-20.73139,"lng":-48.05778},{"city":"Hidrolândia","state":"Goiás","population":27742,"lat":-16.96222,"lng":-49.22806},{"city":"Porto Belo","state":"Santa Catarina","population":27688,"lat":-27.15778,"lng":-48.55306},{"city":"Lagoa Vermelha","state":"Rio Grande do Sul","population":27659,"lat":-28.20861,"lng":-51.52583},{"city":"Mutum","state":"Minas Gerais","population":27635,"lat":-19.8,"lng":-41.43833},{"city":"Pilar do Sul","state":"São Paulo","population":27619,"lat":-23.81306,"lng":-47.71639},{"city":"Triunfo","state":"Rio Grande do Sul","population":27498,"lat":-29.94333,"lng":-51.71806},{"city":"Conceição da Barra","state":"Espírito Santo","population":27458,"lat":-18.59333,"lng":-39.73222},{"city":"Mandirituba","state":"Paraná","population":27439,"lat":-25.77889,"lng":-49.32611},{"city":"Juquitiba","state":"São Paulo","population":27404,"lat":-23.93167,"lng":-47.06833},{"city":"Santo Antônio do Monte","state":"Minas Gerais","population":27295,"lat":-20.08722,"lng":-45.29361},{"city":"Santo Amaro da Imperatriz","state":"Santa Catarina","population":27272,"lat":-27.68806,"lng":-48.77861},{"city":"Bady Bassitt","state":"São Paulo","population":27260,"lat":-20.91806,"lng":-49.44528},{"city":"Balneário Piçarras","state":"Santa Catarina","population":27127,"lat":-26.76389,"lng":-48.67167},{"city":"Minaçu","state":"Goiás","population":27075,"lat":-13.53306,"lng":-48.22},{"city":"Alexânia","state":"Goiás","population":27008,"lat":-16.08222,"lng":-48.50722},{"city":"Novo Cruzeiro","state":"Minas Gerais","population":26975,"lat":-17.46806,"lng":-41.87528},{"city":"Imbé","state":"Rio Grande do Sul","population":26824,"lat":-29.97528,"lng":-50.12806},{"city":"Vera Cruz","state":"Rio Grande do Sul","population":26710,"lat":-29.71671,"lng":-52.50321},{"city":"Pirenópolis","state":"Goiás","population":26690,"lat":-15.85072,"lng":-48.96087},{"city":"Pitangui","state":"Minas Gerais","population":26685,"lat":-19.68278,"lng":-44.89028},{"city":"Sacramento","state":"Minas Gerais","population":26670,"lat":-19.86528,"lng":-47.44},{"city":"Jaguarão","state":"Rio Grande do Sul","population":26603,"lat":-32.56611,"lng":-53.37583},{"city":"Nova Esperança","state":"Paraná","population":26585,"lat":-23.18361,"lng":-52.20472},{"city":"Mantena","state":"Minas Gerais","population":26535,"lat":-18.78167,"lng":-40.98028},{"city":"Ituporanga","state":"Santa Catarina","population":26525,"lat":-27.41444,"lng":-49.6025},{"city":"Sooretama","state":"Espírito Santo","population":26502,"lat":-19.19694,"lng":-40.09778},{"city":"Capão do Leão","state":"Rio Grande do Sul","population":26487,"lat":-31.76333,"lng":-52.48389},{"city":"Universidade Rural","state":"Rio de Janeiro","population":26371,"lat":-22.76639,"lng":-43.69139},{"city":"Elói Mendes","state":"Minas Gerais","population":26336,"lat":-21.61,"lng":-45.56528},{"city":"Laranjal Paulista","state":"São Paulo","population":26261,"lat":-23.04972,"lng":-47.83667},{"city":"Lago Sul","state":"Federal District","population":26244,"lat":-15.84577,"lng":-47.88369},{"city":"Igarapava","state":"São Paulo","population":26212,"lat":-20.03833,"lng":-47.74694},{"city":"Itapuranga","state":"Goiás","population":26113,"lat":-15.56222,"lng":-49.94861},{"city":"Campos Gerais","state":"Minas Gerais","population":26105,"lat":-21.235,"lng":-45.75861},{"city":"Camanducaia","state":"Minas Gerais","population":26097,"lat":-22.75528,"lng":-46.14472},{"city":"São José da Lapa","state":"Minas Gerais","population":26090,"lat":-19.70027,"lng":-43.9602},{"city":"Piracaia","state":"São Paulo","population":26029,"lat":-23.05389,"lng":-46.35806},{"city":"São Joaquim","state":"Santa Catarina","population":25939,"lat":-28.29389,"lng":-49.93167},{"city":"Arapoti","state":"Paraná","population":25777,"lat":-24.15778,"lng":-49.82667},{"city":"Cruzeiro","state":"Federal District","population":25741,"lat":-15.7907,"lng":-47.93711},{"city":"Nova Prata","state":"Rio Grande do Sul","population":25692,"lat":-28.78389,"lng":-51.61},{"city":"São João Nepomuceno","state":"Minas Gerais","population":25565,"lat":-21.54,"lng":-43.01056},{"city":"Ilha Solteira","state":"São Paulo","population":25549,"lat":-20.43278,"lng":-51.3425},{"city":"Ipameri","state":"Goiás","population":25548,"lat":-17.72194,"lng":-48.15972},{"city":"Jacutinga","state":"Minas Gerais","population":25525,"lat":-22.28556,"lng":-46.61222},{"city":"Santa Helena","state":"Paraná","population":25492,"lat":-24.86028,"lng":-54.33278},{"city":"Astorga","state":"Paraná","population":25475,"lat":-23.2325,"lng":-51.66556},{"city":"Tupaciguara","state":"Minas Gerais","population":25470,"lat":-18.59222,"lng":-48.705},{"city":"São José do Norte","state":"Rio Grande do Sul","population":25443,"lat":-32.01472,"lng":-52.04167},{"city":"Três Passos","state":"Rio Grande do Sul","population":25436,"lat":-27.45556,"lng":-53.93194},{"city":"Ibatiba","state":"Espírito Santo","population":25380,"lat":-20.23389,"lng":-41.51056},{"city":"Coração de Jesus","state":"Minas Gerais","population":25377,"lat":-16.68528,"lng":-44.365},{"city":"Pirapozinho","state":"São Paulo","population":25348,"lat":-22.27528,"lng":-51.5},{"city":"Aimorés","state":"Minas Gerais","population":25269,"lat":-19.49583,"lng":-41.06389},{"city":"Guaporé","state":"Rio Grande do Sul","population":25268,"lat":-28.84556,"lng":-51.89028},{"city":"Tanabi","state":"São Paulo","population":25265,"lat":-20.62639,"lng":-49.64917},{"city":"Brodowski","state":"São Paulo","population":25201,"lat":-20.99139,"lng":-47.65861},{"city":"Taquari","state":"Rio Grande do Sul","population":25198,"lat":-29.79972,"lng":-51.86444},{"city":"Itaí","state":"São Paulo","population":25180,"lat":-23.41778,"lng":-49.09056},{"city":"Pinheiral","state":"Rio de Janeiro","population":25085,"lat":-22.51278,"lng":-44.00056},{"city":"Bombinhas","state":"Santa Catarina","population":25058,"lat":-27.1518,"lng":-48.48941},{"city":"Nepomuceno","state":"Minas Gerais","population":25018,"lat":-21.23342,"lng":-45.23488},{"city":"Cocalzinho de Goiás","state":"Goiás","population":25016,"lat":-15.79444,"lng":-48.77583},{"city":"Três de Maio","state":"Rio Grande do Sul","population":24916,"lat":-27.77333,"lng":-54.24},{"city":"Apiaí","state":"São Paulo","population":24886,"lat":-24.50944,"lng":-48.8425},{"city":"Piracanjuba","state":"Goiás","population":24883,"lat":-17.30278,"lng":-49.01667},{"city":"Martinópolis","state":"São Paulo","population":24881,"lat":-22.14583,"lng":-51.17083},{"city":"Santa Rita do Passa Quatro","state":"São Paulo","population":24833,"lat":-21.71028,"lng":-47.47806},{"city":"São Lourenço do Oeste","state":"Santa Catarina","population":24791,"lat":-26.35917,"lng":-52.85111},{"city":"Ubiratã","state":"Paraná","population":24749,"lat":-24.54528,"lng":-52.98778},{"city":"Jaguara","state":"São Paulo","population":24730,"lat":-23.51103,"lng":-46.74713},{"city":"Reserva","state":"Paraná","population":24573,"lat":-24.65028,"lng":-50.85056},{"city":"Tapejara","state":"Rio Grande do Sul","population":24557,"lat":-28.06806,"lng":-52.01389},{"city":"Guabiruba","state":"Santa Catarina","population":24543,"lat":-27.08595,"lng":-48.96765},{"city":"Rocinha","state":"Rio de Janeiro","population":24543,"lat":-22.98887,"lng":-43.24934},{"city":"Cordeirópolis","state":"São Paulo","population":24514,"lat":-22.48194,"lng":-47.45667},{"city":"Angatuba","state":"São Paulo","population":24512,"lat":-23.48972,"lng":-48.41278},{"city":"Dois Córregos","state":"São Paulo","population":24510,"lat":-22.36611,"lng":-48.38028},{"city":"Mimoso do Sul","state":"Espírito Santo","population":24475,"lat":-21.06417,"lng":-41.36639},{"city":"São Sebastião do Caí","state":"Rio Grande do Sul","population":24428,"lat":-29.58667,"lng":-51.37556},{"city":"Três Coroas","state":"Rio Grande do Sul","population":24425,"lat":-29.51694,"lng":-50.77778},{"city":"Pedra Azul","state":"Minas Gerais","population":24410,"lat":-16.00528,"lng":-41.29722},{"city":"Minas Novas","state":"Minas Gerais","population":24405,"lat":-17.21861,"lng":-42.59028},{"city":"Taquarituba","state":"São Paulo","population":24350,"lat":-23.53306,"lng":-49.24444},{"city":"Santa Terezinha de Itaipu","state":"Paraná","population":24262,"lat":-25.43998,"lng":-54.40161},{"city":"Valparaíso","state":"São Paulo","population":24241,"lat":-21.22778,"lng":-50.86833},{"city":"Estrela","state":"Rio Grande do Sul","population":24200,"lat":-28.06111,"lng":-50.93833},{"city":"Ortigueira","state":"Paraná","population":24192,"lat":-24.20833,"lng":-50.94944},{"city":"Quatro Barras","state":"Paraná","population":24191,"lat":-25.36556,"lng":-49.07694},{"city":"Paraopeba","state":"Minas Gerais","population":24107,"lat":-19.27444,"lng":-44.40417},{"city":"Espera Feliz","state":"Minas Gerais","population":24102,"lat":-20.65028,"lng":-41.90722},{"city":"Pereira Barreto","state":"São Paulo","population":24095,"lat":-20.63833,"lng":-51.10917},{"city":"Monte Sião","state":"Minas Gerais","population":24089,"lat":-22.4325,"lng":-46.5725},{"city":"Goiás","state":"Goiás","population":24071,"lat":-15.93444,"lng":-50.14028},{"city":"Buritis","state":"Minas Gerais","population":24030,"lat":-15.61778,"lng":-46.42333},{"city":"Veranópolis","state":"Rio Grande do Sul","population":24021,"lat":-28.93611,"lng":-51.54944},{"city":"Jequitinhonha","state":"Minas Gerais","population":24007,"lat":-16.43389,"lng":-41.00333},{"city":"Capivari de Baixo","state":"Santa Catarina","population":23975,"lat":-28.44472,"lng":-48.95778},{"city":"São Gonçalo do Sapucaí","state":"Minas Gerais","population":23959,"lat":-21.89222,"lng":-45.59528},{"city":"Bom Jesus de Goiás","state":"Goiás","population":23958,"lat":-18.22047,"lng":-49.72993},{"city":"São João da Ponte","state":"Minas Gerais","population":23930,"lat":-15.92917,"lng":-44.00778},{"city":"Belo Oriente","state":"Minas Gerais","population":23928,"lat":-19.22,"lng":-42.48361},{"city":"Pinheiros","state":"Espírito Santo","population":23915,"lat":-18.37028,"lng":-40.21333},{"city":"São João do Paraíso","state":"Minas Gerais","population":23910,"lat":-15.31361,"lng":-42.01444},{"city":"Buritizeiro","state":"Minas Gerais","population":23910,"lat":-17.35111,"lng":-44.96222},{"city":"Brotas","state":"São Paulo","population":23898,"lat":-22.28417,"lng":-48.12667},{"city":"Se","state":"São Paulo","population":23832,"lat":-23.54771,"lng":-46.63145},{"city":"Cruzeiro do Oeste","state":"Paraná","population":23831,"lat":-23.785,"lng":-53.07333},{"city":"Cajuru","state":"São Paulo","population":23830,"lat":-21.27528,"lng":-47.30417},{"city":"Encruzilhada do Sul","state":"Rio Grande do Sul","population":23819,"lat":-30.54389,"lng":-52.52194},{"city":"Carandaí","state":"Minas Gerais","population":23812,"lat":-20.95361,"lng":-43.80639},{"city":"Orleans","state":"Santa Catarina","population":23661,"lat":-28.35889,"lng":-49.29139},{"city":"Piraí do Sul","state":"Paraná","population":23651,"lat":-24.52611,"lng":-49.94861},{"city":"Itaocara","state":"Rio de Janeiro","population":23643,"lat":-21.66917,"lng":-42.07611},{"city":"Santa Gertrudes","state":"São Paulo","population":23611,"lat":-22.45667,"lng":-47.53028},{"city":"Bambuí","state":"Minas Gerais","population":23546,"lat":-20.00639,"lng":-45.97694},{"city":"Corinto","state":"Minas Gerais","population":23532,"lat":-18.38083,"lng":-44.45639},{"city":"Quaraí","state":"Rio Grande do Sul","population":23500,"lat":-30.3875,"lng":-56.45139},{"city":"Carmo do Cajuru","state":"Minas Gerais","population":23479,"lat":-20.18417,"lng":-44.77111},{"city":"Francisco Sá","state":"Minas Gerais","population":23476,"lat":-16.47583,"lng":-43.48833},{"city":"Raul Soares","state":"Minas Gerais","population":23423,"lat":-20.10194,"lng":-42.4525},{"city":"Santa Rosa de Viterbo","state":"São Paulo","population":23411,"lat":-21.47278,"lng":-47.36306},{"city":"Coronel Vivida","state":"Paraná","population":23331,"lat":-25.97972,"lng":-52.56778},{"city":"Capinzal","state":"Santa Catarina","population":23314,"lat":-27.34361,"lng":-51.61194},{"city":"Nova Petrópolis","state":"Rio Grande do Sul","population":23300,"lat":-29.37639,"lng":-51.11444},{"city":"Estácio","state":"Rio de Janeiro","population":23260,"lat":-22.91817,"lng":-43.20397},{"city":"Santo Antônio de Posse","state":"São Paulo","population":23244,"lat":-22.60611,"lng":-46.91944},{"city":"Loanda","state":"Paraná","population":23225,"lat":-22.92306,"lng":-53.13722},{"city":"Cambará","state":"Paraná","population":23212,"lat":-23.04639,"lng":-50.07361},{"city":"Conceição do Mato Dentro","state":"Minas Gerais","population":23163,"lat":-19.03722,"lng":-43.425},{"city":"Quissamã","state":"Rio de Janeiro","population":23126,"lat":-22.10667,"lng":-41.47222},{"city":"Igaraçu do Tietê","state":"São Paulo","population":23106,"lat":-22.50917,"lng":-48.55778},{"city":"Ivoti","state":"Rio Grande do Sul","population":22983,"lat":-29.59111,"lng":-51.16056},{"city":"Encantado","state":"Rio Grande do Sul","population":22962,"lat":-29.23611,"lng":-51.86972},{"city":"Colorado","state":"Paraná","population":22896,"lat":-22.8375,"lng":-51.97306},{"city":"Capela do Alto","state":"São Paulo","population":22866,"lat":-23.47056,"lng":-47.73472},{"city":"Sarandi","state":"Rio Grande do Sul","population":22851,"lat":-27.94389,"lng":-52.92306},{"city":"Siqueira Campos","state":"Paraná","population":22811,"lat":-23.68889,"lng":-49.83389},{"city":"Santa Teresa","state":"Espírito Santo","population":22808,"lat":-19.93556,"lng":-40.60028},{"city":"São José do Vale do Rio Preto","state":"Rio de Janeiro","population":22799,"lat":-22.15214,"lng":-42.92335},{"city":"Inhapim","state":"Minas Gerais","population":22692,"lat":-19.54917,"lng":-42.12},{"city":"Abaeté","state":"Minas Gerais","population":22675,"lat":-19.16,"lng":-45.44583},{"city":"Pirajuí","state":"São Paulo","population":22431,"lat":-21.99861,"lng":-49.45722},{"city":"Piúma","state":"Espírito Santo","population":22300,"lat":-20.83778,"lng":-40.72194},{"city":"Catete","state":"Rio de Janeiro","population":22295,"lat":-22.92542,"lng":-43.18137},{"city":"Park Way","state":"Federal District","population":22289,"lat":-15.90852,"lng":-47.94053},{"city":"Monte Aprazível","state":"São Paulo","population":22280,"lat":-20.7725,"lng":-49.71417},{"city":"Silvânia","state":"Goiás","population":22245,"lat":-16.66663,"lng":-48.61252},{"city":"Ibiá","state":"Minas Gerais","population":22229,"lat":-19.47833,"lng":-46.53889},{"city":"Teodoro Sampaio","state":"São Paulo","population":22173,"lat":-22.5325,"lng":-52.1675},{"city":"Araçariguama","state":"São Paulo","population":22168,"lat":-23.43861,"lng":-47.06139},{"city":"Cunha","state":"São Paulo","population":22110,"lat":-23.07444,"lng":-44.95972},{"city":"Itaiópolis","state":"Santa Catarina","population":22051,"lat":-26.33639,"lng":-49.90639},{"city":"Ceres","state":"Goiás","population":22046,"lat":-15.30833,"lng":-49.59833},{"city":"Silva Jardim","state":"Rio de Janeiro","population":22026,"lat":-22.65083,"lng":-42.39167},{"city":"Bom Jesus dos Perdões","state":"São Paulo","population":22006,"lat":-23.135,"lng":-46.46528},{"city":"Ecoporanga","state":"Espírito Santo","population":21992,"lat":-18.37333,"lng":-40.83056},{"city":"Pinhalzinho","state":"Santa Catarina","population":21972,"lat":-26.84806,"lng":-52.99194},{"city":"Iracemápolis","state":"São Paulo","population":21967,"lat":-22.58056,"lng":-47.51861},{"city":"Arroio do Meio","state":"Rio Grande do Sul","population":21958,"lat":-29.40111,"lng":-51.945},{"city":"Serro","state":"Minas Gerais","population":21952,"lat":-18.60472,"lng":-43.37944},{"city":"São Miguel do Araguaia","state":"Goiás","population":21900,"lat":-13.275,"lng":-50.16278},{"city":"São Francisco de Paula","state":"Rio Grande do Sul","population":21893,"lat":-29.44806,"lng":-50.58361},{"city":"Muzambinho","state":"Minas Gerais","population":21891,"lat":-21.37583,"lng":-46.52556},{"city":"Conceição de Macabu","state":"Rio de Janeiro","population":21769,"lat":-22.08528,"lng":-41.86833},{"city":"Herval dOeste","state":"Santa Catarina","population":21724,"lat":-27.19361,"lng":-51.49472},{"city":"Paraguaçu","state":"Minas Gerais","population":21723,"lat":-21.54722,"lng":-45.7375},{"city":"Guapiaçu","state":"São Paulo","population":21711,"lat":-20.795,"lng":-49.22028},{"city":"Núcleo Bandeirante","state":"Federal District","population":21636,"lat":-15.8707,"lng":-47.96892},{"city":"Ibirubá","state":"Rio Grande do Sul","population":21583,"lat":-28.6275,"lng":-53.08972},{"city":"Acreúna","state":"Goiás","population":21568,"lat":-17.39556,"lng":-50.37694},{"city":"Bastos","state":"São Paulo","population":21503,"lat":-21.92194,"lng":-50.73389},{"city":"Cerqueira César","state":"São Paulo","population":21469,"lat":-23.03556,"lng":-49.16611},{"city":"Cordeiro","state":"Rio de Janeiro","population":21444,"lat":-22.02861,"lng":-42.36083},{"city":"Tambaú","state":"São Paulo","population":21435,"lat":-21.705,"lng":-47.27444},{"city":"Jandaia do Sul","state":"Paraná","population":21408,"lat":-23.60306,"lng":-51.64333},{"city":"Perdões","state":"Minas Gerais","population":21384,"lat":-21.09083,"lng":-45.09139},{"city":"Rolante","state":"Rio Grande do Sul","population":21253,"lat":-29.65056,"lng":-50.57583},{"city":"São Sepé","state":"Rio Grande do Sul","population":21219,"lat":-30.16056,"lng":-53.56528},{"city":"Itapaci","state":"Goiás","population":21087,"lat":-14.95083,"lng":-49.54944},{"city":"Chopinzinho","state":"Paraná","population":21085,"lat":-25.85583,"lng":-52.52333},{"city":"São Marcos","state":"Rio Grande do Sul","population":21084,"lat":-28.97111,"lng":-51.06806},{"city":"Porto Real","state":"Rio de Janeiro","population":21064,"lat":-22.41972,"lng":-44.29028},{"city":"Caxambu","state":"Minas Gerais","population":21056,"lat":-21.97722,"lng":-44.9325},{"city":"Itapecerica","state":"Minas Gerais","population":21046,"lat":-20.4725,"lng":-45.12556},{"city":"Itambacuri","state":"Minas Gerais","population":21042,"lat":-18.03111,"lng":-41.685},{"city":"São Jerônimo","state":"Rio Grande do Sul","population":21028,"lat":-29.95917,"lng":-51.72222},{"city":"Ribeirão da Ilha","state":"Santa Catarina","population":21000,"lat":-27.69934,"lng":-48.53219},{"city":"Freguesia do Ribeirao da Ilha","state":"Santa Catarina","population":21000,"lat":-27.71773,"lng":-48.56266},{"city":"Santa Vitória","state":"Minas Gerais","population":20973,"lat":-18.83861,"lng":-50.12139},{"city":"Carmo do Rio Claro","state":"Minas Gerais","population":20954,"lat":-20.97194,"lng":-46.11889},{"city":"Urussanga","state":"Santa Catarina","population":20919,"lat":-28.51778,"lng":-49.32083},{"city":"Monte Santo de Minas","state":"Minas Gerais","population":20890,"lat":-21.18972,"lng":-46.98028},{"city":"Lajinha","state":"Minas Gerais","population":20835,"lat":-20.15139,"lng":-41.62278},{"city":"Conselheiro Pena","state":"Minas Gerais","population":20824,"lat":-19.17222,"lng":-41.47222},{"city":"Divino","state":"Minas Gerais","population":20706,"lat":-20.61444,"lng":-42.14861},{"city":"Campestre","state":"Minas Gerais","population":20696,"lat":-21.71111,"lng":-46.24639},{"city":"Manhumirim","state":"Minas Gerais","population":20613,"lat":-20.35778,"lng":-41.95806},{"city":"Itupeva","state":"São Paulo","population":20605,"lat":-23.15306,"lng":-47.05778},{"city":"Capanema","state":"Paraná","population":20481,"lat":-25.67194,"lng":-53.80889},{"city":"Junqueirópolis","state":"São Paulo","population":20448,"lat":-21.51472,"lng":-51.43361},{"city":"Paraisópolis","state":"Minas Gerais","population":20445,"lat":-22.55417,"lng":-45.78},{"city":"São Pedro","state":"Rio de Janeiro","population":20424,"lat":-22.42313,"lng":-42.96612},{"city":"Lambari","state":"Minas Gerais","population":20414,"lat":-21.97556,"lng":-45.35028},{"city":"Jaboticatubas","state":"Minas Gerais","population":20406,"lat":-19.51361,"lng":-43.745},{"city":"Potim","state":"São Paulo","population":20392,"lat":-22.84278,"lng":-45.25139},{"city":"Jaguaruna","state":"Santa Catarina","population":20375,"lat":-28.62145,"lng":-49.02529},{"city":"Monte Azul","state":"Minas Gerais","population":20328,"lat":-15.155,"lng":-42.87472},{"city":"Ervália","state":"Minas Gerais","population":20255,"lat":-20.84,"lng":-42.65722},{"city":"Buri","state":"São Paulo","population":20250,"lat":-23.7975,"lng":-48.59278},{"city":"Pompéia","state":"São Paulo","population":20196,"lat":-22.10861,"lng":-50.17167},{"city":"Monte Alegre de Minas","state":"Minas Gerais","population":20170,"lat":-18.87056,"lng":-48.88083},{"city":"Medina","state":"Minas Gerais","population":20156,"lat":-16.2225,"lng":-41.47694},{"city":"Regente Feijó","state":"São Paulo","population":20145,"lat":-22.22139,"lng":-51.30278},{"city":"Nova Hartz","state":"Rio Grande do Sul","population":20088,"lat":-29.58425,"lng":-50.90278},{"city":"Barroso","state":"Minas Gerais","population":20080,"lat":-21.18694,"lng":-43.97583},{"city":"Schroeder","state":"Santa Catarina","population":20061,"lat":-26.4125,"lng":-49.07306},{"city":"Lucélia","state":"São Paulo","population":20061,"lat":-21.72028,"lng":-51.01889},{"city":"Presidente Getúlio","state":"Santa Catarina","population":20010,"lat":-27.05056,"lng":-49.62278},{"city":"Tupanciretã","state":"Rio Grande do Sul","population":20005,"lat":-29.08056,"lng":-53.83583},{"city":"Turmalina","state":"Minas Gerais","population":20000,"lat":-17.28556,"lng":-42.73},{"city":"Campinas","state":"Santa Catarina","population":20000,"lat":-27.59444,"lng":-48.60694},{"city":"Cantagalo","state":"Rio de Janeiro","population":19996,"lat":-21.98111,"lng":-42.36806},{"city":"Castilho","state":"São Paulo","population":19977,"lat":-20.87222,"lng":-51.4875},{"city":"Vazante","state":"Minas Gerais","population":19975,"lat":-17.98694,"lng":-46.90778},{"city":"Tibagi","state":"Paraná","population":19961,"lat":-24.50944,"lng":-50.41361},{"city":"Andirá","state":"Paraná","population":19878,"lat":-23.05056,"lng":-50.22889},{"city":"Ibirama","state":"Santa Catarina","population":19862,"lat":-27.05694,"lng":-49.51778},{"city":"Rubiataba","state":"Goiás","population":19788,"lat":-15.16444,"lng":-49.80333},{"city":"Simonésia","state":"Minas Gerais","population":19750,"lat":-20.12389,"lng":-42.00139},{"city":"Três Barras","state":"Santa Catarina","population":19746,"lat":-26.10639,"lng":-50.32222},{"city":"Miracatu","state":"São Paulo","population":19643,"lat":-24.28139,"lng":-47.45972},{"city":"Jussara","state":"Goiás","population":19620,"lat":-15.865,"lng":-50.86806},{"city":"Ampére","state":"Paraná","population":19620,"lat":-25.915,"lng":-53.47278},{"city":"Palmital","state":"São Paulo","population":19594,"lat":-22.78889,"lng":-50.2175},{"city":"Engenheiro Coelho","state":"São Paulo","population":19566,"lat":-22.49123,"lng":-47.21182},{"city":"Vargem Alta","state":"Espírito Santo","population":19563,"lat":-20.67139,"lng":-41.00694},{"city":"Caraí","state":"Minas Gerais","population":19548,"lat":-17.18889,"lng":-41.69472},{"city":"Guapó","state":"Goiás","population":19545,"lat":-16.83056,"lng":-49.53194},{"city":"Ipanema","state":"Minas Gerais","population":19522,"lat":-19.80083,"lng":-41.71306},{"city":"Miguelópolis","state":"São Paulo","population":19441,"lat":-20.17944,"lng":-48.03194},{"city":"Nova Granada","state":"São Paulo","population":19419,"lat":-20.53389,"lng":-49.31417},{"city":"Paranapanema","state":"São Paulo","population":19395,"lat":-23.3863,"lng":-48.72441},{"city":"Rio Bananal","state":"Espírito Santo","population":19274,"lat":-19.265,"lng":-40.33333},{"city":"Realeza","state":"Paraná","population":19247,"lat":-25.76889,"lng":-53.5325},{"city":"Pariquera-Açu","state":"São Paulo","population":19233,"lat":-24.715,"lng":-47.88111},{"city":"Wenceslau Braz","state":"Paraná","population":19188,"lat":-23.87389,"lng":-49.80278},{"city":"Itaobim","state":"Minas Gerais","population":19151,"lat":-16.56167,"lng":-41.50333},{"city":"Papanduva","state":"Santa Catarina","population":19150,"lat":-26.37028,"lng":-50.14444},{"city":"Guaranésia","state":"Minas Gerais","population":19150,"lat":-21.29917,"lng":-46.8025},{"city":"Contenda","state":"Paraná","population":19128,"lat":-25.67916,"lng":-49.53718},{"city":"Abadia de Goiás","state":"Goiás","population":19128,"lat":-16.75722,"lng":-49.4375},{"city":"Butiá","state":"Rio Grande do Sul","population":19084,"lat":-30.11972,"lng":-51.96222},{"city":"Itatinga","state":"São Paulo","population":19070,"lat":-23.10167,"lng":-48.61583},{"city":"Cesário Lange","state":"São Paulo","population":19048,"lat":-23.22667,"lng":-47.95306},{"city":"Cafelândia","state":"Paraná","population":18997,"lat":-24.61778,"lng":-53.32},{"city":"Lagoa Formosa","state":"Minas Gerais","population":18904,"lat":-18.77861,"lng":-46.4075},{"city":"Montanha","state":"Espírito Santo","population":18900,"lat":-18.12694,"lng":-40.36333},{"city":"Pancas","state":"Espírito Santo","population":18893,"lat":-19.225,"lng":-40.85139},{"city":"Manga","state":"Minas Gerais","population":18886,"lat":-14.75583,"lng":-43.93222},{"city":"Horizontina","state":"Rio Grande do Sul","population":18851,"lat":-27.62583,"lng":-54.30778},{"city":"Varzelândia","state":"Minas Gerais","population":18840,"lat":-15.70139,"lng":-44.0275},{"city":"Presidente Olegário","state":"Minas Gerais","population":18765,"lat":-18.41778,"lng":-46.41806},{"city":"Marechal Floriano","state":"Espírito Santo","population":18743,"lat":-20.41278,"lng":-40.68306},{"city":"Altônia","state":"Paraná","population":18742,"lat":-23.87444,"lng":-53.90167},{"city":"Ribeirão Branco","state":"São Paulo","population":18627,"lat":-24.22083,"lng":-48.76556},{"city":"Seara","state":"Santa Catarina","population":18620,"lat":-27.14944,"lng":-52.31056},{"city":"Carlos Chagas","state":"Minas Gerais","population":18615,"lat":-17.70306,"lng":-40.76639},{"city":"Guará","state":"São Paulo","population":18606,"lat":-20.42833,"lng":-47.82417},