{"timezone":"America/Anguilla","countries":{"Anguilla":[{"city":"The Valley","state":"The Valley","population":2035,"lat":18.21704,"lng":-63.05783},{"city":"Blowing Point Village","state":"Blowing Point","population":942,"lat":18.17648,"lng":-63.09375},{"city":"Sandy Hill","state":"Sandy Hill","population":879,"lat":18.22104,"lng":-63.01329},{"city":"East End Village","state":"East End","population":671,"lat":18.23333,"lng":-63.0},{"city":"Sandy Ground Village","state":"Sandy Ground","population":274,"lat":18.20118,"lng":-63.08998},{"city":"West End Village","state":"West End","population":0,"lat":18.17191,"lng":-63.14941},{"city":"The Quarter","state":"The Quarter","population":0,"lat":18.20799,"lng":-63.04178},{"city":"Farrington","state":"The Farrington","population":0,"lat":18.215,"lng":-63.02238},{"city":"Stoney Ground","state":"Stoney Ground","population":0,"lat":18.22026,"lng":-63.04607},{"city":"South Hill Village","state":"South Hill","population":0,"lat":18.19201,"lng":-63.08779},{"city":"North Side","state":"North Side","population":0,"lat":18.22919,"lng":-63.04401},{"city":"North Hill Village","state":"North Hill","population":0,"lat":18.20542,"lng":-63.07847},{"city":"Island Harbour","state":"Island Harbour","population":0,"lat":18.25601,"lng":-63.0102},{"city":"George Hill","state":"George Hill","population":0,"lat":18.19939,"lng":-63.0665}]}}