{"timezone":"America/Costa_Rica","countries":{"Costa Rica":[{"city":"San José","state":"San José","population":335007,"lat":9.93388,"lng":-84.08489},{"city":"Limón","state":"Limón Province","population":63081,"lat":9.99074,"lng":-83.03596},{"city":"San Francisco","state":"Heredia Province","population":55923,"lat":9.9938,"lng":-84.12742},{"city":"Alajuela","state":"Alajuela Province","population":47494,"lat":10.01723,"lng":-84.21275},{"city":"Liberia","state":"Guanacaste Province","population":45380,"lat":10.63517,"lng":-85.43779},{"city":"Paraíso","state":"Cartago Province","population":39702,"lat":9.83847,"lng":-83.86655},{"city":"Puntarenas","state":"Puntarenas Province","population":35650,"lat":9.97691,"lng":-84.8379},{"city":"San Isidro","state":"San José","population":34877,"lat":9.3674,"lng":-83.69713},{"city":"Curridabat","state":"San José","population":34586,"lat":9.9139,"lng":-84.03595},{"city":"San Vicente","state":"San José","population":34447,"lat":9.96194,"lng":-84.0494},{"city":"San Vicente de Moravia","state":"San José","population":34447,"lat":9.96164,"lng":-84.0488},{"city":"San José","state":"Alajuela Province","population":31430,"lat":10.95192,"lng":-85.13572},{"city":"Purral","state":"San José","population":30034,"lat":9.95689,"lng":-84.03209},{"city":"Turrialba","state":"Cartago Province","population":28955,"lat":9.90371,"lng":-83.68361},{"city":"San Miguel","state":"San José","population":28827,"lat":9.87121,"lng":-84.06084},{"city":"San Pedro","state":"San José","population":27477,"lat":9.92829,"lng":-84.05074},{"city":"San Rafael Abajo","state":"San José","population":27419,"lat":9.831,"lng":-84.29008},{"city":"Quesada","state":"Alajuela Province","population":27310,"lat":10.3266,"lng":-84.432},{"city":"Ipís","state":"San José","population":26669,"lat":9.96548,"lng":-84.0182},{"city":"Cartago","state":"Cartago Province","population":26594,"lat":9.86371,"lng":-83.9195},{"city":"Chacarita","state":"Puntarenas Province","population":26354,"lat":9.98424,"lng":-84.77892},{"city":"San Juan","state":"San José","population":26047,"lat":9.96188,"lng":-84.07876},{"city":"Mercedes Norte","state":"Heredia Province","population":26007,"lat":10.00611,"lng":-84.13018},{"city":"Guadalupe","state":"San José","population":26005,"lat":9.94805,"lng":-84.05665},{"city":"Aserrí","state":"San José","population":25874,"lat":9.86142,"lng":-84.09266},{"city":"San Rafael","state":"San José","population":25410,"lat":9.92826,"lng":-84.13537},{"city":"San Felipe","state":"San José","population":24985,"lat":9.90444,"lng":-84.1062},{"city":"Patarrá","state":"San José","population":23983,"lat":9.88059,"lng":-84.03551},{"city":"Tejar","state":"San José","population":22433,"lat":9.74301,"lng":-84.23219},{"city":"Heredia","state":"Heredia Province","population":21947,"lat":9.99872,"lng":-84.11587},{"city":"San Pablo","state":"Heredia Province","population":21662,"lat":9.99559,"lng":-84.09656},{"city":"Calle Blancos","state":"San José","population":20710,"lat":9.9453,"lng":-84.0669},{"city":"Cañas","state":"Guanacaste Province","population":20306,"lat":10.43105,"lng":-85.09825},{"city":"Guápiles","state":"Limón Province","population":19092,"lat":10.21682,"lng":-83.78483},{"city":"Siquirres","state":"Limón Province","population":18231,"lat":10.09748,"lng":-83.50659},{"city":"San Diego","state":"Cartago Province","population":16991,"lat":9.90028,"lng":-84.0017},{"city":"Colima","state":"San José","population":15875,"lat":9.95532,"lng":-84.08235},{"city":"Esparza","state":"Puntarenas Province","population":15575,"lat":9.99197,"lng":-84.66628},{"city":"San Juan de Dios","state":"San José","population":15469,"lat":9.87812,"lng":-84.08438},{"city":"Nicoya","state":"Guanacaste Province","population":15313,"lat":10.15038,"lng":-85.45093},{"city":"San Rafael Arriba","state":"San José","population":15051,"lat":9.87648,"lng":-84.07479},{"city":"Desamparados","state":"Alajuela Province","population":14448,"lat":9.94727,"lng":-84.50626},{"city":"Concepción","state":"Cartago Province","population":14000,"lat":9.92683,"lng":-84.00123},{"city":"Alajuelita","state":"San José","population":13845,"lat":9.90294,"lng":-84.10037},{"city":"Sabanilla","state":"San José","population":13251,"lat":9.94706,"lng":-84.03408},{"city":"Granadilla","state":"San José","population":12683,"lat":9.93203,"lng":-84.01964},{"city":"Santa Cruz","state":"Guanacaste Province","population":12281,"lat":10.26053,"lng":-85.5851},{"city":"San Josecito","state":"Heredia Province","population":12195,"lat":10.01265,"lng":-84.1075},{"city":"Escazú","state":"San José","population":12071,"lat":9.91887,"lng":-84.13989},{"city":"Naranjo","state":"Alajuela Province","population":11853,"lat":10.09866,"lng":-84.37824},{"city":"Buenos Aires","state":"Puntarenas Province","population":11680,"lat":9.17298,"lng":-83.33277},{"city":"San Antonio","state":"Heredia Province","population":10938,"lat":9.9816,"lng":-84.18592},{"city":"San Ramón","state":"Alajuela Province","population":10765,"lat":10.08802,"lng":-84.47022},{"city":"Tres Ríos","state":"Cartago Province","population":10430,"lat":9.90692,"lng":-83.98789},{"city":"Daniel Flores","state":"San José","population":10028,"lat":9.33607,"lng":-83.66999},{"city":"Río Segundo","state":"Alajuela Province","population":9853,"lat":10.2398,"lng":-84.3171},{"city":"Colón","state":"San José","population":9687,"lat":9.91491,"lng":-84.2417},{"city":"San Rafael","state":"Heredia Province","population":8887,"lat":10.01817,"lng":-84.09465},{"city":"Santiago","state":"San José","population":8292,"lat":9.84636,"lng":-84.31428},{"city":"Santa Ana","state":"San José","population":8029,"lat":9.9326,"lng":-84.18255},{"city":"Quepos","state":"Puntarenas Province","population":7810,"lat":9.43063,"lng":-84.16231},{"city":"San Juan","state":"Alajuela Province","population":7729,"lat":10.10248,"lng":-84.31694},{"city":"Tilarán","state":"Guanacaste Province","population":7301,"lat":10.46701,"lng":-84.96775},{"city":"Corredor","state":"Puntarenas Province","population":7084,"lat":8.64002,"lng":-82.946},{"city":"Guácimo","state":"Limón Province","population":7022,"lat":10.2129,"lng":-83.68793},{"city":"Atenas","state":"Alajuela Province","population":7014,"lat":9.97489,"lng":-84.37886},{"city":"Cot","state":"Cartago Province","population":6784,"lat":9.89472,"lng":-83.8745},{"city":"Golfito","state":"Puntarenas Province","population":6777,"lat":8.60327,"lng":-83.11342},{"city":"Llorente","state":"Heredia Province","population":6626,"lat":9.99842,"lng":-84.15814},{"city":"Miramar","state":"Puntarenas Province","population":6540,"lat":10.0925,"lng":-84.72978},{"city":"Tamarindo","state":"Guanacaste Province","population":6375,"lat":10.29913,"lng":-85.84107},{"city":"Orotina","state":"Alajuela Province","population":6135,"lat":9.91193,"lng":-84.52337},{"city":"Santo Domingo","state":"Heredia Province","population":5745,"lat":10.06389,"lng":-84.15499},{"city":"Salitrillos","state":"San José","population":5738,"lat":9.85373,"lng":-84.0916},{"city":"Mercedes","state":"San José","population":5467,"lat":9.27447,"lng":-83.57968},{"city":"Pocora","state":"Limón Province","population":5248,"lat":10.17195,"lng":-83.60264},{"city":"Juntas","state":"Guanacaste Province","population":4737,"lat":10.28082,"lng":-84.95912},{"city":"Batán","state":"Limón Province","population":4584,"lat":10.08354,"lng":-83.33413},{"city":"Canoas","state":"Puntarenas Province","population":4573,"lat":8.53305,"lng":-82.83844},{"city":"La Asunción","state":"Heredia Province","population":4383,"lat":9.97955,"lng":-84.17178},{"city":"Orosi","state":"Cartago Province","population":4350,"lat":9.79617,"lng":-83.85383},{"city":"La Cruz","state":"Guanacaste Province","population":4319,"lat":11.07377,"lng":-85.63272},{"city":"Carrillos","state":"Alajuela Province","population":4258,"lat":10.02918,"lng":-84.27403},{"city":"San Marcos","state":"San José","population":4255,"lat":9.6601,"lng":-84.02026},{"city":"Upala","state":"Alajuela Province","population":4185,"lat":10.89908,"lng":-85.01366},{"city":"Bagaces","state":"Guanacaste Province","population":4108,"lat":10.52541,"lng":-85.25537},{"city":"Jacó","state":"Puntarenas Province","population":4085,"lat":9.61497,"lng":-84.62975},{"city":"Tobosi","state":"Cartago Province","population":4060,"lat":9.83837,"lng":-83.98391},{"city":"San Vito","state":"Puntarenas Province","population":3981,"lat":8.82079,"lng":-82.97092},{"city":"Puerto Cortés","state":"Puntarenas Province","population":3850,"lat":8.96171,"lng":-83.52463},{"city":"Parrita","state":"Puntarenas Province","population":3734,"lat":9.52166,"lng":-84.32289},{"city":"San Rafael","state":"Alajuela Province","population":3624,"lat":10.06441,"lng":-84.47361},{"city":"Zarcero","state":"Alajuela Province","population":3559,"lat":10.18455,"lng":-84.39163},{"city":"Los Chiles","state":"Alajuela Province","population":3342,"lat":11.03253,"lng":-84.71544},{"city":"Sardinal","state":"Guanacaste Province","population":3267,"lat":10.51674,"lng":-85.64748},{"city":"San Ignacio","state":"San José","population":3072,"lat":9.79853,"lng":-84.16173},{"city":"La Fortuna","state":"Alajuela Province","population":3010,"lat":10.47089,"lng":-84.64535},{"city":"Poco Sol","state":"Alajuela Province","population":2947,"lat":10.35509,"lng":-84.65336},{"city":"Salitral","state":"San José","population":2833,"lat":9.91163,"lng":-84.17835},{"city":"Belén","state":"Guanacaste Province","population":2715,"lat":10.40789,"lng":-85.58836},{"city":"Tucurrique","state":"Cartago Province","population":2697,"lat":9.85336,"lng":-83.72273},{"city":"La Suiza","state":"Cartago Province","population":2434,"lat":9.85065,"lng":-83.6169},{"city":"Roxana","state":"Limón Province","population":2351,"lat":10.26712,"lng":-83.7511},{"city":"Matina","state":"Limón Province","population":2315,"lat":10.08363,"lng":-83.28431},{"city":"Santiago","state":"Alajuela Province","population":2107,"lat":10.02275,"lng":-84.4442},{"city":"Pital","state":"Alajuela Province","population":2046,"lat":10.45056,"lng":-84.27406},{"city":"Sixaola","state":"Limón Province","population":1823,"lat":9.50371,"lng":-82.612},{"city":"Hojancha","state":"Guanacaste Province","population":1823,"lat":10.0581,"lng":-85.41809},{"city":"La Fortuna","state":"Guanacaste Province","population":1774,"lat":10.67434,"lng":-85.19962},{"city":"Nandayure","state":"Guanacaste Province","population":1649,"lat":10.03333,"lng":-85.2},{"city":"Pejibaye","state":"Cartago Province","population":1630,"lat":9.81253,"lng":-83.70378},{"city":"Pacayas","state":"Cartago Province","population":1556,"lat":9.80737,"lng":-84.04817},{"city":"Palmichal","state":"San José","population":1545,"lat":9.83802,"lng":-84.20405},{"city":"Esquipulas","state":"Alajuela Province","population":1512,"lat":10.05676,"lng":-84.42337},{"city":"Paquera","state":"Puntarenas Province","population":1510,"lat":9.82005,"lng":-84.93513},{"city":"Ángeles","state":"Heredia Province","population":1355,"lat":9.98863,"lng":-84.05922},{"city":"Bijagua","state":"Alajuela Province","population":1090,"lat":10.73243,"lng":-85.05721},{"city":"Sámara","state":"Guanacaste Province","population":1071,"lat":9.88147,"lng":-85.52809},{"city":"Sabanilla","state":"Alajuela Province","population":1015,"lat":10.07404,"lng":-84.21551},{"city":"Capellades","state":"Cartago Province","population":993,"lat":9.92165,"lng":-83.78526},{"city":"Jiménez","state":"Limón Province","population":985,"lat":10.16772,"lng":-83.774},{"city":"Florencia","state":"Alajuela Province","population":888,"lat":10.36131,"lng":-84.47496},{"city":"Macacona","state":"Puntarenas Province","population":840,"lat":10.00268,"lng":-84.63994},{"city":"Laguna","state":"Alajuela Province","population":670,"lat":10.20951,"lng":-84.40074},{"city":"Cahuita","state":"Limón Province","population":646,"lat":9.73853,"lng":-82.84104},{"city":"Zapotal","state":"Guanacaste Province","population":0,"lat":10.0,"lng":-85.3},{"city":"Sarchí","state":"Alajuela Province","population":0,"lat":10.0897,"lng":-84.34752},{"city":"San Pablo","state":"San José","population":0,"lat":9.68323,"lng":-84.0405},{"city":"Sabalito","state":"Puntarenas Province","population":0,"lat":8.81814,"lng":-82.90911},{"city":"Pacuarito","state":"Limón Province","population":0,"lat":10.10188,"lng":-83.46987},{"city":"Monterrey","state":"San José","population":0,"lat":9.7573,"lng":-84.10956},{"city":"La Virgen","state":"Heredia Province","population":0,"lat":10.40174,"lng":-84.13348},{"city":"Bejuco","state":"Guanacaste Province","population":0,"lat":9.85014,"lng":-85.32923},{"city":"Barrio Jesús","state":"Alajuela Province","population":0,"lat":9.97439,"lng":-84.42166},{"city":"Cariari","state":"Limón Province","population":0,"lat":10.35719,"lng":-83.7362},{"city":"Dulce Nombre de Jesus","state":"San José","population":0,"lat":10.15144,"lng":-83.97748}]}}