{"timezone":"America/Anchorage","countries":{"United States":[{"city":"Anchorage","state":"Alaska","population":289600,"lat":61.21806,"lng":-149.90028},{"city":"Fairbanks","state":"Alaska","population":32325,"lat":64.83778,"lng":-147.71639},{"city":"Eagle River","state":"Alaska","population":24793,"lat":61.32139,"lng":-149.56778},{"city":"Badger","state":"Alaska","population":19482,"lat":64.8,"lng":-147.53333},{"city":"Knik-Fairview","state":"Alaska","population":14923,"lat":61.51262,"lng":-149.60012},{"city":"College","state":"Alaska","population":12964,"lat":64.85694,"lng":-147.80278},{"city":"Wasilla","state":"Alaska","population":9284,"lat":61.5809,"lng":-149.4415},{"city":"Lakes","state":"Alaska","population":8364,"lat":61.60713,"lng":-149.30861},{"city":"Tanaina","state":"Alaska","population":8197,"lat":61.62694,"lng":-149.42806},{"city":"Kalifornsky","state":"Alaska","population":7850,"lat":60.41833,"lng":-151.29},{"city":"Kenai","state":"Alaska","population":7661,"lat":60.55444,"lng":-151.25833},{"city":"Meadow Lakes","state":"Alaska","population":7570,"lat":61.62472,"lng":-149.60111},{"city":"Palmer","state":"Alaska","population":6788,"lat":61.59941,"lng":-149.11456},{"city":"Elmendorf Air Force Base","state":"Alaska","population":6621,"lat":61.25703,"lng":-149.63139},{"city":"Bethel","state":"Alaska","population":6450,"lat":60.79222,"lng":-161.75583},{"city":"Kodiak","state":"Alaska","population":6253,"lat":57.78852,"lng":-152.40533},{"city":"Sterling","state":"Alaska","population":5617,"lat":60.53722,"lng":-150.76472},{"city":"Gateway","state":"Alaska","population":5552,"lat":61.57278,"lng":-149.24083},{"city":"Homer","state":"Alaska","population":5515,"lat":59.6425,"lng":-151.5494},{"city":"Farmers Loop","state":"Alaska","population":4853,"lat":64.90822,"lng":-147.69866},{"city":"Fishhook","state":"Alaska","population":4679,"lat":61.74402,"lng":-149.23613},{"city":"Soldotna","state":"Alaska","population":4544,"lat":60.48778,"lng":-151.05833},{"city":"Nikiski","state":"Alaska","population":4493,"lat":60.69028,"lng":-151.28889},{"city":"Unalaska","state":"Alaska","population":4491,"lat":53.87413,"lng":-166.53408},{"city":"Utqiagvik","state":"Alaska","population":4384,"lat":71.29058,"lng":-156.78872},{"city":"Dutch Harbor","state":"Alaska","population":4376,"lat":53.8898,"lng":-166.5422},{"city":"Valdez","state":"Alaska","population":3870,"lat":61.13083,"lng":-146.34833},{"city":"Big Lake","state":"Alaska","population":3350,"lat":61.52139,"lng":-149.95444},{"city":"Butte","state":"Alaska","population":3246,"lat":61.54222,"lng":-149.03333},{"city":"Seward","state":"Alaska","population":2790,"lat":60.10426,"lng":-149.4435},{"city":"Eielson Air Force Base","state":"Alaska","population":2647,"lat":64.66327,"lng":-147.05442},{"city":"Ester","state":"Alaska","population":2422,"lat":64.84722,"lng":-148.01444},{"city":"Dillingham","state":"Alaska","population":2404,"lat":59.03972,"lng":-158.4575},{"city":"Deltana","state":"Alaska","population":2251,"lat":63.87217,"lng":-145.21773},{"city":"Girdwood","state":"Alaska","population":2250,"lat":60.9425,"lng":-149.16639},{"city":"Houston","state":"Alaska","population":2206,"lat":61.63028,"lng":-149.81806},{"city":"Cordova","state":"Alaska","population":2196,"lat":60.5432,"lng":-145.75867},{"city":"North Pole","state":"Alaska","population":2189,"lat":64.75111,"lng":-147.34944},{"city":"Prudhoe Bay","state":"Alaska","population":2174,"lat":70.25528,"lng":-148.33722},{"city":"Willow","state":"Alaska","population":2102,"lat":61.74722,"lng":-150.0375},{"city":"Ridgeway","state":"Alaska","population":2022,"lat":60.53194,"lng":-151.08528},{"city":"Bear Creek","state":"Alaska","population":1956,"lat":60.16417,"lng":-149.395},{"city":"Fritz Creek","state":"Alaska","population":1932,"lat":59.73611,"lng":-151.29528},{"city":"Anchor Point","state":"Alaska","population":1930,"lat":59.77667,"lng":-151.83139},{"city":"Lazy Mountain","state":"Alaska","population":1479,"lat":61.62611,"lng":-148.94556},{"city":"Sutton-Alpine","state":"Alaska","population":1447,"lat":61.71041,"lng":-148.89407},{"city":"Cohoe","state":"Alaska","population":1364,"lat":60.36861,"lng":-151.30639},{"city":"Kodiak Station","state":"Alaska","population":1301,"lat":57.76587,"lng":-152.60004},{"city":"Susitna North","state":"Alaska","population":1260,"lat":62.16129,"lng":-149.85075},{"city":"Tok","state":"Alaska","population":1258,"lat":63.33667,"lng":-142.98556},{"city":"Diamond Ridge","state":"Alaska","population":1156,"lat":59.67611,"lng":-151.5575},{"city":"Funny River","state":"Alaska","population":1103,"lat":60.50194,"lng":-150.76222},{"city":"Salcha","state":"Alaska","population":1095,"lat":64.52399,"lng":-146.9021},{"city":"Sand Point","state":"Alaska","population":1064,"lat":55.33597,"lng":-160.50071},{"city":"Akutan","state":"Alaska","population":1040,"lat":54.1343,"lng":-165.77515},{"city":"Farm Loop","state":"Alaska","population":1028,"lat":61.63891,"lng":-149.14215},{"city":"Healy","state":"Alaska","population":1021,"lat":63.85694,"lng":-148.96611},{"city":"Salamatof","state":"Alaska","population":980,"lat":60.61538,"lng":-151.31944},{"city":"Delta Junction","state":"Alaska","population":929,"lat":64.03778,"lng":-145.73222},{"city":"Ninilchik","state":"Alaska","population":883,"lat":60.05035,"lng":-151.66819},{"city":"Talkeetna","state":"Alaska","population":876,"lat":62.32389,"lng":-150.10944},{"city":"Selawik","state":"Alaska","population":859,"lat":66.60389,"lng":-160.00694},{"city":"Buffalo Soapstone","state":"Alaska","population":855,"lat":61.71623,"lng":-149.09999},{"city":"Togiak","state":"Alaska","population":842,"lat":59.06194,"lng":-160.37639},{"city":"Kwethluk","state":"Alaska","population":760,"lat":60.81037,"lng":-161.42497},{"city":"Moose Creek","state":"Alaska","population":747,"lat":64.71,"lng":-147.14361},{"city":"Knik River","state":"Alaska","population":744,"lat":61.46001,"lng":-148.91237},{"city":"Pleasant Valley","state":"Alaska","population":725,"lat":64.88139,"lng":-146.86861},{"city":"Two Rivers","state":"Alaska","population":719,"lat":64.87222,"lng":-147.03833},{"city":"Womens Bay","state":"Alaska","population":719,"lat":57.68222,"lng":-152.66861},{"city":"Unalakleet","state":"Alaska","population":708,"lat":63.87306,"lng":-160.78806},{"city":"Quinhagak","state":"Alaska","population":706,"lat":59.74889,"lng":-161.91583},{"city":"Noorvik","state":"Alaska","population":694,"lat":66.83833,"lng":-161.03278},{"city":"Fox River","state":"Alaska","population":685,"lat":59.85833,"lng":-150.95833},{"city":"Akiachak","state":"Alaska","population":627,"lat":60.90944,"lng":-161.43139},{"city":"Happy Valley","state":"Alaska","population":593,"lat":59.94722,"lng":-151.73222},{"city":"Big Delta","state":"Alaska","population":591,"lat":64.1525,"lng":-145.84222},{"city":"Wainwright","state":"Alaska","population":580,"lat":70.63694,"lng":-160.03833},{"city":"Fort Yukon","state":"Alaska","population":570,"lat":66.56472,"lng":-145.27389},{"city":"South Van Horn","state":"Alaska","population":558,"lat":64.80953,"lng":-147.78793},{"city":"Kasilof","state":"Alaska","population":549,"lat":60.3375,"lng":-151.27444},{"city":"Naknek","state":"Alaska","population":544,"lat":58.72833,"lng":-157.01389},{"city":"Fort Greely","state":"Alaska","population":539,"lat":63.97,"lng":-145.735},{"city":"Point MacKenzie","state":"Alaska","population":529,"lat":61.35972,"lng":-149.97833},{"city":"Aniak","state":"Alaska","population":528,"lat":61.57833,"lng":-159.52222},{"city":"New Stuyahok","state":"Alaska","population":526,"lat":59.45278,"lng":-157.31194}]}}