{"timezone":"America/Argentina/San_Juan","countries":{"Argentina":[{"city":"San Juan","state":"San Juan","population":109123,"lat":-31.53726,"lng":-68.52568},{"city":"Chimbas","state":"San Juan","population":73829,"lat":-31.49313,"lng":-68.53263},{"city":"Santa Lucía","state":"San Juan","population":43565,"lat":-31.54055,"lng":-68.49794},{"city":"Pocito","state":"San Juan","population":40969,"lat":-31.68333,"lng":-68.58333},{"city":"Caucete","state":"San Juan","population":33609,"lat":-31.6515,"lng":-68.28216},{"city":"San José de Jáchal","state":"San Juan","population":21018,"lat":-30.24162,"lng":-68.74662},{"city":"Albardón","state":"San Juan","population":20413,"lat":-31.43722,"lng":-68.52556},{"city":"Villa Paula de Sarmiento","state":"San Juan","population":19092,"lat":-31.4933,"lng":-68.53838},{"city":"Villa General San Martín","state":"San Juan","population":10140,"lat":-31.43963,"lng":-68.5205},{"city":"Calingasta","state":"San Juan","population":8176,"lat":-31.33394,"lng":-69.4208},{"city":"Nueve de Julio","state":"San Juan","population":7652,"lat":-31.6692,"lng":-68.39013},{"city":"Villa San Agustín","state":"San Juan","population":6864,"lat":-30.63464,"lng":-67.4679},{"city":"Villa Basilio Nievas","state":"San Juan","population":4038,"lat":-31.55,"lng":-68.73333},{"city":"Villa Santa Rosa","state":"San Juan","population":0,"lat":-31.74484,"lng":-68.31435},{"city":"Villa Media Agua","state":"San Juan","population":0,"lat":-31.9831,"lng":-68.42499},{"city":"Villa Krause","state":"San Juan","population":0,"lat":-31.56667,"lng":-68.53333},{"city":"Villa El Salvador","state":"San Juan","population":0,"lat":-31.45328,"lng":-68.40392},{"city":"Villa Aberastain","state":"San Juan","population":0,"lat":-31.65805,"lng":-68.57953},{"city":"Tamberías","state":"San Juan","population":0,"lat":-31.45868,"lng":-69.422},{"city":"Rodeo","state":"San Juan","population":0,"lat":-30.21014,"lng":-69.13262},{"city":"Rivadavia","state":"San Juan","population":0,"lat":-31.53245,"lng":-68.59731}]}}