{"timezone":"America/Chicago","countries":{"United States":[{"city":"Chicago","state":"Illinois","population":2664452,"lat":41.85003,"lng":-87.65005},{"city":"Houston","state":"Texas","population":2314157,"lat":29.76328,"lng":-95.36327},{"city":"San Antonio","state":"Texas","population":1526656,"lat":29.42412,"lng":-98.49363},{"city":"Dallas","state":"Texas","population":1326087,"lat":32.78306,"lng":-96.80667},{"city":"Fort Worth","state":"Texas","population":1008106,"lat":32.72541,"lng":-97.32085},{"city":"Austin","state":"Texas","population":974447,"lat":30.26715,"lng":-97.74306},{"city":"Nashville","state":"Tennessee","population":689447,"lat":36.16589,"lng":-86.78444},{"city":"Oklahoma City","state":"Oklahoma","population":681054,"lat":35.46756,"lng":-97.51643},{"city":"New South Memphis","state":"Tennessee","population":641608,"lat":35.08676,"lng":-90.05676},{"city":"Memphis","state":"Tennessee","population":633104,"lat":35.14953,"lng":-90.04898},{"city":"Milwaukee","state":"Wisconsin","population":563531,"lat":43.0389,"lng":-87.90647},{"city":"Omaha","state":"Nebraska","population":486051,"lat":41.25626,"lng":-95.94043},{"city":"Kansas City","state":"Missouri","population":475378,"lat":39.09973,"lng":-94.57857},{"city":"Tulsa","state":"Oklahoma","population":413066,"lat":36.15398,"lng":-95.99277},{"city":"Minneapolis","state":"Minnesota","population":410939,"lat":44.97997,"lng":-93.26384},{"city":"Wichita","state":"Kansas","population":396119,"lat":37.69224,"lng":-97.33754},{"city":"Arlington","state":"Texas","population":388125,"lat":32.73569,"lng":-97.10807},{"city":"New Orleans","state":"Louisiana","population":362701,"lat":29.95465,"lng":-90.07507},{"city":"Corpus Christi","state":"Texas","population":316239,"lat":27.80058,"lng":-97.39638},{"city":"Saint Paul","state":"Minnesota","population":303176,"lat":44.94441,"lng":-93.09327},{"city":"Lincoln","state":"Nebraska","population":294757,"lat":40.8,"lng":-96.66696},{"city":"Plano","state":"Texas","population":283558,"lat":33.01984,"lng":-96.69889},{"city":"Madison","state":"Wisconsin","population":280305,"lat":43.07305,"lng":-89.40123},{"city":"St. Louis","state":"Missouri","population":279695,"lat":38.62727,"lng":-90.19789},{"city":"Laredo","state":"Texas","population":256153,"lat":27.50641,"lng":-99.50754},{"city":"Lubbock","state":"Texas","population":249042,"lat":33.57786,"lng":-101.85517},{"city":"Garland","state":"Texas","population":236897,"lat":32.91262,"lng":-96.63888},{"city":"Irving","state":"Texas","population":236607,"lat":32.81402,"lng":-96.94889},{"city":"Baton Rouge","state":"Louisiana","population":227470,"lat":30.44332,"lng":-91.18747},{"city":"Huntsville","state":"Alabama","population":215006,"lat":34.7304,"lng":-86.58594},{"city":"Des Moines","state":"Iowa","population":214133,"lat":41.60054,"lng":-93.60911},{"city":"Little Rock","state":"Arkansas","population":202591,"lat":34.74648,"lng":-92.28959},{"city":"Cypress","state":"Texas","population":200839,"lat":29.96911,"lng":-95.69717},{"city":"Aurora","state":"Illinois","population":200661,"lat":41.76058,"lng":-88.32007},{"city":"Amarillo","state":"Texas","population":198645,"lat":35.222,"lng":-101.8313},{"city":"Birmingham","state":"Alabama","population":196357,"lat":33.52066,"lng":-86.80249},{"city":"Montgomery","state":"Alabama","population":195287,"lat":32.36681,"lng":-86.29997},{"city":"Grand Prairie","state":"Texas","population":187809,"lat":32.74596,"lng":-96.99778},{"city":"Shreveport","state":"Louisiana","population":187593,"lat":32.52515,"lng":-93.75018},{"city":"Brownsville","state":"Texas","population":186738,"lat":25.90175,"lng":-97.49748},{"city":"Overland Park","state":"Kansas","population":186515,"lat":38.98223,"lng":-94.67079},{"city":"Mobile","state":"Alabama","population":183289,"lat":30.69436,"lng":-88.04305},{"city":"Sioux Falls","state":"South Dakota","population":171544,"lat":43.54369,"lng":-96.72796},{"city":"Springfield","state":"Missouri","population":170188,"lat":37.21533,"lng":-93.29824},{"city":"Clarksville","state":"Tennessee","population":166722,"lat":36.52977,"lng":-87.35945},{"city":"Murfreesboro","state":"Tennessee","population":165430,"lat":35.84562,"lng":-86.39027},{"city":"McKinney","state":"Texas","population":162898,"lat":33.19762,"lng":-96.61527},{"city":"Frisco","state":"Texas","population":154407,"lat":33.15067,"lng":-96.82361},{"city":"Pasadena","state":"Texas","population":153784,"lat":29.69106,"lng":-95.2091},{"city":"Jackson","state":"Mississippi","population":153701,"lat":32.29876,"lng":-90.18481},{"city":"Kansas City","state":"Kansas","population":152933,"lat":39.11417,"lng":-94.62746},{"city":"Rockford","state":"Illinois","population":148278,"lat":42.27113,"lng":-89.094},{"city":"Joliet","state":"Illinois","population":147861,"lat":41.52519,"lng":-88.0834},{"city":"Naperville","state":"Illinois","population":147100,"lat":41.78586,"lng":-88.14729},{"city":"Mesquite","state":"Texas","population":144788,"lat":32.7668,"lng":-96.59916},{"city":"Metairie Terrace","state":"Louisiana","population":142489,"lat":29.97854,"lng":-90.16396},{"city":"Killeen","state":"Texas","population":140806,"lat":31.11712,"lng":-97.7278},{"city":"McAllen","state":"Texas","population":140269,"lat":26.20341,"lng":-98.23001},{"city":"Metairie","state":"Louisiana","population":138481,"lat":29.98409,"lng":-90.15285},{"city":"Olathe","state":"Kansas","population":134305,"lat":38.8814,"lng":-94.81913},{"city":"Carrollton","state":"Texas","population":133168,"lat":32.95373,"lng":-96.89028},{"city":"Midland","state":"Texas","population":132524,"lat":31.99735,"lng":-102.07791},{"city":"Waco","state":"Texas","population":132356,"lat":31.54933,"lng":-97.14667},{"city":"Denton","state":"Texas","population":131044,"lat":33.21484,"lng":-97.13307},{"city":"Cedar Rapids","state":"Iowa","population":130405,"lat":42.00833,"lng":-91.64407},{"city":"Columbia","state":"Missouri","population":129330,"lat":38.95171,"lng":-92.33407},{"city":"Norman","state":"Oklahoma","population":128026,"lat":35.22257,"lng":-97.43948},{"city":"Topeka","state":"Kansas","population":125963,"lat":39.04833,"lng":-95.67804},{"city":"Abilene","state":"Texas","population":125182,"lat":32.44874,"lng":-99.73314},{"city":"Lafayette","state":"Louisiana","population":121374,"lat":30.22409,"lng":-92.01984},{"city":"Evansville","state":"Indiana","population":119943,"lat":37.97476,"lng":-87.55585},{"city":"Fargo","state":"North Dakota","population":118523,"lat":46.87719,"lng":-96.7898},{"city":"Independence","state":"Missouri","population":117255,"lat":39.09112,"lng":-94.41551},{"city":"Round Rock","state":"Texas","population":115997,"lat":30.50826,"lng":-97.6789},{"city":"Beaumont","state":"Texas","population":115282,"lat":30.08605,"lng":-94.10185},{"city":"Peoria","state":"Illinois","population":115070,"lat":40.69365,"lng":-89.58899},{"city":"Odessa","state":"Texas","population":114428,"lat":31.84568,"lng":-102.36764},{"city":"Springfield","state":"Illinois","population":114394,"lat":39.80172,"lng":-89.64371},{"city":"North Peoria","state":"Illinois","population":113004,"lat":40.71754,"lng":-89.58426},{"city":"Rochester","state":"Minnesota","population":112225,"lat":44.02163,"lng":-92.4699},{"city":"Elgin","state":"Illinois","population":112111,"lat":42.03725,"lng":-88.28119},{"city":"Tuscaloosa","state":"Alabama","population":111338,"lat":33.20984,"lng":-87.56917},{"city":"Richardson","state":"Texas","population":110815,"lat":32.94818,"lng":-96.72972},{"city":"East Independence","state":"Missouri","population":110675,"lat":39.09556,"lng":-94.35523},{"city":"Pearland","state":"Texas","population":108821,"lat":29.56357,"lng":-95.28605},{"city":"College Station","state":"Texas","population":107889,"lat":30.62798,"lng":-96.33441},{"city":"Broken Arrow","state":"Oklahoma","population":106563,"lat":36.0526,"lng":-95.79082},{"city":"Green Bay","state":"Wisconsin","population":105207,"lat":44.51916,"lng":-88.01983},{"city":"Wichita Falls","state":"Texas","population":104710,"lat":33.91371,"lng":-98.49339},{"city":"Lewisville","state":"Texas","population":104039,"lat":33.04623,"lng":-96.99417},{"city":"Tyler","state":"Texas","population":103700,"lat":32.35126,"lng":-95.30106},{"city":"Davenport","state":"Iowa","population":102582,"lat":41.52364,"lng":-90.57764},{"city":"San Angelo","state":"Texas","population":99893,"lat":31.46377,"lng":-100.43704},{"city":"Kenosha","state":"Wisconsin","population":99858,"lat":42.58474,"lng":-87.82119},{"city":"Alief","state":"Texas","population":98725,"lat":29.71106,"lng":-95.59633},{"city":"League City","state":"Texas","population":98312,"lat":29.50745,"lng":-95.09493},{"city":"Allen","state":"Texas","population":98143,"lat":33.10317,"lng":-96.67055},{"city":"Lawton","state":"Oklahoma","population":96655,"lat":34.60869,"lng":-98.39033},{"city":"Lee's Summit","state":"Missouri","population":95094,"lat":38.91084,"lng":-94.38217},{"city":"Lawrence","state":"Kansas","population":93917,"lat":38.97167,"lng":-95.23525},{"city":"The Woodlands","state":"Texas","population":93847,"lat":30.15799,"lng":-95.48938},{"city":"Edmond","state":"Oklahoma","population":90092,"lat":35.65283,"lng":-97.4781},{"city":"Waukegan","state":"Illinois","population":88475,"lat":42.36363,"lng":-87.84479},{"city":"Fort Smith","state":"Arkansas","population":88194,"lat":35.38592,"lng":-94.39855},{"city":"Sugar Land","state":"Texas","population":88156,"lat":29.61968,"lng":-95.63495},{"city":"Bloomington","state":"Minnesota","population":86435,"lat":44.8408,"lng":-93.29828},{"city":"West Town","state":"Illinois","population":86429,"lat":41.89381,"lng":-87.67493},{"city":"Duluth","state":"Minnesota","population":86110,"lat":46.78327,"lng":-92.10658},{"city":"Champaign","state":"Illinois","population":86096,"lat":40.11642,"lng":-88.24338},{"city":"Near North Side","state":"Illinois","population":85711,"lat":41.90003,"lng":-87.6345},{"city":"O'Fallon","state":"Missouri","population":85040,"lat":38.81061,"lng":-90.69985},{"city":"Hoover","state":"Alabama","population":84848,"lat":33.40539,"lng":-86.81138},{"city":"Edinburg","state":"Texas","population":84497,"lat":26.30174,"lng":-98.16334},{"city":"Cicero","state":"Illinois","population":83886,"lat":41.84559,"lng":-87.75394},{"city":"Mission","state":"Texas","population":83298,"lat":26.21591,"lng":-98.32529},{"city":"Fayetteville","state":"Arkansas","population":82830,"lat":36.06258,"lng":-94.15743},{"city":"Sioux City","state":"Iowa","population":82821,"lat":42.49999,"lng":-96.40031},{"city":"Longview","state":"Texas","population":82287,"lat":32.5007,"lng":-94.74049},{"city":"Bryan","state":"Texas","population":82118,"lat":30.67436,"lng":-96.36996},{"city":"Belmont Cragin","state":"Illinois","population":79159,"lat":41.9317,"lng":-87.76867},{"city":"Brooklyn Park","state":"Minnesota","population":79149,"lat":45.09413,"lng":-93.35634},{"city":"Bloomington","state":"Illinois","population":78292,"lat":40.4842,"lng":-88.99369},{"city":"Springdale","state":"Arkansas","population":77859,"lat":36.18674,"lng":-94.12881},{"city":"Racine","state":"Wisconsin","population":77742,"lat":42.72613,"lng":-87.78285},{"city":"Hammond","state":"Indiana","population":77614,"lat":41.58337,"lng":-87.50004},{"city":"Gary","state":"Indiana","population":77156,"lat":41.59337,"lng":-87.34643},{"city":"Saint Joseph","state":"Missouri","population":76780,"lat":39.76861,"lng":-94.84663},{"city":"Pharr","state":"Texas","population":76538,"lat":26.1948,"lng":-98.18362},{"city":"Baytown","state":"Texas","population":76335,"lat":29.7355,"lng":-94.97743},{"city":"Lake Charles","state":"Louisiana","population":76070,"lat":30.21309,"lng":-93.2044},{"city":"Arlington Heights","state":"Illinois","population":75926,"lat":42.08836,"lng":-87.98063},{"city":"Plymouth","state":"Minnesota","population":75907,"lat":45.01052,"lng":-93.45551},{"city":"Evanston","state":"Illinois","population":75527,"lat":42.04114,"lng":-87.69006},{"city":"Bismarck","state":"North Dakota","population":75092,"lat":46.80833,"lng":-100.78374},{"city":"Schaumburg","state":"Illinois","population":74693,"lat":42.03336,"lng":-88.08341},{"city":"Bolingbrook","state":"Illinois","population":74306,"lat":41.69864,"lng":-88.0684},{"city":"Iowa City","state":"Iowa","population":74220,"lat":41.66113,"lng":-91.53017},{"city":"Missouri City","state":"Texas","population":74139,"lat":29.61857,"lng":-95.53772},{"city":"Appleton","state":"Wisconsin","population":74139,"lat":44.26193,"lng":-88.41538},{"city":"Jonesboro","state":"Arkansas","population":73907,"lat":35.8423,"lng":-90.70428},{"city":"South Lawndale","state":"Illinois","population":73826,"lat":41.84364,"lng":-87.71255},{"city":"Logan Square","state":"Illinois","population":73702,"lat":41.92337,"lng":-87.69922},{"city":"Decatur","state":"Illinois","population":73254,"lat":39.84031,"lng":-88.9548},{"city":"Franklin","state":"Tennessee","population":72639,"lat":35.92506,"lng":-86.86889},{"city":"Temple","state":"Texas","population":72277,"lat":31.09823,"lng":-97.34278},{"city":"West Ridge","state":"Illinois","population":72211,"lat":41.99975,"lng":-87.69284},{"city":"Waukesha","state":"Wisconsin","population":71970,"lat":43.01168,"lng":-88.23148},{"city":"Gulfport","state":"Mississippi","population":71856,"lat":30.36742,"lng":-89.09282},{"city":"West Gulfport","state":"Mississippi","population":71329,"lat":30.40409,"lng":-89.0942},{"city":"Flower Mound","state":"Texas","population":71253,"lat":33.01457,"lng":-97.09696},{"city":"New Braunfels","state":"Texas","population":70543,"lat":29.703,"lng":-98.12445},{"city":"Palatine","state":"Illinois","population":69308,"lat":42.1103,"lng":-88.03424},{"city":"North Richland Hills","state":"Texas","population":69204,"lat":32.8343,"lng":-97.2289},{"city":"Cordova","state":"Tennessee","population":68779,"lat":35.15565,"lng":-89.7762},{"city":"Conroe","state":"Texas","population":68602,"lat":30.31188,"lng":-95.45605},{"city":"Dothan","state":"Alabama","population":68567,"lat":31.22323,"lng":-85.39049},{"city":"Waterloo","state":"Iowa","population":68460,"lat":42.49276,"lng":-92.34296},{"city":"Maple Grove","state":"Minnesota","population":68385,"lat":45.07246,"lng":-93.45579},{"city":"Bossier City","state":"Louisiana","population":68094,"lat":32.51599,"lng":-93.73212},{"city":"Woodbury","state":"Minnesota","population":67855,"lat":44.92386,"lng":-92.95938},{"city":"Eau Claire","state":"Wisconsin","population":67778,"lat":44.81135,"lng":-91.49849},{"city":"Victoria","state":"Texas","population":67574,"lat":28.80527,"lng":-97.0036},{"city":"Kenner","state":"Louisiana","population":67091,"lat":29.99409,"lng":-90.24174},{"city":"Jackson","state":"Tennessee","population":66975,"lat":35.61452,"lng":-88.81395},{"city":"Lincoln Park","state":"Illinois","population":66959,"lat":41.9217,"lng":-87.64783},{"city":"Oshkosh","state":"Wisconsin","population":66555,"lat":44.02471,"lng":-88.54261},{"city":"North Little Rock","state":"Arkansas","population":66504,"lat":34.76954,"lng":-92.26709},{"city":"Eagan","state":"Minnesota","population":66286,"lat":44.80413,"lng":-93.16689},{"city":"Cedar Park","state":"Texas","population":65945,"lat":30.5052,"lng":-97.82029},{"city":"Atascocita","state":"Texas","population":65844,"lat":29.99883,"lng":-95.1766},{"city":"Saint Cloud","state":"Minnesota","population":65842,"lat":45.5608,"lng":-94.16249},{"city":"Saint Charles","state":"Missouri","population":65794,"lat":38.78394,"lng":-90.48123},{"city":"Harlingen","state":"Texas","population":65774,"lat":26.19063,"lng":-97.6961},{"city":"Ames","state":"Iowa","population":65060,"lat":42.03471,"lng":-93.61994},{"city":"Shawnee","state":"Kansas","population":65046,"lat":39.04167,"lng":-94.72024},{"city":"Conway","state":"Arkansas","population":64980,"lat":35.0887,"lng":-92.4421},{"city":"Portage Park","state":"Illinois","population":64841,"lat":41.95781,"lng":-87.76506},{"city":"Skokie","state":"Illinois","population":64821,"lat":42.03336,"lng":-87.73339},{"city":"Mansfield","state":"Texas","population":64274,"lat":32.56319,"lng":-97.14168},{"city":"Janesville","state":"Wisconsin","population":64123,"lat":42.68279,"lng":-89.01872},{"city":"West Des Moines","state":"Iowa","population":64113,"lat":41.57721,"lng":-93.71133},{"city":"Georgetown","state":"Texas","population":63716,"lat":30.63269,"lng":-97.67723},{"city":"Bowling Green","state":"Kentucky","population":63616,"lat":36.99032,"lng":-86.4436},{"city":"Eden Prairie","state":"Minnesota","population":63496,"lat":44.85469,"lng":-93.47079},{"city":"Rogers","state":"Arkansas","population":63159,"lat":36.33202,"lng":-94.11854},{"city":"Council Bluffs","state":"Iowa","population":62597,"lat":41.26194,"lng":-95.86083},{"city":"West Coon Rapids","state":"Minnesota","population":62528,"lat":45.15969,"lng":-93.34967},{"city":"Coon Rapids","state":"Minnesota","population":62240,"lat":45.11997,"lng":-93.28773},{"city":"Blaine","state":"Minnesota","population":62124,"lat":45.1608,"lng":-93.23495},{"city":"Auburn","state":"Alabama","population":62059,"lat":32.60986,"lng":-85.48078},{"city":"Burnsville","state":"Minnesota","population":61481,"lat":44.76774,"lng":-93.27772},{"city":"San Marcos","state":"Texas","population":60684,"lat":29.88327,"lng":-97.94139},{"city":"Lakeville","state":"Minnesota","population":60633,"lat":44.64969,"lng":-93.24272},{"city":"West Allis","state":"Wisconsin","population":60620,"lat":43.01668,"lng":-88.00703},{"city":"Moore","state":"Oklahoma","population":60451,"lat":35.33951,"lng":-97.4867},{"city":"Rowlett","state":"Texas","population":60236,"lat":32.9029,"lng":-96.56388},{"city":"Leander","state":"Texas","population":59202,"lat":30.57881,"lng":-97.85307},{"city":"Owensboro","state":"Kentucky","population":59042,"lat":37.77422,"lng":-87.11333},{"city":"Dubuque","state":"Iowa","population":58799,"lat":42.50056,"lng":-90.66457},{"city":"Des Plaines","state":"Illinois","population":58677,"lat":42.03336,"lng":-87.8834},{"city":"Orland Park","state":"Illinois","population":58619,"lat":41.63031,"lng":-87.85394},{"city":"Bartlett","state":"Tennessee","population":58579,"lat":35.20453,"lng":-89.87398},{"city":"Midwest City","state":"Oklahoma","population":57249,"lat":35.44951,"lng":-97.3967},{"city":"Tinley Park","state":"Illinois","population":57143,"lat":41.57337,"lng":-87.78449},{"city":"Pflugerville","state":"Texas","population":57122,"lat":30.43937,"lng":-97.62},{"city":"Grand Forks","state":"North Dakota","population":57011,"lat":47.92526,"lng":-97.03285},{"city":"Oak Lawn","state":"Illinois","population":56781,"lat":41.71087,"lng":-87.75811},{"city":"Ankeny","state":"Iowa","population":56764,"lat":41.72971,"lng":-93.60577},{"city":"Irving Park","state":"Illinois","population":56520,"lat":41.95336,"lng":-87.73645},{"city":"Berwyn","state":"Illinois","population":56368,"lat":41.85059,"lng":-87.79367},{"city":"Manhattan","state":"Kansas","population":56308,"lat":39.18361,"lng":-96.57167},{"city":"Hendersonville","state":"Tennessee","population":56018,"lat":36.30477,"lng":-86.62},{"city":"Chicago Lawn","state":"Illinois","population":55551,"lat":41.77503,"lng":-87.69644},{"city":"Bellevue","state":"Nebraska","population":55510,"lat":41.13667,"lng":-95.89084},{"city":"Decatur","state":"Alabama","population":55437,"lat":34.60593,"lng":-86.98334},{"city":"Port Arthur","state":"Texas","population":55340,"lat":29.88519,"lng":-93.94233},{"city":"Uptown","state":"Illinois","population":55137,"lat":41.9659,"lng":-87.65262},{"city":"Edgewater","state":"Illinois","population":54873,"lat":41.98337,"lng":-87.66395},{"city":"Mount Prospect","state":"Illinois","population":54747,"lat":42.06642,"lng":-87.93729},{"city":"Rogers Park","state":"Illinois","population":54402,"lat":42.00864,"lng":-87.66672},{"city":"Normal","state":"Illinois","population":54373,"lat":40.5142,"lng":-88.99063},{"city":"Spring","state":"Texas","population":54298,"lat":30.07994,"lng":-95.41716},{"city":"Euless","state":"Texas","population":54219,"lat":32.83707,"lng":-97.08195},{"city":"Blue Springs","state":"Missouri","population":54148,"lat":39.01695,"lng":-94.28161},{"city":"East Pensacola Heights","state":"Florida","population":54104,"lat":30.42881,"lng":-87.17997},{"city":"Pensacola","state":"Florida","population":53724,"lat":30.42131,"lng":-87.21691},{"city":"Wheaton","state":"Illinois","population":53715,"lat":41.86614,"lng":-88.10701},{"city":"University of Texas","state":"Texas","population":53082,"lat":30.28604,"lng":-97.73889},{"city":"Southaven","state":"Mississippi","population":52589,"lat":34.98898,"lng":-90.01259},{"city":"Saint Peters","state":"Missouri","population":52575,"lat":38.80033,"lng":-90.62651},{"city":"Lenexa","state":"Kansas","population":52490,"lat":38.95362,"lng":-94.73357},{"city":"DeSoto","state":"Texas","population":52486,"lat":32.58986,"lng":-96.85695},{"city":"La Crosse","state":"Wisconsin","population":52306,"lat":43.80136,"lng":-91.23958},{"city":"Oak Park","state":"Illinois","population":52287,"lat":41.88503,"lng":-87.7845},{"city":"Florissant","state":"Missouri","population":52268,"lat":38.78922,"lng":-90.32261},{"city":"Hoffman Estates","state":"Illinois","population":52138,"lat":42.04281,"lng":-88.0798},{"city":"Albany Park","state":"Illinois","population":52079,"lat":41.96836,"lng":-87.72339},{"city":"Joplin","state":"Missouri","population":51818,"lat":37.08423,"lng":-94.51328},{"city":"Enid","state":"Oklahoma","population":51776,"lat":36.39559,"lng":-97.87839},{"city":"Minnetonka","state":"Minnesota","population":51669,"lat":44.9133,"lng":-93.50329},{"city":"South Shore","state":"Illinois","population":51451,"lat":41.76198,"lng":-87.57783},{"city":"Grand Island","state":"Nebraska","population":51440,"lat":40.92501,"lng":-98.34201},{"city":"Grapevine","state":"Texas","population":51404,"lat":32.93429,"lng":-97.07807},{"city":"Apple Valley","state":"Minnesota","population":51221,"lat":44.73191,"lng":-93.21772},{"city":"The Trails of Frisco","state":"Texas","population":51059,"lat":33.16087,"lng":-96.87182},{"city":"North La Crosse","state":"Wisconsin","population":50470,"lat":43.84635,"lng":-91.24819},{"city":"Galveston","state":"Texas","population":50180,"lat":29.30135,"lng":-94.7977},{"city":"Edina","state":"Minnesota","population":50138,"lat":44.88969,"lng":-93.34995},{"city":"Minnetonka Mills","state":"Minnesota","population":50117,"lat":44.94107,"lng":-93.4419},{"city":"Downers Grove","state":"Illinois","population":49732,"lat":41.80892,"lng":-88.01117},{"city":"Monroe","state":"Louisiana","population":49598,"lat":32.50931,"lng":-92.1193},{"city":"Minot","state":"North Dakota","population":49450,"lat":48.23251,"lng":-101.29627},{"city":"Bedford","state":"Texas","population":49337,"lat":32.84402,"lng":-97.14307},{"city":"Stillwater","state":"Oklahoma","population":48967,"lat":36.11561,"lng":-97.05837},{"city":"Collierville","state":"Tennessee","population":48863,"lat":35.04204,"lng":-89.66453},{"city":"Sheboygan","state":"Wisconsin","population":48797,"lat":43.75083,"lng":-87.71453},{"city":"Cedar Hill","state":"Texas","population":48507,"lat":32.58847,"lng":-96.95612},{"city":"Alexandria","state":"Louisiana","population":47889,"lat":31.31129,"lng":-92.44514},{"city":"Chesterfield","state":"Missouri","population":47864,"lat":38.66311,"lng":-90.57707},{"city":"Salina","state":"Kansas","population":47813,"lat":38.84028,"lng":-97.61142},{"city":"Texas City","state":"Texas","population":47618,"lat":29.38385,"lng":-94.9027},{"city":"Wauwatosa","state":"Wisconsin","population":47614,"lat":43.04946,"lng":-88.00759},{"city":"Glenview","state":"Illinois","population":47446,"lat":42.06975,"lng":-87.78784},{"city":"Madison","state":"Alabama","population":46962,"lat":34.69926,"lng":-86.74833},{"city":"Hattiesburg","state":"Mississippi","population":46805,"lat":31.32712,"lng":-89.29034},{"city":"Wylie","state":"Texas","population":46708,"lat":33.01512,"lng":-96.53888},{"city":"Smyrna","state":"Tennessee","population":46607,"lat":35.98284,"lng":-86.5186},{"city":"Elmhurst","state":"Illinois","population":45957,"lat":41.89947,"lng":-87.94034},{"city":"Auburn Gresham","state":"Illinois","population":45842,"lat":41.74179,"lng":-87.65322},{"city":"Keller","state":"Texas","population":45758,"lat":32.93457,"lng":-97.25168},{"city":"Biloxi","state":"Mississippi","population":45637,"lat":30.39603,"lng":-88.88531},{"city":"Saint Louis Park","state":"Minnesota","population":45250,"lat":44.9483,"lng":-93.34801},{"city":"Pine Bluff","state":"Arkansas","population":44772,"lat":34.22843,"lng":-92.0032},{"city":"Bentonville","state":"Arkansas","population":44499,"lat":36.37285,"lng":-94.20882},{"city":"Haltom City","state":"Texas","population":44206,"lat":32.79957,"lng":-97.26918},{"city":"Brighton Park","state":"Illinois","population":44202,"lat":41.81892,"lng":-87.69894},{"city":"Urbandale","state":"Iowa","population":44062,"lat":41.62666,"lng":-93.71217},{"city":"Lombard","state":"Illinois","population":43797,"lat":41.88003,"lng":-88.00784},{"city":"Burleson","state":"Texas","population":43625,"lat":32.54208,"lng":-97.32085},{"city":"DeKalb","state":"Illinois","population":43211,"lat":41.92947,"lng":-88.75036},{"city":"Schertz","state":"Texas","population":43091,"lat":29.55217,"lng":-98.26973},{"city":"Fond du Lac","state":"Wisconsin","population":42933,"lat":43.775,"lng":-88.43883},{"city":"Ashburn","state":"Illinois","population":42752,"lat":41.74753,"lng":-87.71116},{"city":"Moline","state":"Illinois","population":42681,"lat":41.5067,"lng":-90.51513},{"city":"Jefferson City","state":"Missouri","population":42595,"lat":38.5767,"lng":-92.17352},{"city":"Rockwall","state":"Texas","population":42566,"lat":32.93123,"lng":-96.45971},{"city":"Plainfield","state":"Illinois","population":42527,"lat":41.62697,"lng":-88.20395},{"city":"Urbana","state":"Illinois","population":42311,"lat":40.11059,"lng":-88.20727},{"city":"Belleville","state":"Illinois","population":42034,"lat":38.52005,"lng":-89.98399},{"city":"Moorhead","state":"Minnesota","population":42005,"lat":46.87386,"lng":-96.76951},{"city":"The Colony","state":"Texas","population":41779,"lat":33.08901,"lng":-96.88639},{"city":"Brentwood","state":"Tennessee","population":41763,"lat":36.03312,"lng":-86.78278},{"city":"Hutchinson","state":"Kansas","population":41569,"lat":38.06084,"lng":-97.92977},{"city":"Bartlett","state":"Illinois","population":41545,"lat":41.99503,"lng":-88.18563},{"city":"Buffalo Grove","state":"Illinois","population":41496,"lat":42.15141,"lng":-87.95979},{"city":"Cedar Falls","state":"Iowa","population":41255,"lat":42.52776,"lng":-92.44547},{"city":"Gage Park","state":"Illinois","population":41202,"lat":41.79503,"lng":-87.69616},{"city":"Coppell","state":"Texas","population":41159,"lat":32.95457,"lng":-97.01501},{"city":"Mankato","state":"Minnesota","population":41044,"lat":44.15906,"lng":-94.00915},{"city":"New City","state":"Illinois","population":40997,"lat":41.80753,"lng":-87.65644},{"city":"Huntsville","state":"Texas","population":40938,"lat":30.72353,"lng":-95.55078},{"city":"Quincy","state":"Illinois","population":40780,"lat":39.9356,"lng":-91.40987},{"city":"Lincoln Square","state":"Illinois","population":40761,"lat":41.97587,"lng":-87.68922},{"city":"Sherman","state":"Texas","population":40667,"lat":33.63566,"lng":-96.60888},{"city":"Maplewood","state":"Minnesota","population":40567,"lat":44.95302,"lng":-92.99522},{"city":"Streamwood","state":"Illinois","population":40554,"lat":42.02558,"lng":-88.17841},{"city":"Crystal Lake","state":"Illinois","population":40448,"lat":42.24113,"lng":-88.3162},{"city":"Carol Stream","state":"Illinois","population":40356,"lat":41.91253,"lng":-88.13479},{"city":"Florence","state":"Alabama","population":40026,"lat":34.79981,"lng":-87.67725},{"city":"Shakopee","state":"Minnesota","population":39981,"lat":44.79802,"lng":-93.5269},{"city":"Duncanville","state":"Texas","population":39826,"lat":32.6518,"lng":-96.90834},{"city":"New Berlin","state":"Wisconsin","population":39825,"lat":42.9764,"lng":-88.10842},{"city":"Avondale","state":"Illinois","population":39721,"lat":41.93892,"lng":-87.71117},{"city":"Romeoville","state":"Illinois","population":39719,"lat":41.64753,"lng":-88.08951},{"city":"Meridian","state":"Mississippi","population":39661,"lat":32.36431,"lng":-88.70366},{"city":"Weslaco","state":"Texas","population":39474,"lat":26.15952,"lng":-97.99084},{"city":"Cape Girardeau","state":"Missouri","population":39462,"lat":37.30588,"lng":-89.51815},{"city":"Germantown","state":"Tennessee","population":39240,"lat":35.08676,"lng":-89.81009},{"city":"Wausau","state":"Wisconsin","population":39094,"lat":44.95914,"lng":-89.63012},{"city":"Hurst","state":"Texas","population":39016,"lat":32.82346,"lng":-97.17057},{"city":"Lancaster","state":"Texas","population":38801,"lat":32.59208,"lng":-96.75611},{"city":"Friendswood","state":"Texas","population":38800,"lat":29.5294,"lng":-95.20104},{"city":"Rock Island","state":"Illinois","population":38620,"lat":41.50948,"lng":-90.57875},{"city":"Carpentersville","state":"Illinois","population":38512,"lat":42.12114,"lng":-88.25786},{"city":"Muskogee","state":"Oklahoma","population":38456,"lat":35.74788,"lng":-95.36969},{"city":"Little Elm","state":"Texas","population":38341,"lat":33.16262,"lng":-96.93751},{"city":"Hanover Park","state":"Illinois","population":38333,"lat":41.99947,"lng":-88.14507},{"city":"Channelview","state":"Texas","population":38289,"lat":29.77606,"lng":-95.11465},{"city":"Panama City","state":"Florida","population":38286,"lat":30.15946,"lng":-85.65983},{"city":"Wheeling","state":"Illinois","population":38079,"lat":42.13919,"lng":-87.92896},{"city":"Brookfield","state":"Wisconsin","population":38025,"lat":43.06057,"lng":-88.10648},{"city":"Hermitage","state":"Tennessee","population":37814,"lat":36.19617,"lng":-86.6225},{"city":"Park Ridge","state":"Illinois","population":37757,"lat":42.01114,"lng":-87.84062},{"city":"Greenfield","state":"Wisconsin","population":37349,"lat":42.9614,"lng":-88.01259},{"city":"Marion","state":"Iowa","population":37330,"lat":42.03417,"lng":-91.59768},{"city":"Texarkana","state":"Texas","population":37280,"lat":33.42513,"lng":-94.04769},{"city":"Addison","state":"Illinois","population":37208,"lat":41.9317,"lng":-87.98896},{"city":"Calumet City","state":"Illinois","population":37031,"lat":41.61559,"lng":-87.52949},{"city":"Beloit","state":"Wisconsin","population":36891,"lat":42.50835,"lng":-89.03178},{"city":"Columbia","state":"Tennessee","population":36800,"lat":35.61507,"lng":-87.03528},{"city":"Portage","state":"Indiana","population":36738,"lat":41.57587,"lng":-87.17615},{"city":"Bartlesville","state":"Oklahoma","population":36595,"lat":36.74731,"lng":-95.98082},{"city":"San Juan","state":"Texas","population":36556,"lat":26.18924,"lng":-98.15529},{"city":"Mission Bend","state":"Texas","population":36501,"lat":29.69384,"lng":-95.66495},{"city":"Lufkin","state":"Texas","population":36333,"lat":31.33824,"lng":-94.7291},{"city":"Franklin","state":"Wisconsin","population":36222,"lat":42.88863,"lng":-88.03842},{"city":"Richfield","state":"Minnesota","population":36216,"lat":44.8833,"lng":-93.283},{"city":"Del Rio","state":"Texas","population":36153,"lat":29.36273,"lng":-100.89676},{"city":"Oakville","state":"Missouri","population":36143,"lat":38.47005,"lng":-90.30456},{"city":"Menomonee Falls","state":"Wisconsin","population":36119,"lat":43.1789,"lng":-88.11731},{"city":"Gadsden","state":"Alabama","population":36084,"lat":34.01434,"lng":-86.00639},{"city":"Spring Hill","state":"Tennessee","population":36055,"lat":35.75118,"lng":-86.93},{"city":"Olive Branch","state":"Mississippi","population":36010,"lat":34.96176,"lng":-89.82953},{"city":"Leavenworth","state":"Kansas","population":35980,"lat":39.31111,"lng":-94.92246},{"city":"Cottage Grove","state":"Minnesota","population":35918,"lat":44.82774,"lng":-92.94382},{"city":"Wildwood","state":"Missouri","population":35899,"lat":38.58283,"lng":-90.6629},{"city":"East Florence","state":"Alabama","population":35733,"lat":34.80953,"lng":-87.64947},{"city":"Kyle","state":"Texas","population":35733,"lat":29.98911,"lng":-97.87723},{"city":"Tupelo","state":"Mississippi","population":35680,"lat":34.25807,"lng":-88.70464},{"city":"Hot Springs","state":"Arkansas","population":35635,"lat":34.5037,"lng":-93.05518},{"city":"Wentzville","state":"Missouri","population":35603,"lat":38.81144,"lng":-90.85291},{"city":"Roseville","state":"Minnesota","population":35580,"lat":45.00608,"lng":-93.15661},{"city":"Rosenberg","state":"Texas","population":35510,"lat":29.55718,"lng":-95.80856},{"city":"Bettendorf","state":"Iowa","population":35505,"lat":41.52448,"lng":-90.51569},{"city":"Prattville","state":"Alabama","population":35420,"lat":32.46402,"lng":-86.4597},{"city":"North Lawndale","state":"Illinois","population":35276,"lat":41.86003,"lng":-87.71839},{"city":"Oak Creek","state":"Wisconsin","population":35243,"lat":42.88585,"lng":-87.86314},{"city":"Merrillville","state":"Indiana","population":35224,"lat":41.48281,"lng":-87.33281},{"city":"La Porte","state":"Texas","population":35148,"lat":29.66578,"lng":-95.01937},{"city":"University City","state":"Missouri","population":35058,"lat":38.65588,"lng":-90.30928},{"city":"Inver Grove Heights","state":"Minnesota","population":34857,"lat":44.84802,"lng":-93.04272},{"city":"La Vergne","state":"Tennessee","population":34794,"lat":36.01562,"lng":-86.58194},{"city":"North Center","state":"Illinois","population":34623,"lat":41.95392,"lng":-87.67895},{"city":"Leawood","state":"Kansas","population":34579,"lat":38.96667,"lng":-94.6169},{"city":"Owasso","state":"Oklahoma","population":34542,"lat":36.26954,"lng":-95.85471},{"city":"Lower West Side","state":"Illinois","population":34410,"lat":41.8542,"lng":-87.66561},{"city":"Gallatin","state":"Tennessee","population":34334,"lat":36.38838,"lng":-86.44666},{"city":"Houma","state":"Louisiana","population":34287,"lat":29.59577,"lng":-90.71953},{"city":"Glendale Heights","state":"Illinois","population":34208,"lat":41.9146,"lng":-88.06486},{"city":"Benton","state":"Arkansas","population":34177,"lat":34.56454,"lng":-92.58683},{"city":"Vestavia Hills","state":"Alabama","population":34174,"lat":33.44872,"lng":-86.78777},{"city":"Oswego","state":"Illinois","population":33955,"lat":41.68281,"lng":-88.35146},{"city":"Nacogdoches","state":"Texas","population":33894,"lat":31.60351,"lng":-94.65549},{"city":"Bridgeport","state":"Illinois","population":33878,"lat":41.83809,"lng":-87.65116},{"city":"Deer Park","state":"Texas","population":33806,"lat":29.70523,"lng":-95.12382},{"city":"Northbrook","state":"Illinois","population":33663,"lat":42.12753,"lng":-87.82895},{"city":"West Fargo","state":"North Dakota","population":33597,"lat":46.87497,"lng":-96.90036},{"city":"Chicago Loop","state":"Illinois","population":33442,"lat":41.88407,"lng":-87.6333},{"city":"Cibolo","state":"Texas","population":33433,"lat":29.56162,"lng":-98.22696},{"city":"Waxahachie","state":"Texas","population":33384,"lat":32.38653,"lng":-96.84833},{"city":"Woodridge","state":"Illinois","population":33370,"lat":41.74697,"lng":-88.05034},{"city":"Elk Grove Village","state":"Illinois","population":33238,"lat":42.00392,"lng":-87.97035},{"city":"Pekin","state":"Illinois","population":33223,"lat":40.56754,"lng":-89.64066},{"city":"Marrero","state":"Louisiana","population":33141,"lat":29.89937,"lng":-90.10035},{"city":"Copperas Cove","state":"Texas","population":33081,"lat":31.12406,"lng":-97.90308},{"city":"Kearney","state":"Nebraska","population":33021,"lat":40.69946,"lng":-99.08148},{"city":"Manitowoc","state":"Wisconsin","population":33010,"lat":44.08861,"lng":-87.65758},{"city":"St. Charles","state":"Illinois","population":32974,"lat":41.91419,"lng":-88.30869},{"city":"West Lawn","state":"Illinois","population":32749,"lat":41.77281,"lng":-87.72227},{"city":"Alabaster","state":"Alabama","population":32707,"lat":33.24428,"lng":-86.81638},{"city":"Farmers Branch","state":"Texas","population":32689,"lat":32.92651,"lng":-96.89612},{"city":"Valparaiso","state":"Indiana","population":32626,"lat":41.47309,"lng":-87.06114},{"city":"Santa Rosa Beach","state":"Florida","population":32459,"lat":30.39603,"lng":-86.22883},{"city":"Sun Prairie","state":"Wisconsin","population":32365,"lat":43.1836,"lng":-89.21373},{"city":"Greater Grand Crossing","state":"Illinois","population":32346,"lat":41.76113,"lng":-87.61485},{"city":"Andover","state":"Minnesota","population":32213,"lat":45.2333,"lng":-93.29134},{"city":"Hopkinsville","state":"Kentucky","population":32205,"lat":36.86561,"lng":-87.49117},{"city":"Greenville","state":"Mississippi","population":32156,"lat":33.40898,"lng":-91.05978},{"city":"West Englewood","state":"Illinois","population":32156,"lat":41.77809,"lng":-87.66672},{"city":"Cookeville","state":"Tennessee","population":32113,"lat":36.16284,"lng":-85.50164},{"city":"Danville","state":"Illinois","population":32108,"lat":40.12448,"lng":-87.63002},{"city":"West Bend","state":"Wisconsin","population":31695,"lat":43.42528,"lng":-88.18343},{"city":"Mundelein","state":"Illinois","population":31582,"lat":42.26308,"lng":-88.00397},{"city":"Mount Juliet","state":"Tennessee","population":31540,"lat":36.20005,"lng":-86.51861},{"city":"Michigan City","state":"Indiana","population":31459,"lat":41.70754,"lng":-86.89503},{"city":"Chatham","state":"Illinois","population":31392,"lat":41.74115,"lng":-87.61255},{"city":"Navarre","state":"Florida","population":31378,"lat":30.40159,"lng":-86.86357},{"city":"Shawnee","state":"Oklahoma","population":31286,"lat":35.32729,"lng":-96.9253},{"city":"Brentwood Estates","state":"Tennessee","population":31279,"lat":36.02506,"lng":-86.77917},{"city":"Galesburg","state":"Illinois","population":31273,"lat":40.94782,"lng":-90.37124},{"city":"Gurnee","state":"Illinois","population":31056,"lat":42.3703,"lng":-87.90202},{"city":"Brooklyn Center","state":"Minnesota","population":30770,"lat":45.07608,"lng":-93.33273},{"city":"New Iberia","state":"Louisiana","population":30754,"lat":30.00354,"lng":-91.81873},{"city":"Ballwin","state":"Missouri","population":30577,"lat":38.59505,"lng":-90.54623},{"city":"Algonquin","state":"Illinois","population":30571,"lat":42.16558,"lng":-88.29425},{"city":"Sherwood","state":"Arkansas","population":30517,"lat":34.81509,"lng":-92.22432},{"city":"Liberty","state":"Missouri","population":30450,"lat":39.24611,"lng":-94.41912},{"city":"Savage","state":"Minnesota","population":30391,"lat":44.77913,"lng":-93.33634},{"city":"Texarkana","state":"Arkansas","population":30353,"lat":33.44179,"lng":-94.03769},{"city":"Chicago Heights","state":"Illinois","population":30284,"lat":41.50615,"lng":-87.6356},{"city":"Lebanon","state":"Tennessee","population":30262,"lat":36.20811,"lng":-86.2911},{"city":"Cleburne","state":"Texas","population":30020,"lat":32.34764,"lng":-97.38668},{"city":"Southlake","state":"Texas","population":29941,"lat":32.94124,"lng":-97.13418},{"city":"Niles","state":"Illinois","population":29876,"lat":42.01892,"lng":-87.80284},{"city":"Laplace","state":"Louisiana","population":29872,"lat":30.06698,"lng":-90.48147},{"city":"Highland Park","state":"Illinois","population":29743,"lat":42.18169,"lng":-87.80034},{"city":"Fort Cavazos","state":"Texas","population":29589,"lat":31.13489,"lng":-97.77561},{"city":"Opelika","state":"Alabama","population":29527,"lat":32.64541,"lng":-85.37828},{"city":"North Chicago","state":"Illinois","population":29491,"lat":42.32558,"lng":-87.84118},{"city":"Raytown","state":"Missouri","population":29401,"lat":39.00862,"lng":-94.46356},{"city":"Longfellow Community","state":"Minnesota","population":29295,"lat":44.94256,"lng":-93.22557},{"city":"Upper Alton","state":"Illinois","population":29251,"lat":38.91144,"lng":-90.15066},{"city":"Russellville","state":"Arkansas","population":29166,"lat":35.27842,"lng":-93.13379},{"city":"Harker Heights","state":"Texas","population":29142,"lat":31.08351,"lng":-97.65974},{"city":"Burbank","state":"Illinois","population":29128,"lat":41.73392,"lng":-87.7795},{"city":"Granite City","state":"Illinois","population":29054,"lat":38.70144,"lng":-90.14872},{"city":"Lake in the Hills","state":"Illinois","population":29024,"lat":42.18169,"lng":-88.33036},{"city":"O'Fallon","state":"Illinois","population":29002,"lat":38.59227,"lng":-89.91121},{"city":"Ferry Pass","state":"Florida","population":28921,"lat":30.5102,"lng":-87.21247},{"city":"Henderson","state":"Kentucky","population":28890,"lat":37.83615,"lng":-87.59001},{"city":"Crown Point","state":"Indiana","population":28879,"lat":41.41698,"lng":-87.36531},{"city":"Big Spring","state":"Texas","population":28862,"lat":32.2504,"lng":-101.47874},{"city":"Schererville","state":"Indiana","population":28791,"lat":41.47892,"lng":-87.45476},{"city":"Eagle Pass","state":"Texas","population":28765,"lat":28.70914,"lng":-100.49952},{"city":"Weatherford","state":"Texas","population":28742,"lat":32.7593,"lng":-97.79725},{"city":"East Chicago","state":"Indiana","population":28699,"lat":41.6392,"lng":-87.45476},{"city":"Jacksonville","state":"Arkansas","population":28643,"lat":34.8662,"lng":-92.11015},{"city":"Hobart","state":"Indiana","population":28404,"lat":41.53226,"lng":-87.25504},{"city":"Mehlville","state":"Missouri","population":28380,"lat":38.50839,"lng":-90.32289},{"city":"Lansing","state":"Illinois","population":28349,"lat":41.56476,"lng":-87.53893},{"city":"Central","state":"Louisiana","population":28295,"lat":30.55435,"lng":-91.03677},{"city":"Glen Ellyn","state":"Illinois","population":28201,"lat":41.87753,"lng":-88.06701},{"city":"Aberdeen","state":"South Dakota","population":28102,"lat":45.4647,"lng":-98.48648},{"city":"South Chicago","state":"Illinois","population":28095,"lat":41.73977,"lng":-87.55425},{"city":"Oakdale","state":"Minnesota","population":28080,"lat":44.96302,"lng":-92.96494},{"city":"Oak Forest","state":"Illinois","population":28074,"lat":41.60281,"lng":-87.74394},{"city":"Bella Vista","state":"Arkansas","population":27999,"lat":36.4807,"lng":-94.27134},{"city":"Fitchburg","state":"Wisconsin","population":27996,"lat":42.96083,"lng":-89.46984},{"city":"Enterprise","state":"Alabama","population":27978,"lat":31.31517,"lng":-85.85522},{"city":"Slidell","state":"Louisiana","population":27942,"lat":30.27519,"lng":-89.78117},{"city":"Dodge City","state":"Kansas","population":27912,"lat":37.7528,"lng":-100.01708},{"city":"Paragould","state":"Arkansas","population":27900,"lat":36.0584,"lng":-90.49733},{"city":"Seguin","state":"Texas","population":27864,"lat":29.56884,"lng":-97.96473},{"city":"Round Lake Beach","state":"Illinois","population":27852,"lat":42.37169,"lng":-88.09008},{"city":"Kirkwood","state":"Missouri","population":27750,"lat":38.58339,"lng":-90.40678},{"city":"Fridley","state":"Minnesota","population":27713,"lat":45.08608,"lng":-93.26328},{"city":"Marshalltown","state":"Iowa","population":27620,"lat":42.04943,"lng":-92.90798},{"city":"Lake Jackson","state":"Texas","population":27533,"lat":29.03386,"lng":-95.43439},{"city":"West Chicago","state":"Illinois","population":27447,"lat":41.88475,"lng":-88.20396},{"city":"Wilmette","state":"Illinois","population":27413,"lat":42.07225,"lng":-87.72284},{"city":"Maryland Heights","state":"Missouri","population":27389,"lat":38.71311,"lng":-90.42984},{"city":"Mason City","state":"Iowa","population":27366,"lat":43.15357,"lng":-93.20104},{"city":"Winona","state":"Minnesota","population":27094,"lat":44.04996,"lng":-91.63932},{"city":"East Saint Louis","state":"Illinois","population":27006,"lat":38.6245,"lng":-90.15094},{"city":"Garden City","state":"Kansas","population":27005,"lat":37.97169,"lng":-100.87266},{"city":"Alton","state":"Illinois","population":27003,"lat":38.8906,"lng":-90.18428},{"city":"Williston","state":"North Dakota","population":26977,"lat":48.14697,"lng":-103.61797},{"city":"Horn Lake","state":"Mississippi","population":26915,"lat":34.95537,"lng":-90.03481},{"city":"Prairieville","state":"Louisiana","population":26895,"lat":30.30297,"lng":-90.97205},{"city":"Hyde Park","state":"Illinois","population":26893,"lat":41.7942,"lng":-87.59394},{"city":"Gladstone","state":"Missouri","population":26861,"lat":39.20389,"lng":-94.55468},{"city":"Bessemer","state":"Alabama","population":26730,"lat":33.40178,"lng":-86.95444},{"city":"Kankakee","state":"Illinois","population":26676,"lat":41.12003,"lng":-87.86115},{"city":"McHenry","state":"Illinois","population":26657,"lat":42.33335,"lng":-88.26675},{"city":"Stevens Point","state":"Wisconsin","population":26604,"lat":44.52358,"lng":-89.57456},{"city":"Superior","state":"Wisconsin","population":26579,"lat":46.72077,"lng":-92.10408},{"city":"Greenville","state":"Texas","population":26515,"lat":33.13845,"lng":-96.11081},{"city":"Batavia","state":"Illinois","population":26495,"lat":41.85003,"lng":-88.31257},{"city":"Cantonment","state":"Florida","population":26493,"lat":30.60853,"lng":-87.33998},{"city":"Shoreview","state":"Minnesota","population":26477,"lat":45.07913,"lng":-93.14717},{"city":"Fremont","state":"Nebraska","population":26474,"lat":41.43333,"lng":-96.49808},{"city":"Pearl","state":"Mississippi","population":26462,"lat":32.27459,"lng":-90.13203},{"city":"Carbondale","state":"Illinois","population":26399,"lat":37.72727,"lng":-89.21675},{"city":"Vernon Hills","state":"Illinois","population":26314,"lat":42.21947,"lng":-87.97952},{"city":"Mount Pleasant","state":"Wisconsin","population":26272,"lat":42.69743,"lng":-87.85577},{"city":"Kingsville","state":"Texas","population":26225,"lat":27.51587,"lng":-97.85611},{"city":"Englewood","state":"Illinois","population":26121,"lat":41.77976,"lng":-87.64588},{"city":"Clinton","state":"Iowa","population":26064,"lat":41.84447,"lng":-90.18874},{"city":"Huntley","state":"Illinois","population":26005,"lat":42.16808,"lng":-88.42814},{"city":"Yukon","state":"Oklahoma","population":25892,"lat":35.50672,"lng":-97.76254},{"city":"Ellendale","state":"Tennessee","population":25882,"lat":35.23064,"lng":-89.82592},{"city":"Ramsey","state":"Minnesota","population":25828,"lat":45.2611,"lng":-93.45},{"city":"New Lenox","state":"Illinois","population":25800,"lat":41.51198,"lng":-87.96561},{"city":"Madison","state":"Mississippi","population":25799,"lat":32.46181,"lng":-90.11536},{"city":"Neenah","state":"Wisconsin","population":25792,"lat":44.18582,"lng":-88.46261},{"city":"Alvin","state":"Texas","population":25791,"lat":29.42385,"lng":-95.2441},{"city":"Owatonna","state":"Minnesota","population":25725,"lat":44.08385,"lng":-93.22604},{"city":"Homewood","state":"Alabama","population":25708,"lat":33.47177,"lng":-86.80082},{"city":"Hazelwood","state":"Missouri","population":25661,"lat":38.77144,"lng":-90.37095},{"city":"Cabot","state":"Arkansas","population":25587,"lat":34.97453,"lng":-92.01653},{"city":"Colleyville","state":"Texas","population":25487,"lat":32.88096,"lng":-97.15501},{"city":"Burlington","state":"Iowa","population":25410,"lat":40.80754,"lng":-91.11292},{"city":"Melrose Park","state":"Illinois","population":25379,"lat":41.90059,"lng":-87.85673},{"city":"Starkville","state":"Mississippi","population":25366,"lat":33.45049,"lng":-88.81961},{"city":"Chanhassen","state":"Minnesota","population":25332,"lat":44.86219,"lng":-93.53079},{"city":"Prior Lake","state":"Minnesota","population":25282,"lat":44.7133,"lng":-93.42273},{"city":"Grandview","state":"Missouri","population":25256,"lat":38.88584,"lng":-94.53301},{"city":"Clinton","state":"Mississippi","population":25254,"lat":32.34153,"lng":-90.32176},{"city":"Balch Springs","state":"Texas","population":25210,"lat":32.72874,"lng":-96.62277},{"city":"White Bear Lake","state":"Minnesota","population":25205,"lat":45.08469,"lng":-93.00994},{"city":"Chaska","state":"Minnesota","population":25199,"lat":44.78941,"lng":-93.60218},{"city":"Harvey","state":"Illinois","population":25194,"lat":41.61003,"lng":-87.64671},{"city":"Woodstock","state":"Illinois","population":25189,"lat":42.31474,"lng":-88.4487},{"city":"Ardmore","state":"Oklahoma","population":25176,"lat":34.17426,"lng":-97.14363},{"city":"Lockport","state":"Illinois","population":25175,"lat":41.58948,"lng":-88.05784},{"city":"Belvidere","state":"Illinois","population":25132,"lat":42.26391,"lng":-88.84427},{"city":"West Memphis","state":"Arkansas","population":25052,"lat":35.14648,"lng":-90.18454},{"city":"Edwardsville","state":"Illinois","population":24992,"lat":38.81144,"lng":-89.95316},{"city":"Athens","state":"Alabama","population":24966,"lat":34.80243,"lng":-86.97219},{"city":"Westmont","state":"Illinois","population":24941,"lat":41.79586,"lng":-87.97562},{"city":"Hastings","state":"Nebraska","population":24924,"lat":40.58612,"lng":-98.38839},{"city":"Daphne","state":"Alabama","population":24896,"lat":30.60353,"lng":-87.9036},{"city":"Paducah","state":"Kentucky","population":24864,"lat":37.08339,"lng":-88.60005},{"city":"Elmwood Park","state":"Illinois","population":24840,"lat":41.92114,"lng":-87.80923},{"city":"Paris","state":"Texas","population":24782,"lat":33.66094,"lng":-95.55551},{"city":"Northport","state":"Alabama","population":24772,"lat":33.22901,"lng":-87.57723},{"city":"University Park","state":"Texas","population":24759,"lat":32.85013,"lng":-96.80028},{"city":"Ponca City","state":"Oklahoma","population":24758,"lat":36.70698,"lng":-97.08559},{"city":"Muskego","state":"Wisconsin","population":24755,"lat":42.90585,"lng":-88.13898},{"city":"Collinsville","state":"Illinois","population":24754,"lat":38.67033,"lng":-89.98455},{"city":"De Pere","state":"Wisconsin","population":24724,"lat":44.44888,"lng":-88.06038},{"city":"Caledonia","state":"Wisconsin","population":24684,"lat":42.8078,"lng":-87.92425},{"city":"Bixby","state":"Oklahoma","population":24657,"lat":35.94204,"lng":-95.88332},{"city":"Emporia","state":"Kansas","population":24649,"lat":38.4039,"lng":-96.18166},{"city":"Fort Dodge","state":"Iowa","population":24649,"lat":42.49747,"lng":-94.16802},{"city":"Ottumwa","state":"Iowa","population":24624,"lat":41.02001,"lng":-92.4113},{"city":"Junction City","state":"Kansas","population":24621,"lat":39.02861,"lng":-96.8314},{"city":"Austin","state":"Minnesota","population":24563,"lat":43.66663,"lng":-92.97464},{"city":"Sachse","state":"Texas","population":24554,"lat":32.97623,"lng":-96.59527},{"city":"Watauga","state":"Texas","population":24525,"lat":32.85791,"lng":-97.25474},{"city":"San Benito","state":"Texas","population":24496,"lat":26.13258,"lng":-97.6311},{"city":"Freeport","state":"Illinois","population":24476,"lat":42.29669,"lng":-89.62123},{"city":"Homer Glen","state":"Illinois","population":24395,"lat":41.60003,"lng":-87.93811},{"city":"Norfolk","state":"Nebraska","population":24366,"lat":42.02834,"lng":-97.417},{"city":"Ridgeland","state":"Mississippi","population":24351,"lat":32.42848,"lng":-90.13231},{"city":"Searcy","state":"Arkansas","population":24196,"lat":35.25064,"lng":-91.73625},{"city":"North Platte","state":"Nebraska","population":24194,"lat":41.12389,"lng":-100.76542},{"city":"Rolling Meadows","state":"Illinois","population":24190,"lat":42.08419,"lng":-88.01313},{"city":"Woodlawn","state":"Illinois","population":24150,"lat":41.77948,"lng":-87.59949},{"city":"Zion","state":"Illinois","population":24117,"lat":42.44613,"lng":-87.83285},{"city":"Maywood","state":"Illinois","population":24012,"lat":41.8792,"lng":-87.84312},{"city":"Muscatine","state":"Iowa","population":23968,"lat":41.42447,"lng":-91.04321},{"city":"Elk River","state":"Minnesota","population":23963,"lat":45.30385,"lng":-93.56718},{"city":"Corsicana","state":"Texas","population":23952,"lat":32.09543,"lng":-96.46887},{"city":"Champlin","state":"Minnesota","population":23894,"lat":45.18885,"lng":-93.39745},{"city":"Marshall","state":"Texas","population":23820,"lat":32.54487,"lng":-94.36742},{"city":"Watertown","state":"Wisconsin","population":23819,"lat":43.19472,"lng":-88.72899},{"city":"Brookings","state":"South Dakota","population":23657,"lat":44.31136,"lng":-96.79839},{"city":"Blue Island","state":"Illinois","population":23652,"lat":41.65726,"lng":-87.68005},{"city":"Faribault","state":"Minnesota","population":23650,"lat":44.29496,"lng":-93.26883},{"city":"Brandon","state":"Mississippi","population":23529,"lat":32.2732,"lng":-89.98592},{"city":"Derby","state":"Kansas","population":23509,"lat":37.54557,"lng":-97.26893},{"city":"Loves Park","state":"Illinois","population":23455,"lat":42.32002,"lng":-89.05816},{"city":"Morton Grove","state":"Illinois","population":23448,"lat":42.04059,"lng":-87.78256},{"city":"Rosemount","state":"Minnesota","population":23413,"lat":44.73941,"lng":-93.12577},{"city":"Bellview","state":"Florida","population":23355,"lat":30.46159,"lng":-87.31497},{"city":"Terrytown","state":"Louisiana","population":23319,"lat":29.91021,"lng":-90.03257},{"city":"Crestview","state":"Florida","population":23270,"lat":30.76213,"lng":-86.57051},{"city":"Duncan","state":"Oklahoma","population":23231,"lat":34.5023,"lng":-97.95781},{"city":"Dolton","state":"Illinois","population":23197,"lat":41.63892,"lng":-87.60727},{"city":"Webster Groves","state":"Missouri","population":23177,"lat":38.59255,"lng":-90.35734},{"city":"Belton","state":"Missouri","population":23168,"lat":38.81195,"lng":-94.5319},{"city":"Columbus","state":"Mississippi","population":23168,"lat":33.49567,"lng":-88.42726},{"city":"Denison","state":"Texas","population":23150,"lat":33.75566,"lng":-96.53666},{"city":"Kerrville","state":"Texas","population":23136,"lat":30.04743,"lng":-99.14032},{"city":"Mequon","state":"Wisconsin","population":23132,"lat":43.21555,"lng":-88.03001},{"city":"Vicksburg","state":"Mississippi","population":23131,"lat":32.35265,"lng":-90.87788},{"city":"Wright","state":"Florida","population":23127,"lat":30.45575,"lng":-86.63829},{"city":"Van Buren","state":"Arkansas","population":23081,"lat":35.43676,"lng":-94.34827},{"city":"East Peoria","state":"Illinois","population":23080,"lat":40.66615,"lng":-89.5801},{"city":"Roselle","state":"Illinois","population":22994,"lat":41.98475,"lng":-88.07979},{"city":"Munster","state":"Indiana","population":22984,"lat":41.56448,"lng":-87.51254},{"city":"Lisle","state":"Illinois","population":22964,"lat":41.80114,"lng":-88.07479},{"city":"Crystal","state":"Minnesota","population":22943,"lat":45.03274,"lng":-93.36023},{"city":"Cloverleaf","state":"Texas","population":22942,"lat":29.77828,"lng":-95.17188},{"city":"Dixiana","state":"Alabama","population":22940,"lat":33.74021,"lng":-86.64938},{"city":"Highland","state":"Indiana","population":22936,"lat":41.55365,"lng":-87.45198},{"city":"Machesney Park","state":"Illinois","population":22927,"lat":42.34724,"lng":-89.039},{"city":"Morgan Park","state":"Illinois","population":22924,"lat":41.69031,"lng":-87.66672},{"city":"Pelham","state":"Alabama","population":22885,"lat":33.28567,"lng":-86.80999},{"city":"Columbus","state":"Nebraska","population":22797,"lat":41.42973,"lng":-97.36838},{"city":"Farmington","state":"Minnesota","population":22731,"lat":44.64024,"lng":-93.14355},{"city":"Hutto","state":"Texas","population":22722,"lat":30.5427,"lng":-97.54667},{"city":"West Odessa","state":"Texas","population":22707,"lat":31.84235,"lng":-102.49876},{"city":"Benbrook","state":"Texas","population":22629,"lat":32.67319,"lng":-97.46058},{"city":"Wasco","state":"Illinois","population":22560,"lat":41.93808,"lng":-88.40452},{"city":"Hastings","state":"Minnesota","population":22554,"lat":44.7433,"lng":-92.85243},{"city":"Near South Side","state":"Illinois","population":22401,"lat":41.8567,"lng":-87.62477},{"city":"Grand Boulevard","state":"Illinois","population":22373,"lat":41.81392,"lng":-87.61727},{"city":"South Elgin","state":"Illinois","population":22365,"lat":41.99419,"lng":-88.2923},{"city":"Prichard","state":"Alabama","population":22351,"lat":30.7388,"lng":-88.07889},{"city":"New Brighton","state":"Minnesota","population":22351,"lat":45.06552,"lng":-93.20189},{"city":"Anniston","state":"Alabama","population":22347,"lat":33.65983,"lng":-85.83163},{"city":"Ruston","state":"Louisiana","population":22340,"lat":32.52321,"lng":-92.63793},{"city":"Midlothian","state":"Texas","population":22318,"lat":32.48236,"lng":-96.99445},{"city":"Oxford","state":"Mississippi","population":22314,"lat":34.3665,"lng":-89.51925},{"city":"Darien","state":"Illinois","population":22256,"lat":41.75198,"lng":-87.97395},{"city":"Bloomingdale","state":"Illinois","population":22254,"lat":41.95753,"lng":-88.0809},{"city":"Pascagoula","state":"Mississippi","population":22126,"lat":30.36576,"lng":-88.55613},{"city":"Saginaw","state":"Texas","population":22079,"lat":32.86013,"lng":-97.36391},{"city":"Watertown","state":"South Dakota","population":22073,"lat":44.89941,"lng":-97.11507},{"city":"South Holland","state":"Illinois","population":22043,"lat":41.60087,"lng":-87.60699},{"city":"Del City","state":"Oklahoma","population":22022,"lat":35.44201,"lng":-97.44087},{"city":"Converse","state":"Texas","population":21987,"lat":29.51801,"lng":-98.31612},{"city":"Villa Park","state":"Illinois","population":21969,"lat":41.88975,"lng":-87.98895},{"city":"Park Forest","state":"Illinois","population":21954,"lat":41.49142,"lng":-87.67449},{"city":"La Porte","state":"Indiana","population":21916,"lat":41.60774,"lng":-86.71389},{"city":"Prairie Village","state":"Kansas","population":21877,"lat":38.99167,"lng":-94.63357},{"city":"Fort Walton Beach","state":"Florida","population":21817,"lat":30.42059,"lng":-86.61707},{"city":"Geneva","state":"Illinois","population":21806,"lat":41.88753,"lng":-88.30535},{"city":"Brent","state":"Florida","population":21804,"lat":30.46881,"lng":-87.23608},{"city":"Brushy Creek","state":"Texas","population":21764,"lat":30.51353,"lng":-97.73973},{"city":"Sedalia","state":"Missouri","population":21516,"lat":38.70446,"lng":-93.22826},{"city":"Albertville","state":"Alabama","population":21462,"lat":34.26783,"lng":-86.20878},{"city":"Arnold","state":"Missouri","population":21357,"lat":38.43283,"lng":-90.37762},{"city":"East Moline","state":"Illinois","population":21350,"lat":41.50087,"lng":-90.4443},{"city":"West Pensacola","state":"Florida","population":21339,"lat":30.42659,"lng":-87.27969},{"city":"Shelbyville","state":"Tennessee","population":21317,"lat":35.48341,"lng":-86.46027},{"city":"Golden Valley","state":"Minnesota","population":21270,"lat":45.00969,"lng":-93.34912},{"city":"Canyon Lake","state":"Texas","population":21262,"lat":29.87522,"lng":-98.26251},{"city":"Oxford","state":"Alabama","population":21249,"lat":33.61427,"lng":-85.83496},{"city":"South Milwaukee","state":"Wisconsin","population":21233,"lat":42.91057,"lng":-87.86064},{"city":"Charleston","state":"Illinois","population":21196,"lat":39.49615,"lng":-88.17615},{"city":"Crest Hill","state":"Illinois","population":21153,"lat":41.55475,"lng":-88.09867},{"city":"Hays","state":"Kansas","population":21092,"lat":38.87918,"lng":-99.32677},{"city":"Ferguson","state":"Missouri","population":21059,"lat":38.74422,"lng":-90.30539},{"city":"Lino Lakes","state":"Minnesota","population":21050,"lat":45.16024,"lng":-93.08883},{"city":"New Hope","state":"Minnesota","population":21032,"lat":45.03802,"lng":-93.38662},{"city":"Trussville","state":"Alabama","population":21023,"lat":33.61983,"lng":-86.60888},{"city":"Corinth","state":"Texas","population":20998,"lat":33.15401,"lng":-97.06473},{"city":"Nixa","state":"Missouri","population":20984,"lat":37.04339,"lng":-93.29435},{"city":"Plainview","state":"Texas","population":20919,"lat":34.18479,"lng":-101.70684},{"city":"Grayslake","state":"Illinois","population":20915,"lat":42.34447,"lng":-88.04175},{"city":"Johnston","state":"Iowa","population":20871,"lat":41.67304,"lng":-93.69772},{"city":"Gardner","state":"Kansas","population":20868,"lat":38.81084,"lng":-94.92719},{"city":"Liberal","state":"Kansas","population":20746,"lat":37.04308,"lng":-100.921},{"city":"Jenks","state":"Oklahoma","population":20740,"lat":36.02287,"lng":-95.96833},{"city":"Pleasant Prairie","state":"Wisconsin","population":20726,"lat":42.55308,"lng":-87.93341},{"city":"Mountain Brook","state":"Alabama","population":20691,"lat":33.50094,"lng":-86.75221},{"city":"East Garfield Park","state":"Illinois","population":20656,"lat":41.88087,"lng":-87.70283},{"city":"Murphy","state":"Texas","population":20610,"lat":33.01512,"lng":-96.61305},{"city":"Coralville","state":"Iowa","population":20608,"lat":41.6764,"lng":-91.58045},{"city":"Ensley","state":"Florida","population":20602,"lat":30.51881,"lng":-87.27275},{"city":"Sapulpa","state":"Oklahoma","population":20579,"lat":35.9987,"lng":-96.11417},{"city":"Belton","state":"Texas","population":20547,"lat":31.05601,"lng":-97.46445},{"city":"Hammond","state":"Louisiana","population":20480,"lat":30.50463,"lng":-90.46293},{"city":"Libertyville","state":"Illinois","population":20436,"lat":42.28308,"lng":-87.95313},{"city":"Pittsburg","state":"Kansas","population":20409,"lat":37.41088,"lng":-94.70496},{"city":"Northfield","state":"Minnesota","population":20380,"lat":44.4583,"lng":-93.1616},{"city":"Raymore","state":"Missouri","population":20374,"lat":38.80195,"lng":-94.45273},{"city":"Harvey","state":"Louisiana","population":20348,"lat":29.90354,"lng":-90.07729},{"city":"Douglas","state":"Illinois","population":20323,"lat":41.83476,"lng":-87.61811},{"city":"Affton","state":"Missouri","population":20307,"lat":38.55061,"lng":-90.33317},{"city":"Mustang","state":"Oklahoma","population":20226,"lat":35.38423,"lng":-97.72449},{"city":"Sulphur","state":"Louisiana","population":20189,"lat":30.23659,"lng":-93.37738},{"city":"South Saint Paul","state":"Minnesota","population":20160,"lat":44.89274,"lng":-93.03494},{"city":"Lynn Haven","state":"Florida","population":20156,"lat":30.24548,"lng":-85.64826},{"city":"Stephenville","state":"Texas","population":20120,"lat":32.2207,"lng":-98.20226},{"city":"Pace","state":"Florida","population":20039,"lat":30.59936,"lng":-87.16108},{"city":"Rolla","state":"Missouri","population":20019,"lat":37.95143,"lng":-91.77127},{"city":"New Caney","state":"Texas","population":20000,"lat":30.15522,"lng":-95.21132},{"city":"Lake Zurich","state":"Illinois","population":19993,"lat":42.19697,"lng":-88.09341},{"city":"Germantown","state":"Wisconsin","population":19993,"lat":43.22862,"lng":-88.11037},{"city":"Bryant","state":"Arkansas","population":19986,"lat":34.59593,"lng":-92.48905},{"city":"Universal City","state":"Texas","population":19986,"lat":29.54801,"lng":-98.29112},{"city":"Warrensburg","state":"Missouri","population":19927,"lat":38.76279,"lng":-93.73605},{"city":"Mokena","state":"Illinois","population":19923,"lat":41.52614,"lng":-87.88922},{"city":"Dickinson","state":"Texas","population":19895,"lat":29.46079,"lng":-95.05132},{"city":"Evergreen Park","state":"Illinois","population":19841,"lat":41.72059,"lng":-87.70172},{"city":"Sand Springs","state":"Oklahoma","population":19783,"lat":36.13981,"lng":-96.10889},{"city":"Columbia Heights","state":"Minnesota","population":19715,"lat":45.0408,"lng":-93.263},{"city":"Spanish Lake","state":"Missouri","population":19650,"lat":38.78783,"lng":-90.21594},{"city":"Willmar","state":"Minnesota","population":19638,"lat":45.12191,"lng":-95.04334},{"city":"Forest Lake","state":"Minnesota","population":19618,"lat":45.27886,"lng":-92.98522},{"city":"Bethany","state":"Oklahoma","population":19589,"lat":35.51867,"lng":-97.63226},{"city":"West Saint Paul","state":"Minnesota","population":19540,"lat":44.91608,"lng":-93.10161},{"city":"Madisonville","state":"Kentucky","population":19539,"lat":37.3281,"lng":-87.49889},{"city":"Selma","state":"Alabama","population":19519,"lat":32.40736,"lng":-87.0211},{"city":"Papillion","state":"Nebraska","population":19510,"lat":41.15444,"lng":-96.04224},{"city":"Montgomery","state":"Illinois","population":19489,"lat":41.73058,"lng":-88.3459},{"city":"Angleton","state":"Texas","population":19429,"lat":29.16941,"lng":-95.43188},{"city":"Alice","state":"Texas","population":19408,"lat":27.75225,"lng":-98.06972},{"city":"Lake Forest","state":"Illinois","population":19408,"lat":42.25863,"lng":-87.84063},{"city":"Homewood","state":"Illinois","population":19373,"lat":41.55726,"lng":-87.6656},{"city":"Bayou Cane","state":"Louisiana","population":19355,"lat":29.6241,"lng":-90.7512},{"city":"Orange","state":"Texas","population":19347,"lat":30.09299,"lng":-93.73655},{"city":"Alsip","state":"Illinois","population":19346,"lat":41.66892,"lng":-87.73866},{"city":"Bellwood","state":"Illinois","population":19308,"lat":41.88142,"lng":-87.88312},{"city":"Howard","state":"Wisconsin","population":19250,"lat":44.5436,"lng":-88.08816},{"city":"Alamo","state":"Texas","population":19246,"lat":26.18369,"lng":-98.12306},{"city":"West Elsdon","state":"Illinois","population":19219,"lat":41.79392,"lng":-87.7245},{"city":"Newton","state":"Kansas","population":19216,"lat":38.04668,"lng":-97.34504},{"city":"Altus","state":"Oklahoma","population":19214,"lat":34.63813,"lng":-99.33398},{"city":"Matteson","state":"Illinois","population":19195,"lat":41.50392,"lng":-87.7131},{"city":"Old Jamestown","state":"Missouri","population":19184,"lat":38.83494,"lng":-90.28511},{"city":"Tullahoma","state":"Tennessee","population":19128,"lat":35.36202,"lng":-86.20943},{"city":"Ozark","state":"Missouri","population":19120,"lat":37.02089,"lng":-93.20602},{"city":"Jacksonville","state":"Illinois","population":19103,"lat":39.73394,"lng":-90.22901},{"city":"Fresno","state":"Texas","population":19069,"lat":29.53885,"lng":-95.44744},{"city":"Brownwood","state":"Texas","population":19031,"lat":31.70932,"lng":-98.99116},{"city":"Deerfield","state":"Illinois","population":19019,"lat":42.17114,"lng":-87.84451},{"city":"Ennis","state":"Texas","population":19007,"lat":32.32931,"lng":-96.62527},{"city":"Claremore","state":"Oklahoma","population":18997,"lat":36.3126,"lng":-95.61609},{"city":"Waukee","state":"Iowa","population":18990,"lat":41.61166,"lng":-93.88523},{"city":"Middleton","state":"Wisconsin","population":18979,"lat":43.09722,"lng":-89.50429},{"city":"Murray","state":"Kentucky","population":18954,"lat":36.61033,"lng":-88.31476},{"city":"Brookfield","state":"Illinois","population":18944,"lat":41.82392,"lng":-87.85173},{"city":"Stillwater","state":"Minnesota","population":18924,"lat":45.05636,"lng":-92.80604},{"city":"Troy","state":"Alabama","population":18853,"lat":31.80877,"lng":-85.96995},{"city":"Laurel","state":"Mississippi","population":18837,"lat":31.69405,"lng":-89.13061},{"city":"Mount Greenwood","state":"Illinois","population":18783,"lat":41.69809,"lng":-87.70866},{"city":"Fairhope","state":"Alabama","population":18730,"lat":30.52297,"lng":-87.90333},{"city":"Frankfort","state":"Illinois","population":18653,"lat":41.49587,"lng":-87.84866},{"city":"Marshfield","state":"Wisconsin","population":18620,"lat":44.66885,"lng":-90.1718},{"city":"Gautier","state":"Mississippi","population":18570,"lat":30.38575,"lng":-88.61169},{"city":"Bourbonnais","state":"Illinois","population":18569,"lat":41.15376,"lng":-87.88754},{"city":"Goodings Grove","state":"Illinois","population":18569,"lat":41.6292,"lng":-87.93089},{"city":"Macomb","state":"Illinois","population":18547,"lat":40.45921,"lng":-90.6718},{"city":"Bellaire","state":"Texas","population":18518,"lat":29.70579,"lng":-95.45883},{"city":"El Reno","state":"Oklahoma","population":18516,"lat":35.53227,"lng":-97.95505},{"city":"Onalaska","state":"Wisconsin","population":18468,"lat":43.88441,"lng":-91.23514},{"city":"Round Lake","state":"Illinois","population":18461,"lat":42.35336,"lng":-88.09341},{"city":"Stafford","state":"Texas","population":18459,"lat":29.61607,"lng":-95.55772},{"city":"Yorkville","state":"Illinois","population":18451,"lat":41.64114,"lng":-88.44729},{"city":"Bensenville","state":"Illinois","population":18440,"lat":41.95503,"lng":-87.94007},{"city":"Forney","state":"Texas","population":18418,"lat":32.74818,"lng":-96.47193},{"city":"Shenandoah","state":"Louisiana","population":18399,"lat":30.4013,"lng":-91.00094},{"city":"El Dorado","state":"Arkansas","population":18386,"lat":33.20763,"lng":-92.66627},{"city":"Natchitoches","state":"Louisiana","population":18365,"lat":31.76072,"lng":-93.08627},{"city":"Cudahy","state":"Wisconsin","population":18353,"lat":42.95974,"lng":-87.86147},{"city":"Ottawa","state":"Illinois","population":18342,"lat":41.34559,"lng":-88.84258},{"city":"Franklin Park","state":"Illinois","population":18312,"lat":41.93531,"lng":-87.86562},{"city":"McAlester","state":"Oklahoma","population":18310,"lat":34.93343,"lng":-95.76971},{"city":"Palestine","state":"Texas","population":18288,"lat":31.76212,"lng":-95.63079},{"city":"Creve Coeur","state":"Missouri","population":18276,"lat":38.66089,"lng":-90.42262},{"city":"Cinco Ranch","state":"Texas","population":18274,"lat":29.73884,"lng":-95.758},{"city":"Helena","state":"Alabama","population":18264,"lat":33.29622,"lng":-86.8436},{"city":"Manchester","state":"Missouri","population":18229,"lat":38.597,"lng":-90.50929},{"city":"Farmington","state":"Missouri","population":18181,"lat":37.78088,"lng":-90.42179},{"city":"Pampa","state":"Texas","population":18177,"lat":35.53616,"lng":-100.95987},{"city":"Mattoon","state":"Illinois","population":18113,"lat":39.48309,"lng":-88.37283},{"city":"Vincennes","state":"Indiana","population":18012,"lat":38.67727,"lng":-87.52863},{"city":"Cary","state":"Illinois","population":17965,"lat":42.21197,"lng":-88.23814},{"city":"Maumelle","state":"Arkansas","population":17931,"lat":34.86676,"lng":-92.40432},{"city":"Wisconsin Rapids","state":"Wisconsin","population":17897,"lat":44.38358,"lng":-89.81735},{"city":"Gretna","state":"Louisiana","population":17880,"lat":29.91465,"lng":-90.05396},{"city":"Hannibal","state":"Missouri","population":17839,"lat":39.70838,"lng":-91.35848},{"city":"Marion","state":"Illinois","population":17803,"lat":37.73061,"lng":-88.93313},{"city":"Godfrey","state":"Illinois","population":17759,"lat":38.9556,"lng":-90.18678},{"city":"West Garfield Park","state":"Illinois","population":17742,"lat":41.88059,"lng":-87.72922},{"city":"Sycamore","state":"Illinois","population":17712,"lat":41.98892,"lng":-88.68675},{"city":"Albert Lea","state":"Minnesota","population":17674,"lat":43.64801,"lng":-93.36827},{"city":"Ocean Springs","state":"Mississippi","population":17636,"lat":30.41131,"lng":-88.82781},{"city":"Hinsdale","state":"Illinois","population":17628,"lat":41.80086,"lng":-87.93701},{"city":"Kenwood","state":"Illinois","population":17601,"lat":41.8092,"lng":-87.59755},{"city":"Bay City","state":"Texas","population":17598,"lat":28.98276,"lng":-95.9694},{"city":"Hopkins","state":"Minnesota","population":17591,"lat":44.92496,"lng":-93.46273},{"city":"Menasha","state":"Wisconsin","population":17572,"lat":44.20221,"lng":-88.4465},{"city":"Palos Hills","state":"Illinois","population":17565,"lat":41.6967,"lng":-87.817},{"city":"South Houston","state":"Texas","population":17544,"lat":29.66301,"lng":-95.23549},{"city":"Kirksville","state":"Missouri","population":17520,"lat":40.19475,"lng":-92.58325},{"city":"North Aurora","state":"Illinois","population":17456,"lat":41.80614,"lng":-88.3273},{"city":"Tillmans Corner","state":"Alabama","population":17398,"lat":30.59019,"lng":-88.17084},{"city":"Anoka","state":"Minnesota","population":17350,"lat":45.19774,"lng":-93.38718},{"city":"Ada","state":"Oklahoma","population":17303,"lat":34.77453,"lng":-96.67834},{"city":"Durant","state":"Oklahoma","population":17286,"lat":33.99399,"lng":-96.37082},{"city":"Poplar Bluff","state":"Missouri","population":17266,"lat":36.757,"lng":-90.39289},{"city":"Foley","state":"Alabama","population":17218,"lat":30.40659,"lng":-87.6836},{"city":"Nederland","state":"Texas","population":17196,"lat":29.97438,"lng":-93.9924},{"city":"Ashwaubenon","state":"Wisconsin","population":17176,"lat":44.48221,"lng":-88.0701},{"city":"White Settlement","state":"Texas","population":17077,"lat":32.75957,"lng":-97.45835},{"city":"Goodlettsville","state":"Tennessee","population":16994,"lat":36.32311,"lng":-86.71333},{"city":"Altoona","state":"Iowa","population":16984,"lat":41.64416,"lng":-93.46466},{"city":"Terrell","state":"Texas","population":16981,"lat":32.73596,"lng":-96.27526},{"city":"La Vista","state":"Nebraska","population":16921,"lat":41.18389,"lng":-96.03113},{"city":"Clarksdale","state":"Mississippi","population":16847,"lat":34.20011,"lng":-90.57093},{"city":"Fairview Heights","state":"Illinois","population":16827,"lat":38.58894,"lng":-89.99038},{"city":"Springfield","state":"Tennessee","population":16808,"lat":36.50921,"lng":-86.885},{"city":"Country Club Hills","state":"Illinois","population":16795,"lat":41.56809,"lng":-87.72033},{"city":"Lemont","state":"Illinois","population":16788,"lat":41.67364,"lng":-88.00173},{"city":"Sartell","state":"Minnesota","population":16788,"lat":45.62163,"lng":-94.20694},{"city":"Dyersburg","state":"Tennessee","population":16781,"lat":36.03452,"lng":-89.38563},{"city":"Chalmette","state":"Louisiana","population":16751,"lat":29.94296,"lng":-89.96537},{"city":"Shorewood","state":"Illinois","population":16747,"lat":41.52003,"lng":-88.20173},{"city":"Westchester","state":"Illinois","population":16729,"lat":41.85059,"lng":-87.882},{"city":"Taylor","state":"Texas","population":16702,"lat":30.57076,"lng":-97.40944},{"city":"Washington","state":"Illinois","population":16664,"lat":40.70365,"lng":-89.40731},{"city":"Mercedes","state":"Texas","population":16657,"lat":26.1498,"lng":-97.91361},{"city":"Center Point","state":"Alabama","population":16655,"lat":33.64566,"lng":-86.6836},{"city":"Lemay","state":"Missouri","population":16645,"lat":38.53339,"lng":-90.27928},{"city":"Tahlequah","state":"Oklahoma","population":16598,"lat":35.91537,"lng":-94.96996},{"city":"Opelousas","state":"Louisiana","population":16591,"lat":30.53353,"lng":-92.08151},{"city":"Brenham","state":"Texas","population":16579,"lat":30.16688,"lng":-96.39774},{"city":"Beaver Dam","state":"Wisconsin","population":16564,"lat":43.45777,"lng":-88.83733},{"city":"Donna","state":"Texas","population":16523,"lat":26.17035,"lng":-98.05195},{"city":"Chickasha","state":"Oklahoma","population":16488,"lat":35.05257,"lng":-97.93643},{"city":"Uvalde","state":"Texas","population":16476,"lat":29.20968,"lng":-99.78617},{"city":"Zachary","state":"Louisiana","population":16448,"lat":30.64852,"lng":-91.1565},{"city":"Red Wing","state":"Minnesota","population":16445,"lat":44.56247,"lng":-92.5338},{"city":"Sikeston","state":"Missouri","population":16436,"lat":36.87672,"lng":-89.58786},{"city":"Concord","state":"Missouri","population":16421,"lat":38.5245,"lng":-90.35734},{"city":"Bridgeview","state":"Illinois","population":16407,"lat":41.75003,"lng":-87.80422},{"city":"Saint Michael","state":"Minnesota","population":16399,"lat":45.20996,"lng":-93.66496},{"city":"Prospect Heights","state":"Illinois","population":16386,"lat":42.0953,"lng":-87.93757},{"city":"Griffith","state":"Indiana","population":16378,"lat":41.52837,"lng":-87.42365},{"city":"Estelle","state":"Louisiana","population":16377,"lat":29.84576,"lng":-90.10674},{"city":"Oconomowoc","state":"Wisconsin","population":16360,"lat":43.11167,"lng":-88.49927},{"city":"Morton","state":"Illinois","population":16306,"lat":40.61282,"lng":-89.45926},{"city":"Menomonie","state":"Wisconsin","population":16305,"lat":44.87552,"lng":-91.91934},{"city":"Gainesville","state":"Texas","population":16292,"lat":33.62594,"lng":-97.13335},{"city":"Hibbing","state":"Minnesota","population":16204,"lat":47.42715,"lng":-92.93769},{"city":"Katy","state":"Texas","population":16158,"lat":29.78579,"lng":-95.8244},{"city":"Jollyville","state":"Texas","population":16151,"lat":30.4427,"lng":-97.77501},{"city":"Highland Village","state":"Texas","population":16149,"lat":33.09179,"lng":-97.04668},{"city":"Portland","state":"Texas","population":16116,"lat":27.87725,"lng":-97.32388},{"city":"Midway","state":"Florida","population":16115,"lat":30.40648,"lng":-87.00553},{"city":"Sulphur Springs","state":"Texas","population":16098,"lat":33.13845,"lng":-95.60107},{"city":"Siloam Springs","state":"Arkansas","population":16081,"lat":36.18814,"lng":-94.5405},{"city":"Ham Lake","state":"Minnesota","population":16062,"lat":45.25024,"lng":-93.24995},{"city":"Mount Pleasant","state":"Texas","population":16051,"lat":33.15679,"lng":-94.96827},{"city":"Dyer","state":"Indiana","population":16051,"lat":41.4942,"lng":-87.52171},{"city":"Buffalo","state":"Minnesota","population":16026,"lat":45.17191,"lng":-93.87469},{"city":"Republic","state":"Missouri","population":16005,"lat":37.12005,"lng":-93.48019},{"city":"Prosper","state":"Texas","population":15967,"lat":33.23623,"lng":-96.80111},{"city":"Pecan Grove","state":"Texas","population":15963,"lat":29.62607,"lng":-95.73162},{"city":"Overland","state":"Missouri","population":15959,"lat":38.70116,"lng":-90.36234},{"city":"North Liberty","state":"Iowa","population":15931,"lat":41.74918,"lng":-91.59795},{"city":"La Marque","state":"Texas","population":15908,"lat":29.36857,"lng":-94.97131},{"city":"Seagoville","state":"Texas","population":15894,"lat":32.63958,"lng":-96.53832},{"city":"Clayton","state":"Missouri","population":15884,"lat":38.64255,"lng":-90.32373},{"city":"Myrtle Grove","state":"Florida","population":15870,"lat":30.42103,"lng":-87.30747},{"city":"Aldine","state":"Texas","population":15869,"lat":29.93245,"lng":-95.38021},{"city":"Kaukauna","state":"Wisconsin","population":15854,"lat":44.27804,"lng":-88.27205},{"city":"Alton","state":"Texas","population":15760,"lat":26.28729,"lng":-98.31335},{"city":"Groves","state":"Texas","population":15750,"lat":29.94827,"lng":-93.91712},{"city":"West University Place","state":"Texas","population":15741,"lat":29.71801,"lng":-95.43383},{"city":"Gatesville","state":"Texas","population":15724,"lat":31.43516,"lng":-97.74391},{"city":"La Grange","state":"Illinois","population":15723,"lat":41.80503,"lng":-87.86923},{"city":"Great Bend","state":"Kansas","population":15717,"lat":38.36446,"lng":-98.76481},{"city":"Hueytown","state":"Alabama","population":15710,"lat":33.45122,"lng":-86.99666},{"city":"Talladega","state":"Alabama","population":15709,"lat":33.43594,"lng":-86.1058},{"city":"Mitchell","state":"South Dakota","population":15669,"lat":43.70943,"lng":-98.0298},{"city":"Humble","state":"Texas","population":15665,"lat":29.99883,"lng":-95.26216},{"city":"Bradley","state":"Illinois","population":15617,"lat":41.14198,"lng":-87.86115},{"city":"McKinley Park","state":"Illinois","population":15612,"lat":41.8317,"lng":-87.67366},{"city":"Long Beach","state":"Mississippi","population":15555,"lat":30.35048,"lng":-89.15282},{"city":"Otsego","state":"Minnesota","population":15551,"lat":45.27413,"lng":-93.59135},{"city":"Addison","state":"Texas","population":15518,"lat":32.96179,"lng":-96.82917},{"city":"Hernando","state":"Mississippi","population":15503,"lat":34.82399,"lng":-89.9937},{"city":"Indianola","state":"Iowa","population":15467,"lat":41.35805,"lng":-93.55744},{"city":"Clive","state":"Iowa","population":15447,"lat":41.60304,"lng":-93.72411},{"city":"Greenwood","state":"Mississippi","population":15431,"lat":33.51623,"lng":-90.17953},{"city":"Jamestown","state":"North Dakota","population":15422,"lat":46.91054,"lng":-98.70844},{"city":"Dickson","state":"Tennessee","population":15359,"lat":36.077,"lng":-87.38779},{"city":"Cullman","state":"Alabama","population":15350,"lat":34.17482,"lng":-86.84361},{"city":"Live Oak","state":"Texas","population":15346,"lat":29.56523,"lng":-98.3364},{"city":"Dixon","state":"Illinois","population":15319,"lat":41.83892,"lng":-89.47955},{"city":"Bellevue","state":"Wisconsin","population":15317,"lat":44.44416,"lng":-87.9201},{"city":"Millbrook","state":"Alabama","population":15314,"lat":32.47986,"lng":-86.36192},{"city":"River Falls","state":"Wisconsin","population":15269,"lat":44.86136,"lng":-92.62381},{"city":"New Territory","state":"Texas","population":15186,"lat":29.59412,"lng":-95.68078},{"city":"Natchez","state":"Mississippi","population":15128,"lat":31.56017,"lng":-91.40329},{"city":"Newton","state":"Iowa","population":15125,"lat":41.69971,"lng":-93.04798},{"city":"Mount Vernon","state":"Illinois","population":15087,"lat":38.31727,"lng":-88.90312},{"city":"Weston","state":"Wisconsin","population":15069,"lat":44.8908,"lng":-89.54762},{"city":"Fort Leonard Wood","state":"Missouri","population":15061,"lat":37.70573,"lng":-92.15717},{"city":"Sterling","state":"Illinois","population":15057,"lat":41.78864,"lng":-89.69622},{"city":"Hereford","state":"Texas","population":15021,"lat":34.81521,"lng":-102.39932},{"city":"Dumas","state":"Texas","population":15001,"lat":35.86559,"lng":-101.97324},{"city":"Ukrainian Village","state":"Illinois","population":15000,"lat":41.89943,"lng":-87.68451},{"city":"Kilgore","state":"Texas","population":14947,"lat":32.38626,"lng":-94.87577},{"city":"Canyon","state":"Texas","population":14887,"lat":34.98033,"lng":-101.9188},{"city":"Jacksonville","state":"Texas","population":14884,"lat":31.96378,"lng":-95.2705},{"city":"Jackson","state":"Missouri","population":14869,"lat":37.38227,"lng":-89.66621},{"city":"Corinth","state":"Mississippi","population":14866,"lat":34.93425,"lng":-88.52227},{"city":"Crowley","state":"Texas","population":14853,"lat":32.57903,"lng":-97.36252},{"city":"Saint John","state":"Indiana","population":14850,"lat":41.45004,"lng":-87.47004},{"city":"Midlothian","state":"Illinois","population":14847,"lat":41.62531,"lng":-87.71755},{"city":"Jennings","state":"Missouri","population":14819,"lat":38.71922,"lng":-90.26039},{"city":"Mineral Wells","state":"Texas","population":14754,"lat":32.80846,"lng":-98.11282},{"city":"Scottsboro","state":"Alabama","population":14722,"lat":34.67231,"lng":-86.03415},{"city":"Ozark","state":"Alabama","population":14719,"lat":31.45906,"lng":-85.64049},{"city":"Alexander City","state":"Alabama","population":14718,"lat":32.94401,"lng":-85.95385},{"city":"Niceville","state":"Florida","population":14714,"lat":30.51686,"lng":-86.48217},{"city":"Blytheville","state":"Arkansas","population":14694,"lat":35.9273,"lng":-89.91898},{"city":"Whitewater","state":"Wisconsin","population":14692,"lat":42.83362,"lng":-88.73233},{"city":"Lebanon","state":"Missouri","population":14688,"lat":37.6806,"lng":-92.66379},{"city":"Forrest City","state":"Arkansas","population":14672,"lat":35.00815,"lng":-90.78983},{"city":"Norridge","state":"Illinois","population":14621,"lat":41.96336,"lng":-87.82728},{"city":"Bemidji","state":"Minnesota","population":14594,"lat":47.47356,"lng":-94.88028},{"city":"Thibodaux","state":"Louisiana","population":14584,"lat":29.79576,"lng":-90.82287},{"city":"Yankton","state":"South Dakota","population":14557,"lat":42.87111,"lng":-97.39728},{"city":"Lake Saint Louis","state":"Missouri","population":14545,"lat":38.79755,"lng":-90.78568},{"city":"Warrington","state":"Florida","population":14531,"lat":30.38409,"lng":-87.27497},{"city":"Hartselle","state":"Alabama","population":14493,"lat":34.44343,"lng":-86.93528},{"city":"Glasgow","state":"Kentucky","population":14470,"lat":36.99588,"lng":-85.91192},{"city":"Robbinsdale","state":"Minnesota","population":14418,"lat":45.03219,"lng":-93.33856},{"city":"Lindenhurst","state":"Illinois","population":14408,"lat":42.41058,"lng":-88.02619},{"city":"Callaway","state":"Florida","population":14405,"lat":30.15298,"lng":-85.56993},{"city":"Rio Grande City","state":"Texas","population":14404,"lat":26.37979,"lng":-98.8203},{"city":"Pineville","state":"Louisiana","population":14403,"lat":31.3224,"lng":-92.4343},{"city":"Cahokia","state":"Illinois","population":14402,"lat":38.57088,"lng":-90.19011},{"city":"Hugo","state":"Minnesota","population":14388,"lat":45.15997,"lng":-92.99327},{"city":"Chicago Ridge","state":"Illinois","population":14373,"lat":41.70142,"lng":-87.77922},{"city":"Morris","state":"Illinois","population":14363,"lat":41.35725,"lng":-88.42118},{"city":"Hartford","state":"Wisconsin","population":14355,"lat":43.31778,"lng":-88.37899},{"city":"Greendale","state":"Wisconsin","population":14333,"lat":42.94057,"lng":-87.99592},{"city":"Antioch","state":"Illinois","population":14329,"lat":42.47724,"lng":-88.09564},{"city":"Carthage","state":"Missouri","population":14319,"lat":37.17645,"lng":-94.31022},{"city":"Hewitt","state":"Texas","population":14252,"lat":31.46239,"lng":-97.19584},{"city":"Lakeway","state":"Texas","population":14217,"lat":30.36377,"lng":-97.97959},{"city":"Canton","state":"Illinois","population":14211,"lat":40.55809,"lng":-90.03512},{"city":"Bayou Boeuf","state":"Louisiana","population":14195,"lat":29.86937,"lng":-90.59675},{"city":"Grand Bayou Mobile Home Park","state":"Louisiana","population":14195,"lat":29.90802,"lng":-90.77711},{"city":"Fort Payne","state":"Alabama","population":14150,"lat":34.44425,"lng":-85.71969},{"city":"Forest Park","state":"Illinois","population":14123,"lat":41.87948,"lng":-87.81367},{"city":"Hickory Hills","state":"Illinois","population":14122,"lat":41.72559,"lng":-87.82506},{"city":"Hazel Crest","state":"Illinois","population":14118,"lat":41.5717,"lng":-87.69449},{"city":"Whitefish Bay","state":"Wisconsin","population":14110,"lat":43.11334,"lng":-87.90009},{"city":"Pierre","state":"South Dakota","population":14091,"lat":44.36832,"lng":-100.35097},{"city":"Jasper","state":"Alabama","population":14071,"lat":33.83122,"lng":-87.27751},{"city":"Washington","state":"Missouri","population":14050,"lat":38.55811,"lng":-91.01209},{"city":"Chippewa Falls","state":"Wisconsin","population":14047,"lat":44.93691,"lng":-91.39293},{"city":"Beach Park","state":"Illinois","population":13976,"lat":42.42224,"lng":-87.8573},{"city":"Lincoln","state":"Illinois","population":13966,"lat":40.14838,"lng":-89.36482},{"city":"Upper Grand Lagoon","state":"Florida","population":13963,"lat":30.16326,"lng":-85.74076},{"city":"Allouez","state":"Wisconsin","population":13930,"lat":44.47749,"lng":-88.01621},{"city":"Moberly","state":"Missouri","population":13919,"lat":39.41837,"lng":-92.43824},{"city":"Wood Dale","state":"Illinois","population":13917,"lat":41.96336,"lng":-87.97896},{"city":"Levelland","state":"Texas","population":13914,"lat":33.58732,"lng":-102.37796},{"city":"Hutchinson","state":"Minnesota","population":13913,"lat":44.88774,"lng":-94.36971},{"city":"Saraland","state":"Alabama","population":13906,"lat":30.82074,"lng":-88.07056},{"city":"Andrews","state":"Texas","population":13816,"lat":32.31872,"lng":-102.54572},{"city":"Wauconda","state":"Illinois","population":13814,"lat":42.25891,"lng":-88.13925},{"city":"McMinnville","state":"Tennessee","population":13759,"lat":35.6834,"lng":-85.76998},{"city":"Sienna Plantation","state":"Texas","population":13721,"lat":29.48607,"lng":-95.508},{"city":"Seabrook","state":"Texas","population":13716,"lat":29.56412,"lng":-95.02548},{"city":"Gardendale","state":"Alabama","population":13711,"lat":33.6601,"lng":-86.81277},{"city":"Hidalgo","state":"Texas","population":13709,"lat":26.10035,"lng":-98.26307},{"city":"Muscle Shoals","state":"Alabama","population":13706,"lat":34.74481,"lng":-87.66753},{"city":"Buda","state":"Texas","population":13705,"lat":30.08521,"lng":-97.84028},{"city":"Baker","state":"Louisiana","population":13695,"lat":30.58824,"lng":-91.16816},{"city":"Richton Park","state":"Illinois","population":13695,"lat":41.48448,"lng":-87.70338},{"city":"Fort Campbell North","state":"Kentucky","population":13685,"lat":36.65429,"lng":-87.46056},{"city":"Canton","state":"Mississippi","population":13676,"lat":32.61264,"lng":-90.03675},{"city":"Boerne","state":"Texas","population":13674,"lat":29.79466,"lng":-98.73197},{"city":"Moss Point","state":"Mississippi","population":13654,"lat":30.41159,"lng":-88.53446},{"city":"Marshall","state":"Minnesota","population":13652,"lat":44.4469,"lng":-95.78835},{"city":"Pell City","state":"Alabama","population":13646,"lat":33.58621,"lng":-86.28609},{"city":"Miami","state":"Oklahoma","population":13611,"lat":36.87451,"lng":-94.87746},{"city":"La Grange Park","state":"Illinois","population":13608,"lat":41.83475,"lng":-87.86173},{"city":"Hudson","state":"Wisconsin","population":13566,"lat":44.97469,"lng":-92.75687},{"city":"Swansea","state":"Illinois","population":13543,"lat":38.53394,"lng":-89.98899},{"city":"Riverdale","state":"Illinois","population":13536,"lat":41.63337,"lng":-87.6331},{"city":"Henderson","state":"Texas","population":13529,"lat":32.15322,"lng":-94.79938},{"city":"North Mankato","state":"Minnesota","population":13529,"lat":44.1733,"lng":-94.03385},{"city":"Destin","state":"Florida","population":13523,"lat":30.39353,"lng":-86.49578},{"city":"River Ridge","state":"Louisiana","population":13494,"lat":29.9602,"lng":-90.21563},{"city":"Village of Campton Hills","state":"Illinois","population":13483,"lat":41.9366,"lng":-88.3975},{"city":"Timberwood Park","state":"Texas","population":13447,"lat":29.69438,"lng":-98.49741},{"city":"Lockhart","state":"Texas","population":13446,"lat":29.88494,"lng":-97.67},{"city":"Chesterton","state":"Indiana","population":13433,"lat":41.61059,"lng":-87.0642},{"city":"Sauk Rapids","state":"Minnesota","population":13424,"lat":45.59191,"lng":-94.1661},{"city":"Grain Valley","state":"Missouri","population":13379,"lat":39.01501,"lng":-94.19856},{"city":"Brainerd","state":"Minnesota","population":13371,"lat":46.35802,"lng":-94.20083},{"city":"Western Springs","state":"Illinois","population":13369,"lat":41.80975,"lng":-87.90062},{"city":"New Ulm","state":"Minnesota","population":13327,"lat":44.31246,"lng":-94.46053},{"city":"South Sioux City","state":"Nebraska","population":13319,"lat":42.47388,"lng":-96.41364},{"city":"Warrenville","state":"Illinois","population":13317,"lat":41.81781,"lng":-88.1734},{"city":"Huron","state":"South Dakota","population":13313,"lat":44.36332,"lng":-98.21426},{"city":"Shorewood","state":"Wisconsin","population":13311,"lat":43.08918,"lng":-87.88758},{"city":"Waunakee","state":"Wisconsin","population":13311,"lat":43.19194,"lng":-89.45567},{"city":"Monticello","state":"Minnesota","population":13299,"lat":45.30552,"lng":-93.79414},{"city":"Fergus Falls","state":"Minnesota","population":13281,"lat":46.28302,"lng":-96.07756},{"city":"Beeville","state":"Texas","population":13277,"lat":28.40095,"lng":-97.74974},{"city":"Gonzalez","state":"Florida","population":13273,"lat":30.58158,"lng":-87.29136},{"city":"Vadnais Heights","state":"Minnesota","population":13266,"lat":45.05747,"lng":-93.07383},{"city":"Glenpool","state":"Oklahoma","population":13225,"lat":35.95537,"lng":-96.00888},{"city":"Calera","state":"Alabama","population":13213,"lat":33.1029,"lng":-86.7536},{"city":"Carriere","state":"Mississippi","population":13198,"lat":30.61686,"lng":-89.65256},{"city":"Streator","state":"Illinois","population":13182,"lat":41.12087,"lng":-88.83535},{"city":"McPherson","state":"Kansas","population":13144,"lat":38.37084,"lng":-97.66421},{"city":"Crowley","state":"Louisiana","population":13144,"lat":30.21409,"lng":-92.37458},{"city":"Harrison","state":"Arkansas","population":13138,"lat":36.22979,"lng":-93.10768},{"city":"Worthington","state":"Minnesota","population":13090,"lat":43.61996,"lng":-95.5964},{"city":"Stoughton","state":"Wisconsin","population":13067,"lat":42.91695,"lng":-89.21789},{"city":"Marshall","state":"Missouri","population":13039,"lat":39.12308,"lng":-93.19687},{"city":"Santa Fe","state":"Texas","population":13037,"lat":29.37801,"lng":-95.10576},{"city":"Saint Ann","state":"Missouri","population":13020,"lat":38.72727,"lng":-90.38317},{"city":"Rantoul","state":"Illinois","population":13008,"lat":40.30837,"lng":-88.15588},{"city":"Woodward","state":"Oklahoma","population":12993,"lat":36.43365,"lng":-99.39039},{"city":"Justice","state":"Illinois","population":12968,"lat":41.74448,"lng":-87.83783},{"city":"Glen Carbon","state":"Illinois","population":12966,"lat":38.74838,"lng":-89.98316},{"city":"West Monroe","state":"Louisiana","population":12966,"lat":32.51848,"lng":-92.14764},{"city":"Borger","state":"Texas","population":12964,"lat":35.66782,"lng":-101.39739},{"city":"Shiloh","state":"Illinois","population":12961,"lat":38.56144,"lng":-89.89732},{"city":"Fulton","state":"Missouri","population":12939,"lat":38.84671,"lng":-91.94796},{"city":"El Dorado","state":"Kansas","population":12931,"lat":37.81724,"lng":-96.86225},{"city":"Mounds View","state":"Minnesota","population":12914,"lat":45.10497,"lng":-93.20856},{"city":"Herrin","state":"Illinois","population":12910,"lat":37.80311,"lng":-89.02757},{"city":"Grenada","state":"Mississippi","population":12900,"lat":33.769,"lng":-89.80842},{"city":"Dardenne Prairie","state":"Missouri","population":12890,"lat":38.7695,"lng":-90.72902},{"city":"Forest Hill","state":"Texas","population":12881,"lat":32.67208,"lng":-97.26918},{"city":"Glendale","state":"Wisconsin","population":12870,"lat":43.13529,"lng":-87.93564},{"city":"Hot Springs Village","state":"Arkansas","population":12807,"lat":34.67204,"lng":-92.99879},{"city":"Athens","state":"Texas","population":12788,"lat":32.20487,"lng":-95.85552},{"city":"Port Neches","state":"Texas","population":12786,"lat":29.99132,"lng":-93.95851},{"city":"Andover","state":"Kansas","population":12745,"lat":37.7139,"lng":-97.13643},{"city":"Elk City","state":"Oklahoma","population":12717,"lat":35.41199,"lng":-99.40426},{"city":"Boone","state":"Iowa","population":12692,"lat":42.0597,"lng":-93.88023},{"city":"Minden","state":"Louisiana","population":12690,"lat":32.61543,"lng":-93.28684},{"city":"Markham","state":"Illinois","population":12682,"lat":41.59365,"lng":-87.69477},{"city":"Belle Chasse","state":"Louisiana","population":12679,"lat":29.85493,"lng":-89.99063},{"city":"McComb","state":"Mississippi","population":12661,"lat":31.24379,"lng":-90.45315},{"city":"Sylacauga","state":"Alabama","population":12657,"lat":33.17317,"lng":-86.25164},{"city":"Centralia","state":"Illinois","population":12655,"lat":38.52505,"lng":-89.1334},{"city":"Lincolnwood","state":"Illinois","population":12646,"lat":42.00448,"lng":-87.73006},{"city":"Panama City Beach","state":"Florida","population":12624,"lat":30.17659,"lng":-85.80549},{"city":"Effingham","state":"Illinois","population":12604,"lat":39.12004,"lng":-88.54338},{"city":"Eufaula","state":"Alabama","population":12596,"lat":31.89127,"lng":-85.14549},{"city":"Channahon","state":"Illinois","population":12594,"lat":41.42948,"lng":-88.22867},{"city":"Moody","state":"Alabama","population":12593,"lat":33.59094,"lng":-86.49082},{"city":"Platteville","state":"Wisconsin","population":12572,"lat":42.73416,"lng":-90.47846},{"city":"Rogers","state":"Minnesota","population":12562,"lat":45.18885,"lng":-93.55301},{"city":"Lakeland","state":"Tennessee","population":12553,"lat":35.23064,"lng":-89.74036},{"city":"Rendon","state":"Texas","population":12552,"lat":32.57625,"lng":-97.2414},{"city":"Palos Heights","state":"Illinois","population":12545,"lat":41.66809,"lng":-87.79644},{"city":"Verona","state":"Wisconsin","population":12540,"lat":42.99083,"lng":-89.53318},{"city":"Kewanee","state":"Illinois","population":12533,"lat":41.24559,"lng":-89.92483},{"city":"Winnetka","state":"Illinois","population":12472,"lat":42.10808,"lng":-87.7359},{"city":"Abbeville","state":"Louisiana","population":12434,"lat":29.97465,"lng":-92.13429},{"city":"Fort Atkinson","state":"Wisconsin","population":12426,"lat":42.92889,"lng":-88.83705},{"city":"Irondale","state":"Alabama","population":12423,"lat":33.53816,"lng":-86.70721},{"city":"Lumberton","state":"Texas","population":12421,"lat":30.26577,"lng":-94.19963},{"city":"Port Lavaca","state":"Texas","population":12416,"lat":28.615,"lng":-96.62609},{"city":"Brookhaven","state":"Mississippi","population":12414,"lat":31.57906,"lng":-90.44065},{"city":"Beatrice","state":"Nebraska","population":12388,"lat":40.26806,"lng":-96.74697},{"city":"Ottawa","state":"Kansas","population":12387,"lat":38.61557,"lng":-95.26775},{"city":"Four Corners","state":"Texas","population":12382,"lat":29.66857,"lng":-95.65772},{"city":"Chatham","state":"Illinois","population":12351,"lat":39.67616,"lng":-89.70454},{"city":"Mandeville","state":"Louisiana","population":12345,"lat":30.35825,"lng":-90.06563},{"city":"Mountain Home","state":"Arkansas","population":12330,"lat":36.33534,"lng":-92.38516},{"city":"Cleveland","state":"Mississippi","population":12327,"lat":33.744,"lng":-90.72482},{"city":"Portland","state":"Tennessee","population":12323,"lat":36.58171,"lng":-86.51638},{"city":"Plover","state":"Wisconsin","population":12319,"lat":44.45636,"lng":-89.54401},{"city":"Northlake","state":"Illinois","population":12312,"lat":41.91725,"lng":-87.89562},{"city":"Marion","state":"Arkansas","population":12292,"lat":35.21453,"lng":-90.19648},{"city":"West Plains","state":"Missouri","population":12285,"lat":36.72812,"lng":-91.85237},{"city":"Okmulgee","state":"Oklahoma","population":12244,"lat":35.62344,"lng":-95.96055},{"city":"Jacksonville","state":"Alabama","population":12222,"lat":33.81382,"lng":-85.7613},{"city":"Winfield","state":"Kansas","population":12204,"lat":37.23975,"lng":-96.99559},{"city":"Suamico","state":"Wisconsin","population":12187,"lat":44.63194,"lng":-88.03927},{"city":"Choctaw","state":"Oklahoma","population":12179,"lat":35.49756,"lng":-97.26892},{"city":"Neosho","state":"Missouri","population":12156,"lat":36.86896,"lng":-94.368},{"city":"Baraboo","state":"Wisconsin","population":12155,"lat":43.47109,"lng":-89.74429},{"city":"Freeport","state":"Texas","population":12154,"lat":28.95414,"lng":-95.35966},{"city":"Richmond","state":"Texas","population":12138,"lat":29.58218,"lng":-95.76078},{"city":"Arkansas City","state":"Kansas","population":12136,"lat":37.06197,"lng":-97.03837},{"city":"Weatherford","state":"Oklahoma","population":12126,"lat":35.52616,"lng":-98.70757},{"city":"Wells Branch","state":"Texas","population":12120,"lat":30.44604,"lng":-97.67945},{"city":"Luling","state":"Louisiana","population":12119,"lat":29.93215,"lng":-90.36647},{"city":"Brown Deer","state":"Wisconsin","population":12102,"lat":43.16334,"lng":-87.96453},{"city":"Woodmere","state":"Louisiana","population":12080,"lat":29.85798,"lng":-90.08035},{"city":"Cloquet","state":"Minnesota","population":12075,"lat":46.72161,"lng":-92.45936},{"city":"Festus","state":"Missouri","population":12065,"lat":38.22061,"lng":-90.39595},{"city":"Chelsea","state":"Alabama","population":12059,"lat":33.34011,"lng":-86.63026},{"city":"Lake Station","state":"Indiana","population":12054,"lat":41.57504,"lng":-87.23892},{"city":"Glenn Heights","state":"Texas","population":12042,"lat":32.54875,"lng":-96.85667},{"city":"Centerton","state":"Arkansas","population":12023,"lat":36.3598,"lng":-94.28521},{"city":"Red Oak","state":"Texas","population":12022,"lat":32.51764,"lng":-96.80444},{"city":"Cedar Lake","state":"Indiana","population":12000,"lat":41.36476,"lng":-87.44115},{"city":"La Homa","state":"Texas","population":11985,"lat":26.25007,"lng":-98.36363},{"city":"Waconia","state":"Minnesota","population":11968,"lat":44.8508,"lng":-93.78691},{"city":"Crestwood","state":"Missouri","population":11966,"lat":38.557,"lng":-90.38178},{"city":"Youngsville","state":"Louisiana","population":11961,"lat":30.09965,"lng":-91.99012},{"city":"Leeds","state":"Alabama","population":11936,"lat":33.54816,"lng":-86.54443},{"city":"Bogalusa","state":"Louisiana","population":11933,"lat":30.79102,"lng":-89.84869},{"city":"Guymon","state":"Oklahoma","population":11921,"lat":36.6828,"lng":-101.48155},{"city":"Maryville","state":"Missouri","population":11879,"lat":40.3461,"lng":-94.87247},{"city":"Alexandria","state":"Minnesota","population":11843,"lat":45.88524,"lng":-95.37754},{"city":"Morgan City","state":"Louisiana","population":11835,"lat":29.69937,"lng":-91.20677},{"city":"Schiller Park","state":"Illinois","population":11806,"lat":41.95586,"lng":-87.8709},{"city":"Pontiac","state":"Illinois","population":11794,"lat":40.88087,"lng":-88.62978},{"city":"Bridgeton","state":"Missouri","population":11786,"lat":38.767,"lng":-90.41151},{"city":"Snyder","state":"Texas","population":11768,"lat":32.71789,"lng":-100.91762},