{"timezone":"America/St_Lucia","countries":{"Saint Lucia":[{"city":"Gros Islet","state":"Gros-Islet","population":25210,"lat":14.06667,"lng":-60.95},{"city":"Castries","state":"Castries","population":20000,"lat":13.9957,"lng":-61.00614},{"city":"Bisee","state":"Castries","population":12980,"lat":14.02429,"lng":-60.97445},{"city":"Dennery","state":"Dennery","population":12589,"lat":13.91409,"lng":-60.89132},{"city":"Laborie","state":"Laborie","population":6701,"lat":13.75,"lng":-60.98333},{"city":"Choiseul","state":"Choiseul","population":6098,"lat":13.77273,"lng":-61.04931},{"city":"Vieux Fort","state":"Vieux-Fort","population":4574,"lat":13.71667,"lng":-60.95},{"city":"Micoud","state":"Micoud","population":3406,"lat":13.81667,"lng":-60.9},{"city":"Soufrière","state":"Soufrière","population":2918,"lat":13.85616,"lng":-61.0566},{"city":"Ciceron","state":"Castries","population":2471,"lat":13.99009,"lng":-61.00806},{"city":"Praslin","state":"Micoud","population":1906,"lat":13.87545,"lng":-60.89717},{"city":"Canaries","state":"Anse-la-Raye","population":1862,"lat":13.90224,"lng":-61.06459},{"city":"Augier","state":"Vieux-Fort","population":1850,"lat":13.76324,"lng":-60.97893},{"city":"Balata","state":"Castries","population":1812,"lat":14.01397,"lng":-60.95598},{"city":"Beauséjour","state":"Gros-Islet","population":1685,"lat":14.0754,"lng":-60.94423},{"city":"Corinthe","state":"Gros-Islet","population":1576,"lat":14.04531,"lng":-60.9607},{"city":"La Resource","state":"Vieux-Fort","population":1521,"lat":13.74461,"lng":-60.95769},{"city":"Anse Ger","state":"Micoud","population":1471,"lat":13.79775,"lng":-60.9164},{"city":"Pierrot","state":"Vieux-Fort","population":1457,"lat":13.77111,"lng":-60.94393},{"city":"Bocage","state":"Castries","population":1420,"lat":13.98892,"lng":-60.97202},{"city":"Au Leon","state":"Dennery","population":1393,"lat":13.94583,"lng":-60.9078},{"city":"Ti Rocher","state":"Micoud","population":1371,"lat":13.81661,"lng":-60.93019},{"city":"L’Abbayée","state":"Castries","population":1355,"lat":13.92715,"lng":-60.97193},{"city":"La Pointe","state":"Micoud","population":1274,"lat":13.846,"lng":-60.90236},{"city":"Anse La Raye","state":"Anse-la-Raye","population":1256,"lat":13.94619,"lng":-61.03879},{"city":"La Clery","state":"Castries","population":1242,"lat":14.01683,"lng":-60.97897},{"city":"Mon Repos","state":"Micoud","population":1212,"lat":13.85977,"lng":-60.90225},{"city":"Morne Doudon","state":"Castries","population":1176,"lat":14.00988,"lng":-60.97241},{"city":"Cabiche","state":"Castries","population":1169,"lat":14.00402,"lng":-60.94778},{"city":"Grande Rivière","state":"Gros-Islet","population":1121,"lat":14.03252,"lng":-60.95331},{"city":"Cantonement","state":"Vieux-Fort","population":1105,"lat":13.75263,"lng":-60.97529},{"city":"Bagatelle","state":"Castries","population":1084,"lat":14.00078,"lng":-60.98107},{"city":"Bexon","state":"Castries","population":1049,"lat":13.95256,"lng":-60.97782},{"city":"Entrepôt","state":"Castries","population":1048,"lat":14.00251,"lng":-60.97616},{"city":"Pavée","state":"Castries","population":1028,"lat":14.00437,"lng":-60.99139},{"city":"Monchy","state":"Gros-Islet","population":1011,"lat":14.05319,"lng":-60.92987},{"city":"Forestière","state":"Castries","population":1003,"lat":13.95947,"lng":-60.96253},{"city":"Cap Estate","state":"Gros-Islet","population":677,"lat":14.09956,"lng":-60.94346}]}}