{"timezone":"America/Porto_Velho","countries":{"Brazil":[{"city":"Porto Velho","state":"Rondônia","population":548952,"lat":-8.76194,"lng":-63.90389},{"city":"Ji Paraná","state":"Rondônia","population":124333,"lat":-10.88528,"lng":-61.95167},{"city":"Ariquemes","state":"Rondônia","population":96833,"lat":-9.91333,"lng":-63.04083},{"city":"Vilhena","state":"Rondônia","population":95832,"lat":-12.74056,"lng":-60.14583},{"city":"Cacoal","state":"Rondônia","population":86887,"lat":-11.43861,"lng":-61.44722},{"city":"Rolim de Moura","state":"Rondônia","population":56406,"lat":-11.80361,"lng":-61.80333},{"city":"Jaru","state":"Rondônia","population":50591,"lat":-10.43889,"lng":-62.46639},{"city":"Guajará Mirim","state":"Rondônia","population":39387,"lat":-10.78356,"lng":-65.33552},{"city":"Rolim de Moura do Guaporé","state":"Rondônia","population":37949,"lat":-13.08271,"lng":-62.27726},{"city":"Pimenta Bueno","state":"Rondônia","population":35079,"lat":-11.6725,"lng":-61.19361},{"city":"Ouro Preto do Oeste","state":"Rondônia","population":35044,"lat":-10.74806,"lng":-62.21583},{"city":"Machadinho d'Oeste","state":"Rondônia","population":30707,"lat":-9.44389,"lng":-61.98139},{"city":"Espigão dOeste","state":"Rondônia","population":29414,"lat":-11.52472,"lng":-61.01278},{"city":"Buritis","state":"Rondônia","population":27992,"lat":-10.21167,"lng":-63.82861},{"city":"Nova Mamoré","state":"Rondônia","population":25444,"lat":-10.40194,"lng":-65.32667},{"city":"Candeias do Jamari","state":"Rondônia","population":22310,"lat":-8.80972,"lng":-63.69556},{"city":"São Miguel do Guaporé","state":"Rondônia","population":21635,"lat":-11.69361,"lng":-62.71139},{"city":"Alta Floresta d'Oeste","state":"Rondônia","population":21494,"lat":-11.96806,"lng":-61.95417},{"city":"Presidente Médici","state":"Rondônia","population":19327,"lat":-11.17528,"lng":-61.90139},{"city":"Alto Paraíso","state":"Rondônia","population":16320,"lat":-9.72283,"lng":-63.31022},{"city":"São Francisco do Guaporé","state":"Rondônia","population":16286,"lat":-12.05222,"lng":-63.5675},{"city":"Cerejeiras","state":"Rondônia","population":15890,"lat":-13.18889,"lng":-60.81222},{"city":"Colorado do Oeste","state":"Rondônia","population":15663,"lat":-13.11667,"lng":-60.54167},{"city":"Cujubim","state":"Rondônia","population":14863,"lat":-9.36278,"lng":-62.58528},{"city":"Alvorada d'Oeste","state":"Rondônia","population":13117,"lat":-11.34139,"lng":-62.28639},{"city":"Costa Marques","state":"Rondônia","population":12627,"lat":-12.445,"lng":-64.22722},{"city":"Monte Negro","state":"Rondônia","population":11548,"lat":-10.29444,"lng":-63.32528},{"city":"Alto Alegre dos Parecis","state":"Rondônia","population":11479,"lat":-12.12806,"lng":-61.85056},{"city":"Vale do Anari","state":"Rondônia","population":11377,"lat":-9.85744,"lng":-62.17576},{"city":"Seringueiras","state":"Rondônia","population":11171,"lat":-11.79806,"lng":-63.03111},{"city":"Urupá","state":"Rondônia","population":10725,"lat":-11.12607,"lng":-62.37209},{"city":"Chupinguaia","state":"Rondônia","population":9324,"lat":-12.55222,"lng":-60.89972},{"city":"Mirante da Serra","state":"Rondônia","population":9235,"lat":-11.02972,"lng":-62.675},{"city":"Campo Novo de Rondônia","state":"Rondônia","population":8844,"lat":-10.59694,"lng":-63.61222},{"city":"Itapuã do Oeste","state":"Rondônia","population":8548,"lat":-9.18616,"lng":-63.18514},{"city":"Theobroma","state":"Rondônia","population":8113,"lat":-10.23889,"lng":-62.35833},{"city":"Governador Jorge Teixeira","state":"Rondônia","population":8001,"lat":-10.525,"lng":-62.64389},{"city":"Novo Horizonte do Oeste","state":"Rondônia","population":7667,"lat":-11.70956,"lng":-61.99975},{"city":"Corumbiara","state":"Rondônia","population":7519,"lat":-12.96194,"lng":-60.88667},{"city":"Santa Luzia d'Oeste","state":"Rondônia","population":7419,"lat":-11.90806,"lng":-61.77889},{"city":"Vale do Paraíso","state":"Rondônia","population":6479,"lat":-10.44778,"lng":-62.13417},{"city":"Ministro Andreazza","state":"Rondônia","population":6466,"lat":-11.07417,"lng":-61.51694},{"city":"Nova União","state":"Rondônia","population":6200,"lat":-10.90417,"lng":-62.56111},{"city":"Extrema","state":"Rondônia","population":6176,"lat":-9.77136,"lng":-66.35583},{"city":"Cabixi","state":"Rondônia","population":5351,"lat":-13.49778,"lng":-60.55417},{"city":"São Felipe d'Oeste","state":"Rondônia","population":5258,"lat":-11.9025,"lng":-61.50222},{"city":"Teixeirópolis","state":"Rondônia","population":4256,"lat":-10.9175,"lng":-62.24944},{"city":"Cacaulândia","state":"Rondônia","population":4150,"lat":-10.33917,"lng":-62.89528},{"city":"Parecis","state":"Rondônia","population":4125,"lat":-12.19611,"lng":-61.60139},{"city":"Rio Crespo","state":"Rondônia","population":3471,"lat":-9.705,"lng":-62.89972},{"city":"Castanheiras","state":"Rondônia","population":3233,"lat":-11.4175,"lng":-61.93861},{"city":"Primavera de Rondônia","state":"Rondônia","population":3076,"lat":-11.81694,"lng":-61.32278},{"city":"Pimenteiras do Oeste","state":"Rondônia","population":0,"lat":-13.48129,"lng":-61.04694},{"city":"Alta Floresta d’Oeste","state":"Rondônia","population":0,"lat":-11.92908,"lng":-61.99372},{"city":"Rolim de Moura","state":"Rondônia","population":0,"lat":-11.7256,"lng":-61.77813},{"city":"Governador Jorge Teixeira","state":"Rondônia","population":0,"lat":-10.61349,"lng":-62.73456},{"city":"Monte Negro","state":"Rondônia","population":0,"lat":-10.26039,"lng":-63.29792},{"city":"São Domingos do Guaporé","state":"Rondônia","population":0,"lat":-12.07522,"lng":-64.02692},{"city":"Corumbiara","state":"Rondônia","population":0,"lat":-12.99851,"lng":-60.9431},{"city":"Seringueiras","state":"Rondônia","population":0,"lat":-11.77016,"lng":-63.03673},{"city":"Campo Novo de Rondônia","state":"Rondônia","population":0,"lat":-10.57091,"lng":-63.62018},{"city":"Machadinho d'Oeste","state":"Rondônia","population":0,"lat":-9.42519,"lng":-61.99758}]}}