{"timezone":"America/Goose_Bay","countries":{"Canada":[{"city":"Happy Valley-Goose Bay","state":"Newfoundland and Labrador","population":7572,"lat":53.3038,"lng":-60.32576},{"city":"Labrador City","state":"Newfoundland and Labrador","population":7220,"lat":52.94626,"lng":-66.91137},{"city":"Wabush","state":"Newfoundland and Labrador","population":1964,"lat":52.90015,"lng":-66.86541},{"city":"Nain","state":"Newfoundland and Labrador","population":1204,"lat":56.54193,"lng":-61.69549},{"city":"Sheshatshiu","state":"Newfoundland and Labrador","population":1049,"lat":53.51868,"lng":-60.14594},{"city":"Churchill Falls","state":"Newfoundland and Labrador","population":650,"lat":53.53153,"lng":-64.00849},{"city":"Hopedale","state":"Newfoundland and Labrador","population":625,"lat":55.46737,"lng":-60.20319}]}}