{"timezone":"America/St_Kitts","countries":{"Saint Kitts and Nevis":[{"city":"Basseterre","state":"Saint George Basseterre","population":12920,"lat":17.2955,"lng":-62.72499},{"city":"Sandy Point Town","state":"Saint Anne Sandy Point","population":3140,"lat":17.35908,"lng":-62.84858},{"city":"Fig Tree","state":"Saint John Figtree","population":2922,"lat":17.12623,"lng":-62.60265},{"city":"Market Shop","state":"Saint George Gingerland","population":2568,"lat":17.13218,"lng":-62.57267},{"city":"Saint Paul’s","state":"Saint Paul Capesterre","population":2460,"lat":17.40605,"lng":-62.83562},{"city":"Middle Island","state":"Middle Island","population":2332,"lat":17.3259,"lng":-62.81055},{"city":"Nicola Town","state":"Christ Church Nichola Town","population":2059,"lat":17.37956,"lng":-62.75318},{"city":"Trinity","state":"Trinity Palmetto Point","population":1692,"lat":17.30037,"lng":-62.77584},{"city":"Old Road Town","state":"Middle Island","population":1647,"lat":17.32215,"lng":-62.80337},{"city":"Charlestown","state":"Saint Paul Charlestown","population":1538,"lat":17.13333,"lng":-62.61667},{"city":"Sadlers","state":"Saint John Capesterre","population":1205,"lat":17.40454,"lng":-62.79296},{"city":"Cayon","state":"Saint Mary Cayon","population":788,"lat":17.35,"lng":-62.73333},{"city":"Mansion","state":"Christ Church Nichola Town","population":690,"lat":17.38271,"lng":-62.75747},{"city":"Monkey Hill","state":"Saint Peter Basseterre","population":592,"lat":17.32327,"lng":-62.72914},{"city":"Dieppe Bay Town","state":"Saint John Capesterre","population":592,"lat":17.41473,"lng":-62.8139},{"city":"Boyd’s","state":"Trinity Palmetto Point","population":591,"lat":17.29779,"lng":-62.77021},{"city":"Newcastle","state":"Saint James Windwa","population":493,"lat":17.2,"lng":-62.58333},{"city":"Cotton Ground","state":"Saint Thomas Lowland","population":381,"lat":17.16667,"lng":-62.61667}]}}