{"timezone":"America/Ciudad_Juarez","countries":{"Mexico":[{"city":"Ciudad Juárez","state":"Chihuahua","population":1512450,"lat":31.72024,"lng":-106.46084},{"city":"Ascensión","state":"Chihuahua","population":13456,"lat":31.0926,"lng":-107.99687},{"city":"Ascención","state":"Chihuahua","population":11781,"lat":31.1,"lng":-107.98333},{"city":"Puerto Palomas","state":"Chihuahua","population":5659,"lat":31.77718,"lng":-107.63439},{"city":"Praxédis Guerrero","state":"Chihuahua","population":3787,"lat":31.36667,"lng":-106.01667},{"city":"San Isidro","state":"Chihuahua","population":3483,"lat":31.54666,"lng":-106.28124},{"city":"Guadalupe","state":"Chihuahua","population":3022,"lat":31.38946,"lng":-106.10171},{"city":"Janos","state":"Chihuahua","population":2738,"lat":30.88909,"lng":-108.19431},{"city":"Loma Blanca","state":"Chihuahua","population":2169,"lat":31.57972,"lng":-106.2986},{"city":"Praxedis G. Guerrero","state":"Chihuahua","population":2128,"lat":31.3716,"lng":-106.00582},{"city":"Samalayuca","state":"Chihuahua","population":1474,"lat":31.34242,"lng":-106.47981},{"city":"Guadalupe Victoria","state":"Chihuahua","population":1369,"lat":31.53396,"lng":-107.73835},{"city":"San Agustín","state":"Chihuahua","population":1359,"lat":31.51674,"lng":-106.25548},{"city":"Porvenir","state":"Chihuahua","population":1253,"lat":31.24038,"lng":-105.87664},{"city":"Monte Verde","state":"Chihuahua","population":1087,"lat":30.91401,"lng":-108.71573},{"city":"Fernández Leal","state":"Chihuahua","population":885,"lat":30.85097,"lng":-108.28528},{"city":"El Bismarck","state":"Chihuahua","population":885,"lat":31.22889,"lng":-107.57917},{"city":"Pancho Villa","state":"Chihuahua","population":812,"lat":30.80223,"lng":-108.64561},{"city":"Juárez y Reforma","state":"Chihuahua","population":788,"lat":31.44,"lng":-106.17056},{"city":"Entronque (Ley Seis de Enero)","state":"Chihuahua","population":745,"lat":31.46833,"lng":-107.60861},{"city":"Tres Jacales","state":"Chihuahua","population":727,"lat":31.4585,"lng":-106.20128},{"city":"Esperanza","state":"Chihuahua","population":710,"lat":31.33051,"lng":-105.96176},{"city":"Tres Álamos","state":"Chihuahua","population":670,"lat":30.82385,"lng":-108.29884},{"city":"Barreales","state":"Chihuahua","population":540,"lat":31.39806,"lng":-106.13917},{"city":"Rinconada del Mimbre","state":"Chihuahua","population":539,"lat":31.34644,"lng":-106.04827},{"city":"Jesús Carranza (La Colorada)","state":"Chihuahua","population":509,"lat":31.49241,"lng":-106.23569}]}}