{"timezone":"America/Merida","countries":{"Mexico":[{"city":"Mérida","state":"Yucatán","population":1201000,"lat":20.967,"lng":-89.62318},{"city":"Tuxtla","state":"Chiapas","population":604147,"lat":16.75357,"lng":-93.11578},{"city":"Tapachula","state":"Chiapas","population":353706,"lat":14.90541,"lng":-92.25891},{"city":"Villahermosa","state":"Tabasco","population":353577,"lat":17.98625,"lng":-92.93928},{"city":"Campeche","state":"Campeche","population":220389,"lat":19.84073,"lng":-90.51676},{"city":"San Cristóbal de las Casas","state":"Chiapas","population":215874,"lat":16.73006,"lng":-92.63825},{"city":"Ciudad del Carmen","state":"Campeche","population":191238,"lat":18.64592,"lng":-91.82991},{"city":"Comitán","state":"Chiapas","population":166178,"lat":16.24004,"lng":-92.13668},{"city":"Kanasín","state":"Yucatán","population":77240,"lat":20.93485,"lng":-89.55822},{"city":"Valladolid","state":"Yucatán","population":48973,"lat":20.68812,"lng":-88.19936},{"city":"Tizimín","state":"Yucatán","population":46971,"lat":21.14304,"lng":-88.15188},{"city":"Palenque","state":"Chiapas","population":42947,"lat":17.50914,"lng":-91.98125},{"city":"Comalcalco","state":"Tabasco","population":41458,"lat":18.26496,"lng":-93.22432},{"city":"Umán","state":"Yucatán","population":39611,"lat":20.88149,"lng":-89.74798},{"city":"Ocozocoautla de Espinosa","state":"Chiapas","population":39180,"lat":16.7612,"lng":-93.37426},{"city":"Progreso","state":"Yucatán","population":37369,"lat":21.28217,"lng":-89.66289},{"city":"Ticul","state":"Yucatán","population":32796,"lat":20.39875,"lng":-89.53493},{"city":"Champotón","state":"Campeche","population":30881,"lat":19.34745,"lng":-90.72039},{"city":"Escárcega","state":"Campeche","population":29477,"lat":18.60891,"lng":-90.74544},{"city":"Berriozábal","state":"Chiapas","population":28128,"lat":16.79944,"lng":-93.27219},{"city":"Huimanguillo","state":"Tabasco","population":27344,"lat":17.83498,"lng":-93.38902},{"city":"Teapa","state":"Tabasco","population":26548,"lat":17.55602,"lng":-92.94788},{"city":"Río de Teapa","state":"Tabasco","population":26500,"lat":17.77473,"lng":-92.90217},{"city":"Reforma","state":"Chiapas","population":26257,"lat":17.85904,"lng":-93.15381},{"city":"Tecax","state":"Yucatán","population":25751,"lat":20.2052,"lng":-89.28522},{"city":"Hunucmá","state":"Yucatán","population":24910,"lat":21.0164,"lng":-89.87716},{"city":"Motozintla","state":"Chiapas","population":23755,"lat":15.36615,"lng":-92.24673},{"city":"Motul","state":"Yucatán","population":23240,"lat":21.09571,"lng":-89.28332},{"city":"Oxkutzkab","state":"Yucatán","population":23096,"lat":20.30734,"lng":-89.41809},{"city":"Las Margaritas","state":"Chiapas","population":20786,"lat":16.31281,"lng":-91.98224},{"city":"Peto","state":"Yucatán","population":19821,"lat":20.1261,"lng":-88.92302},{"city":"Comalapa","state":"Chiapas","population":18704,"lat":15.65995,"lng":-92.14111},{"city":"Chichén-Itzá","state":"Yucatán","population":18000,"lat":20.66667,"lng":-88.56667},{"city":"Suchiapa","state":"Chiapas","population":16637,"lat":16.62473,"lng":-93.09894},{"city":"Teopisca","state":"Chiapas","population":16240,"lat":16.54144,"lng":-92.47288},{"city":"Izamal","state":"Yucatán","population":16195,"lat":20.93315,"lng":-89.01887},{"city":"Calkiní","state":"Campeche","population":14934,"lat":20.36905,"lng":-90.05119},{"city":"Chemax","state":"Yucatán","population":14885,"lat":20.65562,"lng":-87.93693},{"city":"Ciudad Hidalgo","state":"Chiapas","population":14606,"lat":14.68018,"lng":-92.15195},{"city":"Acala","state":"Chiapas","population":13889,"lat":16.5561,"lng":-92.80772},{"city":"Maxcanú","state":"Yucatán","population":12621,"lat":20.58567,"lng":-90.002},{"city":"Bochil","state":"Chiapas","population":12404,"lat":16.99618,"lng":-92.8947},{"city":"Dzitbalché","state":"Campeche","population":11686,"lat":20.31857,"lng":-90.05611},{"city":"Espita","state":"Yucatán","population":11551,"lat":21.01062,"lng":-88.30672},{"city":"Muna","state":"Yucatán","population":11469,"lat":20.48831,"lng":-89.71441},{"city":"Tixkokob","state":"Yucatán","population":10968,"lat":21.0012,"lng":-89.39476},{"city":"Acanceh","state":"Yucatán","population":10968,"lat":20.81291,"lng":-89.45332},{"city":"Parrilla II","state":"Tabasco","population":10967,"lat":17.87702,"lng":-92.92468},{"city":"El Parral","state":"Chiapas","population":10865,"lat":16.37022,"lng":-93.00428},{"city":"Tecolutilla","state":"Tabasco","population":10637,"lat":18.28251,"lng":-93.33352},{"city":"Hecelchakán","state":"Campeche","population":10285,"lat":20.17735,"lng":-90.13357},{"city":"Akil","state":"Yucatán","population":10176,"lat":20.2654,"lng":-89.34726},{"city":"Tzucacab","state":"Yucatán","population":9967,"lat":20.0721,"lng":-89.05009},{"city":"Tekit","state":"Yucatán","population":9834,"lat":20.53601,"lng":-89.33404},{"city":"Candelaria","state":"Campeche","population":9812,"lat":18.18574,"lng":-91.04534},{"city":"Parrilla","state":"Tabasco","population":9664,"lat":17.91297,"lng":-92.91752},{"city":"Halachó","state":"Yucatán","population":9412,"lat":20.4787,"lng":-90.08172},{"city":"Altamirano","state":"Chiapas","population":9200,"lat":16.73369,"lng":-92.03882},{"city":"Tekoh","state":"Yucatán","population":9134,"lat":20.74361,"lng":-89.47406},{"city":"Tamulté de las Sabanas","state":"Tabasco","population":8824,"lat":18.16047,"lng":-92.78367},{"city":"La Venta","state":"Tabasco","population":8821,"lat":18.09798,"lng":-94.0452},{"city":"Seybaplaya","state":"Campeche","population":8711,"lat":19.63994,"lng":-90.68706},{"city":"Pomuch","state":"Campeche","population":8694,"lat":20.13727,"lng":-90.17488},{"city":"Seyé","state":"Yucatán","population":8369,"lat":20.83759,"lng":-89.37221},{"city":"Lerma","state":"Campeche","population":8281,"lat":19.80404,"lng":-90.60088},{"city":"Vicente Guerrero","state":"Tabasco","population":8188,"lat":18.38932,"lng":-92.89549},{"city":"Tenabo","state":"Campeche","population":7543,"lat":20.03981,"lng":-90.22573},{"city":"Buctzotz","state":"Yucatán","population":7515,"lat":21.20226,"lng":-88.79414},{"city":"Acacoyagua","state":"Chiapas","population":7515,"lat":15.34252,"lng":-92.67579},{"city":"Dzidzantun","state":"Yucatán","population":7393,"lat":21.24898,"lng":-89.04205},{"city":"Hopelchén","state":"Campeche","population":7295,"lat":19.74671,"lng":-89.84437},{"city":"Sabancuy","state":"Campeche","population":7286,"lat":18.9727,"lng":-91.17783},{"city":"Juárez","state":"Chiapas","population":7286,"lat":17.60747,"lng":-93.19253},{"city":"Villa Comaltitlán","state":"Chiapas","population":7201,"lat":15.21288,"lng":-92.57604},{"city":"Conkal","state":"Yucatán","population":7173,"lat":21.07499,"lng":-89.51945},{"city":"Tila","state":"Chiapas","population":7164,"lat":17.30032,"lng":-92.42595},{"city":"Chichicapa","state":"Tabasco","population":7091,"lat":18.26122,"lng":-93.18156},{"city":"Caucel","state":"Yucatán","population":6988,"lat":21.01589,"lng":-89.70682},{"city":"Pantelhó","state":"Chiapas","population":6888,"lat":17.0052,"lng":-92.47057},{"city":"Celestún","state":"Yucatán","population":6810,"lat":20.86031,"lng":-90.39741},{"city":"Cacalchen","state":"Yucatán","population":6787,"lat":20.98358,"lng":-89.22686},{"city":"Temozon","state":"Yucatán","population":6553,"lat":20.80393,"lng":-88.20155},{"city":"Bécal","state":"Campeche","population":6511,"lat":20.44172,"lng":-90.02738},{"city":"Macultepec","state":"Tabasco","population":6485,"lat":18.14326,"lng":-92.85962},{"city":"Kinchil","state":"Yucatán","population":6307,"lat":20.91354,"lng":-89.95018},{"city":"Temax","state":"Yucatán","population":6239,"lat":21.15056,"lng":-88.93941},{"city":"Isla Aguada","state":"Campeche","population":6204,"lat":18.78714,"lng":-91.49277},{"city":"Homun","state":"Yucatán","population":6146,"lat":20.73918,"lng":-89.2849},{"city":"Teabo","state":"Yucatán","population":6115,"lat":20.39951,"lng":-89.28299},{"city":"Chicxulub Puerto","state":"Yucatán","population":6010,"lat":21.29618,"lng":-89.59867},{"city":"Chicomuselo","state":"Chiapas","population":5938,"lat":15.74171,"lng":-92.28576},{"city":"Belén","state":"Tabasco","population":5892,"lat":17.78703,"lng":-92.61296},{"city":"Cholul","state":"Yucatán","population":5880,"lat":21.04288,"lng":-89.55792},{"city":"Dzilam González","state":"Yucatán","population":5875,"lat":21.28106,"lng":-88.92977},{"city":"Nunkiní","state":"Campeche","population":5859,"lat":20.40046,"lng":-90.14803},{"city":"Pemex","state":"Tabasco","population":5822,"lat":17.88302,"lng":-92.47947},{"city":"La Curva","state":"Tabasco","population":5651,"lat":17.86819,"lng":-92.48835},{"city":"Ayapa","state":"Tabasco","population":5640,"lat":18.22315,"lng":-93.1121},{"city":"El Triunfo","state":"Tabasco","population":5627,"lat":17.92264,"lng":-91.17056},{"city":"Rincón Chamula","state":"Chiapas","population":5592,"lat":17.20811,"lng":-92.939},{"city":"Sotuta","state":"Yucatán","population":5548,"lat":20.59666,"lng":-89.00798},{"city":"Piste","state":"Yucatán","population":5528,"lat":20.69972,"lng":-88.58889},{"city":"Chichimila","state":"Yucatán","population":5528,"lat":20.63176,"lng":-88.21689},{"city":"Miguel Hidalgo","state":"Tabasco","population":5397,"lat":18.25476,"lng":-93.30589},{"city":"Panabá","state":"Yucatán","population":5232,"lat":21.2965,"lng":-88.27021},{"city":"Chiná","state":"Campeche","population":5194,"lat":19.76993,"lng":-90.49595},{"city":"X-Cán","state":"Yucatán","population":5191,"lat":20.85715,"lng":-87.66915},{"city":"Quintín Arauz","state":"Tabasco","population":5178,"lat":18.36725,"lng":-93.21419},{"city":"Tzimol","state":"Chiapas","population":5112,"lat":16.17935,"lng":-92.18544},{"city":"Paseos de Itzincab","state":"Yucatán","population":5013,"lat":20.91644,"lng":-89.69823},{"city":"Dzan","state":"Yucatán","population":4939,"lat":20.38988,"lng":-89.46849},{"city":"Nuevo Progreso","state":"Campeche","population":4851,"lat":18.62294,"lng":-92.29124},{"city":"Jalupa","state":"Tabasco","population":4800,"lat":18.13686,"lng":-93.04741},{"city":"Opichén","state":"Yucatán","population":4751,"lat":20.55192,"lng":-89.85698},{"city":"Huhi","state":"Yucatán","population":4745,"lat":20.72603,"lng":-89.16072},{"city":"Cholul Cantón","state":"Yucatán","population":4716,"lat":21.01078,"lng":-89.29147},{"city":"Hoctun","state":"Yucatán","population":4686,"lat":20.86513,"lng":-89.20125},{"city":"Totolapa","state":"Chiapas","population":4596,"lat":16.54383,"lng":-92.68121},{"city":"Baca","state":"Yucatán","population":4553,"lat":21.10874,"lng":-89.39866},{"city":"Tecpatán","state":"Chiapas","population":4530,"lat":17.1354,"lng":-93.31039},{"city":"Chocholá","state":"Yucatán","population":4511,"lat":20.75079,"lng":-89.82989},{"city":"Cansahcab","state":"Yucatán","population":4293,"lat":21.158,"lng":-89.10214},{"city":"Nicolás Ruiz","state":"Chiapas","population":4277,"lat":16.4389,"lng":-92.58218},{"city":"Komchén","state":"Yucatán","population":4259,"lat":21.10354,"lng":-89.66147},{"city":"San Antonio Cárdenas","state":"Campeche","population":4206,"lat":18.61399,"lng":-92.22341},{"city":"Popola","state":"Yucatán","population":4176,"lat":20.73324,"lng":-88.23744},{"city":"Mani","state":"Yucatán","population":4146,"lat":20.38774,"lng":-89.39189},{"city":"Hocaba","state":"Yucatán","population":4127,"lat":20.8162,"lng":-89.24626},{"city":"Chicxulub Pueblo","state":"Yucatán","population":4080,"lat":21.13709,"lng":-89.51596},{"city":"Campestre Flamboyanes","state":"Yucatán","population":4027,"lat":21.21,"lng":-89.65778},{"city":"Xpujil","state":"Campeche","population":3984,"lat":18.5076,"lng":-89.39437},{"city":"Bolonchén de Rejón","state":"Campeche","population":3975,"lat":20.00386,"lng":-89.74663},{"city":"Villa Madero","state":"Campeche","population":3954,"lat":19.52833,"lng":-90.69917},{"city":"Amatán","state":"Chiapas","population":3947,"lat":17.37329,"lng":-92.81795},{"city":"Tetiz","state":"Yucatán","population":3939,"lat":20.96338,"lng":-89.93392},{"city":"Timucuy","state":"Yucatán","population":3872,"lat":20.81048,"lng":-89.51469},{"city":"Sucilá","state":"Yucatán","population":3785,"lat":21.15665,"lng":-88.31474},{"city":"Santo Domingo Kesté","state":"Campeche","population":3763,"lat":19.49972,"lng":-90.51139},{"city":"Tahdziu","state":"Yucatán","population":3742,"lat":20.20508,"lng":-88.94555},{"city":"Ixil","state":"Yucatán","population":3728,"lat":21.15382,"lng":-89.48177},{"city":"Sacalum","state":"Yucatán","population":3721,"lat":20.49647,"lng":-89.59033},{"city":"Cuzama","state":"Yucatán","population":3721,"lat":20.74202,"lng":-89.31732},{"city":"Kimbila","state":"Yucatán","population":3633,"lat":20.93403,"lng":-89.1247},{"city":"Chablekal","state":"Yucatán","population":3626,"lat":21.09612,"lng":-89.57729},{"city":"San José Tzal","state":"Yucatán","population":3543,"lat":20.82294,"lng":-89.66062},{"city":"Telchac Pueblo","state":"Yucatán","population":3517,"lat":21.20312,"lng":-89.26945},{"city":"Chelem","state":"Yucatán","population":3509,"lat":21.26921,"lng":-89.74267},{"city":"Tahmek","state":"Yucatán","population":3493,"lat":20.87493,"lng":-89.25558},{"city":"Tixcacalcupul","state":"Yucatán","population":3492,"lat":20.53692,"lng":-88.26998},{"city":"Kantunil","state":"Yucatán","population":3491,"lat":20.79677,"lng":-89.03535},{"city":"Tixpéhual","state":"Yucatán","population":3470,"lat":20.97742,"lng":-89.44222},{"city":"Santa Elena","state":"Yucatán","population":3456,"lat":20.32842,"lng":-89.64453},{"city":"Chablé","state":"Tabasco","population":3377,"lat":17.85764,"lng":-91.78105},{"city":"Emiliano Zapata","state":"Chiapas","population":3353,"lat":16.17222,"lng":-94.06423},{"city":"Chicoasén","state":"Chiapas","population":3343,"lat":16.96775,"lng":-93.10564},{"city":"Popolnah","state":"Yucatán","population":3276,"lat":20.9935,"lng":-87.56281},{"city":"Cenotillo","state":"Yucatán","population":3272,"lat":20.96592,"lng":-88.60478},{"city":"Texan de Palomeque","state":"Yucatán","population":3264,"lat":20.9375,"lng":-89.83333},{"city":"Mayapan","state":"Yucatán","population":3263,"lat":20.46839,"lng":-89.21395},{"city":"División del Norte","state":"Campeche","population":3259,"lat":18.52946,"lng":-90.76416},{"city":"Xocchel","state":"Yucatán","population":3229,"lat":20.833,"lng":-89.1826},{"city":"Dzemul","state":"Yucatán","population":3228,"lat":21.21116,"lng":-89.30937},{"city":"Iturbide","state":"Campeche","population":3198,"lat":19.57903,"lng":-89.60222},{"city":"Coapilla","state":"Chiapas","population":3187,"lat":17.13024,"lng":-93.15876},{"city":"Chumayel","state":"Yucatán","population":3135,"lat":20.42833,"lng":-89.30111},{"city":"Chapultenango","state":"Chiapas","population":3129,"lat":17.34015,"lng":-93.12981},{"city":"Uayma","state":"Yucatán","population":3126,"lat":20.71684,"lng":-88.31714},{"city":"Kanxoc","state":"Yucatán","population":3126,"lat":20.61555,"lng":-88.09764},{"city":"Tekanto","state":"Yucatán","population":3105,"lat":21.00968,"lng":-89.10723},{"city":"Palizada","state":"Campeche","population":3089,"lat":18.25503,"lng":-92.0911},{"city":"Cepeda","state":"Yucatán","population":3064,"lat":20.50815,"lng":-90.11014},{"city":"Simón Sarlat","state":"Tabasco","population":3044,"lat":18.34179,"lng":-92.80668},{"city":"Yaxcabá","state":"Yucatán","population":3007,"lat":20.5475,"lng":-88.82692},{"city":"Hunuku","state":"Yucatán","population":2971,"lat":20.8523,"lng":-88.08946},{"city":"Tapijulapa","state":"Tabasco","population":2921,"lat":17.45977,"lng":-92.77903},{"city":"Tapotzingo","state":"Tabasco","population":2890,"lat":18.20365,"lng":-93.01575},{"city":"Dzitás","state":"Yucatán","population":2879,"lat":20.84,"lng":-88.52793},{"city":"Mama","state":"Yucatán","population":2876,"lat":20.4775,"lng":-89.36469},{"city":"Huitiupán","state":"Chiapas","population":2857,"lat":17.17166,"lng":-92.68526},{"city":"Carrillo Puerto","state":"Campeche","population":2829,"lat":19.094,"lng":-90.52279},{"city":"Tunkás","state":"Yucatán","population":2828,"lat":20.90227,"lng":-88.75135},{"city":"Samahil","state":"Yucatán","population":2826,"lat":20.88348,"lng":-89.88826},{"city":"Yaxkukul","state":"Yucatán","population":2825,"lat":21.062,"lng":-89.41902},{"city":"Kancab","state":"Yucatán","population":2819,"lat":20.19547,"lng":-89.34581},{"city":"Yalkoba","state":"Yucatán","population":2808,"lat":20.79167,"lng":-88.03673},{"city":"Calotmul","state":"Yucatán","population":2764,"lat":21.01964,"lng":-88.17734},{"city":"Leona Vicario","state":"Yucatán","population":2754,"lat":20.90944,"lng":-89.60111},{"city":"Sihochac","state":"Campeche","population":2731,"lat":19.5012,"lng":-90.58472},{"city":"Francisco I. Madero","state":"Tabasco","population":2722,"lat":18.33402,"lng":-93.20463},{"city":"Chikindzonot","state":"Yucatán","population":2699,"lat":20.3378,"lng":-88.48708},{"city":"Cocohital","state":"Tabasco","population":2674,"lat":18.39742,"lng":-93.34469},{"city":"Emiliano Zapata","state":"Tabasco","population":2633,"lat":17.9946,"lng":-92.96296},{"city":"Ucú","state":"Yucatán","population":2601,"lat":21.03193,"lng":-89.74617},{"city":"Sinanche","state":"Yucatán","population":2563,"lat":21.22591,"lng":-89.18495},{"city":"Tekal de Venegas","state":"Yucatán","population":2562,"lat":21.01599,"lng":-88.94693},{"city":"Chacsinkin","state":"Yucatán","population":2555,"lat":20.17222,"lng":-89.01654},{"city":"Guaytalpa","state":"Tabasco","population":2544,"lat":18.21546,"lng":-93.03163},{"city":"Tekom","state":"Yucatán","population":2540,"lat":20.60232,"lng":-88.26483},{"city":"Atasta","state":"Campeche","population":2535,"lat":18.61954,"lng":-92.10326},{"city":"Bacabchén","state":"Campeche","population":2527,"lat":20.28903,"lng":-90.05602},{"city":"Pustunich","state":"Yucatán","population":2480,"lat":20.36916,"lng":-89.51156},{"city":"Tecominoacán","state":"Tabasco","population":2467,"lat":17.91952,"lng":-93.56299},{"city":"Gregorio Méndez","state":"Tabasco","population":2434,"lat":18.04726,"lng":-93.08282},{"city":"Xocen","state":"Yucatán","population":2407,"lat":20.5977,"lng":-88.1643},{"city":"Muxupip","state":"Yucatán","population":2399,"lat":21.04295,"lng":-89.3297},{"city":"Tixmehuac","state":"Yucatán","population":2392,"lat":20.23608,"lng":-89.10716},{"city":"Dzilam de Bravo","state":"Yucatán","population":2374,"lat":21.3917,"lng":-88.89421},{"city":"Kaua","state":"Yucatán","population":2340,"lat":20.62132,"lng":-88.41434},{"city":"Dzibalchén","state":"Campeche","population":2340,"lat":19.45847,"lng":-89.73111},{"city":"Nicolás Bravo","state":"Tabasco","population":2326,"lat":18.16084,"lng":-93.08173},{"city":"Uayalceh de Peón","state":"Yucatán","population":2323,"lat":20.69345,"lng":-89.59483},{"city":"Dzoncauich","state":"Yucatán","population":2318,"lat":21.12887,"lng":-88.89068},{"city":"Mazateupa","state":"Tabasco","population":2304,"lat":18.20346,"lng":-93.00959},{"city":"El Tular","state":"Tabasco","population":2300,"lat":18.15038,"lng":-93.33517},{"city":"Mecoacán","state":"Tabasco","population":2281,"lat":18.23749,"lng":-93.08229},{"city":"Yotholin","state":"Yucatán","population":2267,"lat":20.32786,"lng":-89.45429},{"city":"Los Laureles","state":"Campeche","population":2251,"lat":19.48778,"lng":-89.99444},{"city":"Citilcum","state":"Yucatán","population":2247,"lat":20.95184,"lng":-89.11828},{"city":"Chan Cenote","state":"Yucatán","population":2225,"lat":20.99176,"lng":-87.78474},{"city":"Río Lagartos","state":"Yucatán","population":2218,"lat":21.59448,"lng":-88.15767},{"city":"Mecatepec","state":"Tabasco","population":2195,"lat":17.8893,"lng":-93.52421},{"city":"Dzonot Carretero","state":"Yucatán","population":2184,"lat":21.40255,"lng":-87.878},{"city":"Ekmul","state":"Yucatán","population":2168,"lat":20.9654,"lng":-89.34877},{"city":"Tixcancal","state":"Yucatán","population":2165,"lat":21.03534,"lng":-87.85077},{"city":"Tixcacaltuyub","state":"Yucatán","population":2146,"lat":20.49257,"lng":-88.9163},{"city":"Huacapa y Amestoy","state":"Tabasco","population":2146,"lat":18.05321,"lng":-93.19818},{"city":"Chapab","state":"Yucatán","population":2141,"lat":20.45863,"lng":-89.45727},{"city":"Cupilco","state":"Tabasco","population":2136,"lat":18.23776,"lng":-93.1273},{"city":"Tinum","state":"Yucatán","population":2111,"lat":20.76721,"lng":-88.39199},{"city":"Tepakan","state":"Yucatán","population":2064,"lat":21.04882,"lng":-89.03873},{"city":"Alfredo V. Bonfil","state":"Campeche","population":2060,"lat":19.53032,"lng":-90.18214},{"city":"Bokoba","state":"Yucatán","population":2052,"lat":21.00755,"lng":-89.17913},{"city":"Mocochá","state":"Yucatán","population":2042,"lat":21.10678,"lng":-89.45286},{"city":"Kopomá","state":"Yucatán","population":2026,"lat":20.64866,"lng":-89.89964},{"city":"Ukúm","state":"Campeche","population":2019,"lat":19.24197,"lng":-89.33529},{"city":"Cuch Holoch","state":"Yucatán","population":2017,"lat":20.43572,"lng":-90.09765},{"city":"Molas","state":"Yucatán","population":2014,"lat":20.81609,"lng":-89.62991},{"city":"La Lucha","state":"Tabasco","population":1989,"lat":18.18139,"lng":-93.32265},{"city":"Holcá","state":"Yucatán","population":1988,"lat":20.75704,"lng":-88.92834},{"city":"Teya","state":"Yucatán","population":1975,"lat":21.05124,"lng":-89.07341},{"city":"Tekik de Regil","state":"Yucatán","population":1938,"lat":20.8175,"lng":-89.56082},{"city":"Chuburná","state":"Yucatán","population":1929,"lat":21.25722,"lng":-89.79793},{"city":"Oxiacaque","state":"Tabasco","population":1928,"lat":18.2148,"lng":-92.94631},{"city":"Sahcaba","state":"Yucatán","population":1922,"lat":20.79174,"lng":-89.18138},{"city":"Dos Montes","state":"Tabasco","population":1909,"lat":17.98608,"lng":-92.82765},{"city":"Santa Cruz Pueblo","state":"Campeche","population":1908,"lat":20.33359,"lng":-90.10342},{"city":"Tepakán","state":"Campeche","population":1895,"lat":20.39716,"lng":-90.04075},{"city":"Abalá","state":"Yucatán","population":1890,"lat":20.6478,"lng":-89.68065},{"city":"Suma de Hidalgo","state":"Yucatán","population":1861,"lat":21.08643,"lng":-89.14766},{"city":"San Antonio Sahcabchén","state":"Campeche","population":1858,"lat":20.30696,"lng":-90.13778},{"city":"Sisal","state":"Yucatán","population":1837,"lat":21.167,"lng":-90.02532},{"city":"Yobain","state":"Yucatán","population":1820,"lat":21.23435,"lng":-89.11488},{"city":"Xaya","state":"Yucatán","population":1814,"lat":20.2958,"lng":-89.18687},{"city":"Dzununcán","state":"Yucatán","population":1802,"lat":20.86521,"lng":-89.65345},{"city":"La Gloria","state":"Chiapas","population":1801,"lat":16.14875,"lng":-94.09326},{"city":"Sitilpech","state":"Yucatán","population":1799,"lat":20.94087,"lng":-88.95719},{"city":"San Felipe","state":"Yucatán","population":1789,"lat":21.56344,"lng":-88.23284},{"city":"Pueblo Nuevo de las Raíces","state":"Tabasco","population":1773,"lat":17.84496,"lng":-92.878},{"city":"Pich","state":"Campeche","population":1756,"lat":19.48568,"lng":-90.11795},{"city":"Telchac Puerto","state":"Yucatán","population":1722,"lat":21.34087,"lng":-89.26452},{"city":"Becanchén","state":"Yucatán","population":1713,"lat":19.87446,"lng":-89.21735},{"city":"Tahdzibichen","state":"Yucatán","population":1699,"lat":20.44916,"lng":-88.83068},{"city":"Cantamayec","state":"Yucatán","population":1695,"lat":20.47008,"lng":-89.08144},{"city":"Chicbul","state":"Campeche","population":1692,"lat":18.77558,"lng":-90.92429},{"city":"Libre Unión","state":"Yucatán","population":1671,"lat":20.70732,"lng":-88.80877},{"city":"Tikinmul","state":"Campeche","population":1663,"lat":19.76611,"lng":-90.22306},{"city":"Ticopó","state":"Yucatán","population":1660,"lat":20.88929,"lng":-89.43992},{"city":"Xbacab","state":"Campeche","population":1649,"lat":18.94139,"lng":-90.72194},{"city":"Sitpach","state":"Yucatán","population":1634,"lat":21.02809,"lng":-89.51982},{"city":"Tibolón","state":"Yucatán","population":1633,"lat":20.6658,"lng":-88.93993},{"city":"Yaxhachen","state":"Yucatán","population":1633,"lat":20.05177,"lng":-89.56604},{"city":"Gobernador Cruz","state":"Tabasco","population":1629,"lat":18.43394,"lng":-92.87293},{"city":"Pocboc","state":"Campeche","population":1624,"lat":20.23541,"lng":-90.10219},{"city":"Sanahcat","state":"Yucatán","population":1619,"lat":20.77131,"lng":-89.2141},{"city":"San Francisco Grande","state":"Yucatán","population":1603,"lat":20.70063,"lng":-88.47322},{"city":"Dzityá","state":"Yucatán","population":1602,"lat":21.05128,"lng":-89.68025},{"city":"Cumpich","state":"Campeche","population":1587,"lat":20.18612,"lng":-89.97081},{"city":"Kini","state":"Yucatán","population":1581,"lat":21.13557,"lng":-89.31691},{"city":"Tixhualactún","state":"Yucatán","population":1576,"lat":20.64403,"lng":-88.14308},{"city":"El Cuyo","state":"Yucatán","population":1567,"lat":21.51568,"lng":-87.67878},{"city":"Multé","state":"Tabasco","population":1562,"lat":17.68758,"lng":-91.37893},{"city":"Kochol","state":"Yucatán","population":1560,"lat":20.61898,"lng":-90.15901},{"city":"Pencuyut","state":"Yucatán","population":1524,"lat":20.29335,"lng":-89.28894},{"city":"Sucopó","state":"Yucatán","population":1517,"lat":21.16152,"lng":-88.04698},{"city":"Calcehtok","state":"Yucatán","population":1503,"lat":20.56717,"lng":-89.91256},{"city":"San Pablo Pixtún","state":"Campeche","population":1498,"lat":19.13361,"lng":-90.73194},{"city":"Xcanatún","state":"Yucatán","population":1495,"lat":21.07761,"lng":-89.63074},{"city":"Nolo","state":"Yucatán","population":1493,"lat":21.0089,"lng":-89.42279},{"city":"Xicoténcatl","state":"Tabasco","population":1474,"lat":17.51703,"lng":-92.70374},{"city":"La Raya Zaragoza","state":"Tabasco","population":1471,"lat":17.40494,"lng":-92.68418},{"city":"Tiholop","state":"Yucatán","population":1463,"lat":20.33182,"lng":-88.68922},{"city":"La Libertad","state":"Campeche","population":1462,"lat":18.57042,"lng":-90.51399},{"city":"Matamoros","state":"Campeche","population":1453,"lat":18.58414,"lng":-90.64669},{"city":"Xanabá","state":"Yucatán","population":1440,"lat":20.83611,"lng":-89.01372},{"city":"Santa María Acú","state":"Yucatán","population":1437,"lat":20.54713,"lng":-90.16347},{"city":"La Palma","state":"Tabasco","population":1427,"lat":17.97974,"lng":-92.80416},{"city":"Palo Mulato","state":"Tabasco","population":1415,"lat":18.02114,"lng":-93.7764},{"city":"Xohuayan","state":"Yucatán","population":1405,"lat":20.18805,"lng":-89.38319},{"city":"Bolón","state":"Yucatán","population":1392,"lat":20.84975,"lng":-89.83227},{"city":"Dzibikak","state":"Yucatán","population":1388,"lat":20.90149,"lng":-89.79405},{"city":"Telchaquillo","state":"Yucatán","population":1385,"lat":20.64642,"lng":-89.46372},{"city":"Ekpedz","state":"Yucatán","population":1374,"lat":20.31704,"lng":-88.43015},{"city":"Tesoco","state":"Yucatán","population":1362,"lat":20.72238,"lng":-88.15499},{"city":"Emiliano Zapata","state":"Yucatán","population":1350,"lat":20.22722,"lng":-89.46738},{"city":"Tikuch","state":"Yucatán","population":1336,"lat":20.70273,"lng":-88.11273},{"city":"Rancho Nuevo","state":"Tabasco","population":1330,"lat":18.07272,"lng":-93.07083},{"city":"Cuncunul","state":"Yucatán","population":1314,"lat":20.64045,"lng":-88.2965},{"city":"Colonia Emiliano Zapata","state":"Campeche","population":1311,"lat":18.66504,"lng":-92.31088},{"city":"Ignacio Gutiérrez Gómez","state":"Tabasco","population":1307,"lat":18.24705,"lng":-93.39764},{"city":"Benito Juárez Uno","state":"Campeche","population":1281,"lat":18.27695,"lng":-91.09914},{"city":"Aldama","state":"Chiapas","population":1273,"lat":16.91603,"lng":-92.68914},{"city":"Arena de Hidalgo","state":"Tabasco","population":1270,"lat":17.4573,"lng":-91.58779},{"city":"El Aguacatal","state":"Campeche","population":1270,"lat":18.21361,"lng":-91.51095},{"city":"Colonia Yucatán","state":"Yucatán","population":1264,"lat":21.21331,"lng":-87.72354},{"city":"Mamantel","state":"Campeche","population":1262,"lat":18.52512,"lng":-91.08885},{"city":"Sudzal","state":"Yucatán","population":1261,"lat":20.87184,"lng":-88.98876},{"city":"Santa Cruz Ex-Hacienda","state":"Campeche","population":1255,"lat":20.39684,"lng":-90.24068},{"city":"Maya Tecún I","state":"Campeche","population":1254,"lat":19.15292,"lng":-90.50641},{"city":"San Rafael","state":"Yucatán","population":1252,"lat":20.70394,"lng":-90.1581},{"city":"Dzitnup","state":"Yucatán","population":1248,"lat":20.64752,"lng":-88.24451},{"city":"San Pedro Chimay","state":"Yucatán","population":1241,"lat":20.866,"lng":-89.5795},{"city":"Lepan","state":"Yucatán","population":1240,"lat":20.7127,"lng":-89.49701},{"city":"Licenciado Gustavo Díaz Ordaz (18 de Marzo)","state":"Campeche","population":1239,"lat":18.63222,"lng":-91.00278},{"city":"San Antonio Tedzidz","state":"Yucatán","population":1237,"lat":20.83487,"lng":-89.97502},{"city":"Loché","state":"Yucatán","population":1237,"lat":21.38864,"lng":-88.14608},{"city":"Santo Domingo","state":"Yucatán","population":1234,"lat":20.6,"lng":-90.11667},{"city":"Xmabén","state":"Campeche","population":1228,"lat":19.2353,"lng":-89.31426},{"city":"Uci","state":"Yucatán","population":1224,"lat":21.12682,"lng":-89.26827},{"city":"Nacuche","state":"Yucatán","population":1219,"lat":20.92466,"lng":-88.29582},{"city":"Amado Gómez","state":"Tabasco","population":1218,"lat":18.14773,"lng":-93.35579},{"city":"Potreritos","state":"Tabasco","population":1212,"lat":18.31039,"lng":-93.28222},{"city":"Euán","state":"Yucatán","population":1186,"lat":20.99694,"lng":-89.34051},{"city":"Hool","state":"Campeche","population":1181,"lat":19.51294,"lng":-90.44631},{"city":"Suc-Tuc","state":"Campeche","population":1179,"lat":19.71259,"lng":-90.03768},{"city":"Oxcum","state":"Yucatán","population":1175,"lat":20.9454,"lng":-89.76203},{"city":"Las Coloradas","state":"Yucatán","population":1151,"lat":21.60725,"lng":-87.99048},{"city":"Yaxcopoil","state":"Yucatán","population":1149,"lat":20.74545,"lng":-89.72231},{"city":"Constitución","state":"Campeche","population":1142,"lat":18.62675,"lng":-90.13584},{"city":"Abelardo L. Rodríguez","state":"Campeche","population":1130,"lat":18.72842,"lng":-90.90456},{"city":"Kinil","state":"Yucatán","population":1127,"lat":20.32389,"lng":-89.13322},{"city":"Hampolol","state":"Campeche","population":1123,"lat":19.92716,"lng":-90.38924},{"city":"Santa Cruz","state":"Campeche","population":1118,"lat":20.20339,"lng":-90.11771},{"city":"Xul","state":"Yucatán","population":1110,"lat":20.10187,"lng":-89.46159},{"city":"Sierra Papacal","state":"Yucatán","population":1108,"lat":21.12403,"lng":-89.72977},{"city":"Pueblo Viejo","state":"Tabasco","population":1105,"lat":18.2013,"lng":-93.08638},{"city":"Castamay","state":"Campeche","population":1101,"lat":19.83782,"lng":-90.43181},{"city":"Apatzingán","state":"Tabasco","population":1096,"lat":17.60892,"lng":-91.0648},{"city":"Haro","state":"Campeche","population":1092,"lat":18.44418,"lng":-90.79153},{"city":"Chunchucmil","state":"Yucatán","population":1091,"lat":20.64375,"lng":-90.21365},{"city":"Chunchintok","state":"Campeche","population":1086,"lat":19.36145,"lng":-89.58218},{"city":"La Estrella","state":"Tabasco","population":1083,"lat":18.60365,"lng":-92.58077},{"city":"Don Samuel","state":"Campeche","population":1081,"lat":18.36,"lng":-90.85722},{"city":"Zoh-Laguna","state":"Campeche","population":1074,"lat":18.59306,"lng":-89.41714},{"city":"El Naranjo","state":"Campeche","population":1065,"lat":18.02193,"lng":-91.12654},{"city":"Mactún","state":"Tabasco","population":1055,"lat":17.59134,"lng":-91.29156},{"city":"Chalchihuitán","state":"Chiapas","population":1054,"lat":16.96356,"lng":-92.61825},{"city":"Pixoy","state":"Yucatán","population":1054,"lat":20.71624,"lng":-88.26333},{"city":"San Francisco Kobén","state":"Campeche","population":1045,"lat":19.91516,"lng":-90.41709},{"city":"La Grandeza","state":"Chiapas","population":1044,"lat":15.51115,"lng":-92.22554},{"city":"Altamira de Zináparo","state":"Campeche","population":1040,"lat":18.58208,"lng":-90.2561},{"city":"La Joya","state":"Campeche","population":1007,"lat":19.48028,"lng":-90.67333},{"city":"Tankuché","state":"Campeche","population":1006,"lat":20.50743,"lng":-90.24164},{"city":"Tinún","state":"Campeche","population":998,"lat":19.96498,"lng":-90.22626},{"city":"Santa Rita","state":"Campeche","population":997,"lat":19.6508,"lng":-89.87113},{"city":"Maya Tecún II","state":"Campeche","population":995,"lat":19.16488,"lng":-90.50593},{"city":"Xkeulil","state":"Campeche","population":991,"lat":19.62867,"lng":-90.63031},{"city":"San José Oriente","state":"Yucatán","population":990,"lat":20.86113,"lng":-89.10263},{"city":"La Ceiba","state":"Yucatán","population":990,"lat":21.09139,"lng":-89.62944},{"city":"Bethania","state":"Campeche","population":984,"lat":19.90794,"lng":-90.36676},{"city":"Melchor Ocampo","state":"Campeche","population":983,"lat":19.37444,"lng":-90.22722},{"city":"Kaxatah","state":"Yucatán","population":982,"lat":21.095,"lng":-89.25389},{"city":"Ich-Ek","state":"Campeche","population":970,"lat":19.7327,"lng":-89.96659},{"city":"Ebtun","state":"Yucatán","population":966,"lat":20.66436,"lng":-88.25963},{"city":"Subincancab","state":"Yucatán","population":965,"lat":20.73773,"lng":-89.5825},{"city":"San Isidro Ochil","state":"Yucatán","population":965,"lat":20.63716,"lng":-89.34151},{"city":"Kancabdzonot","state":"Yucatán","population":963,"lat":20.50976,"lng":-88.70995},{"city":"Tahmuy","state":"Yucatán","population":958,"lat":20.75942,"lng":-88.14173},{"city":"José María Pino Suárez","state":"Tabasco","population":953,"lat":18.3044,"lng":-92.21833},{"city":"Xmuquel","state":"Yucatán","population":952,"lat":20.89626,"lng":-87.83795},{"city":"Tipical","state":"Yucatán","population":951,"lat":20.40702,"lng":-89.3425},{"city":"El Yucateco","state":"Tabasco","population":947,"lat":18.21129,"lng":-94.01895},{"city":"Timul","state":"Yucatán","population":943,"lat":21.19308,"lng":-89.39017},{"city":"Quintana Roo","state":"Yucatán","population":942,"lat":20.86885,"lng":-88.63114},{"city":"Centenario","state":"Campeche","population":942,"lat":18.65153,"lng":-90.28442},{"city":"Miguel Hidalgo y Costilla","state":"Campeche","population":938,"lat":17.88859,"lng":-90.84663},{"city":"Catmis","state":"Yucatán","population":933,"lat":19.95693,"lng":-88.94977},{"city":"Kuchel","state":"Yucatán","population":931,"lat":20.84977,"lng":-89.89815},{"city":"El Desengaño","state":"Campeche","population":930,"lat":17.86778,"lng":-90.44833},{"city":"Ticimul","state":"Yucatán","population":929,"lat":20.88092,"lng":-89.68362},{"city":"Constancia y Venecia","state":"Tabasco","population":923,"lat":18.43511,"lng":-92.82452},{"city":"Miguel Colorado","state":"Campeche","population":923,"lat":18.78472,"lng":-90.65528},{"city":"Ticum","state":"Yucatán","population":922,"lat":20.14861,"lng":-89.21667},{"city":"Playa Larga","state":"Tabasco","population":921,"lat":17.93633,"lng":-91.80908},{"city":"Tepich Carrillo","state":"Yucatán","population":914,"lat":20.87751,"lng":-89.4979},{"city":"Santa Rosa","state":"Yucatán","population":913,"lat":20.60553,"lng":-90.08876},{"city":"Ichmul","state":"Yucatán","population":911,"lat":20.16255,"lng":-88.60766},{"city":"Xcunyá","state":"Yucatán","population":907,"lat":21.13278,"lng":-89.61306},{"city":"San Antonio Chum","state":"Yucatán","population":904,"lat":20.87865,"lng":-89.85922},{"city":"Nilchí","state":"Campeche","population":900,"lat":19.84597,"lng":-90.27142},{"city":"Aquiles Serdán (Chuiná)","state":"Campeche","population":896,"lat":18.96389,"lng":-90.71389},{"city":"Dzitnup","state":"Campeche","population":891,"lat":20.18424,"lng":-90.10742},{"city":"Uspibil","state":"Yucatán","population":890,"lat":20.76932,"lng":-88.00464},{"city":"Miguel Alemán","state":"Campeche","population":886,"lat":18.2414,"lng":-90.95361},{"city":"Chunkanán","state":"Campeche","population":885,"lat":20.24454,"lng":-90.24157},{"city":"Xcupil","state":"Campeche","population":881,"lat":19.66592,"lng":-89.85949},{"city":"Tixcacal","state":"Yucatán","population":881,"lat":20.94423,"lng":-89.71185},{"city":"Dzitox","state":"Quintana Roo","population":881,"lat":20.38318,"lng":-88.08692},{"city":"Nohakal","state":"Campeche","population":880,"lat":19.65424,"lng":-90.3359},{"city":"Tanya","state":"Yucatán","population":879,"lat":21.11111,"lng":-89.24768},{"city":"Poxilá","state":"Yucatán","population":878,"lat":20.81822,"lng":-89.80548},{"city":"La Victoria","state":"Campeche","population":878,"lat":18.49111,"lng":-90.92444},{"city":"Redención del Campesino","state":"Tabasco","population":867,"lat":17.32804,"lng":-91.28393},{"city":"Pucnachén","state":"Campeche","population":865,"lat":20.36485,"lng":-90.21811},{"city":"Yaxché de Peón","state":"Yucatán","population":846,"lat":21.04449,"lng":-89.75466},{"city":"Cinco de Febrero","state":"Campeche","population":844,"lat":18.85621,"lng":-90.63366},{"city":"Citincabchen","state":"Yucatán","population":843,"lat":20.51821,"lng":-89.53637},{"city":"Santa Cruz Palomeque","state":"Yucatán","population":835,"lat":20.8805,"lng":-89.65527},{"city":"Ulumal","state":"Campeche","population":833,"lat":19.2725,"lng":-90.62333},{"city":"Pajonal","state":"Tabasco","population":830,"lat":17.99381,"lng":-92.79564},{"city":"Justicia Social","state":"Campeche","population":818,"lat":18.62193,"lng":-90.3868},{"city":"Quetzal Edzná","state":"Campeche","population":813,"lat":19.45833,"lng":-90.105},{"city":"Pocoboch","state":"Yucatán","population":809,"lat":20.97457,"lng":-88.11559},{"city":"Pejelagarto","state":"Campeche","population":805,"lat":18.18931,"lng":-90.99778},{"city":"Silvituc","state":"Campeche","population":803,"lat":18.64126,"lng":-90.2713},{"city":"Tixkuncheil","state":"Yucatán","population":799,"lat":21.0799,"lng":-89.39756},{"city":"San Juan","state":"Tabasco","population":799,"lat":18.4088,"lng":-92.97829},{"city":"Yaxnic","state":"Yucatán","population":794,"lat":20.78881,"lng":-89.61828},{"city":"Kunche","state":"Yucatán","population":793,"lat":20.91099,"lng":-88.30289},{"city":"Xcalak Dzonot","state":"Yucatán","population":789,"lat":20.43967,"lng":-88.56929},{"city":"Laguna Grande","state":"Campeche","population":783,"lat":18.81972,"lng":-90.29028},{"city":"Nohuayún","state":"Yucatán","population":777,"lat":20.97557,"lng":-89.96809},{"city":"Xcopteil","state":"Yucatán","population":773,"lat":20.51338,"lng":-88.58172},{"city":"Yokdzonot","state":"Yucatán","population":772,"lat":20.7098,"lng":-88.73219},{"city":"Plan de Ayala","state":"Campeche","population":771,"lat":18.77706,"lng":-90.92935},{"city":"Cuauhtemoczín","state":"Tabasco","population":769,"lat":18.20498,"lng":-94.1266},{"city":"San Ignacio","state":"Yucatán","population":766,"lat":21.16039,"lng":-89.655},{"city":"San Pedro Chacabal","state":"Yucatán","population":765,"lat":21.13523,"lng":-89.19304},{"city":"Temozon Sur","state":"Yucatán","population":760,"lat":20.68726,"lng":-89.65317},{"city":"Canicab","state":"Yucatán","population":758,"lat":20.86023,"lng":-89.43162},{"city":"Isla Arena","state":"Campeche","population":754,"lat":20.69111,"lng":-90.4525},{"city":"Zunú y Patastal","state":"Tabasco","population":747,"lat":17.47301,"lng":-92.81321},{"city":"Dzidzibachi","state":"Yucatán","population":738,"lat":20.56956,"lng":-90.12658},{"city":"Jolochero","state":"Tabasco","population":737,"lat":17.52374,"lng":-91.07722},{"city":"Manuel Buelta y Rayón","state":"Tabasco","population":732,"lat":17.70391,"lng":-92.95384},{"city":"El Capulín","state":"Tabasco","population":731,"lat":17.70608,"lng":-91.08562},{"city":"La Cruz del Bajío","state":"Tabasco","population":731,"lat":17.97241,"lng":-92.78527},{"city":"Nueva Rosita","state":"Campeche","population":731,"lat":18.29404,"lng":-90.7387},{"city":"La Cristalina","state":"Campeche","population":730,"lat":18.72922,"lng":-91.05562},{"city":"Ticimul","state":"Yucatán","population":726,"lat":20.59761,"lng":-88.5513},{"city":"Tahdzibichén","state":"Yucatán","population":724,"lat":20.88538,"lng":-89.59753},{"city":"San Antonio Tehuitz","state":"Yucatán","population":724,"lat":20.89962,"lng":-89.52048},{"city":"Kuxeb","state":"Yucatán","population":724,"lat":20.85785,"lng":-87.86959},{"city":"Xoy","state":"Yucatán","population":714,"lat":20.12332,"lng":-88.97117},{"city":"Las Golondrinas","state":"Campeche","population":712,"lat":17.88826,"lng":-90.81299},{"city":"Tabi","state":"Yucatán","population":708,"lat":20.5987,"lng":-88.89841},{"city":"Luna","state":"Campeche","population":701,"lat":18.29623,"lng":-90.90034},{"city":"Pablo García","state":"Campeche","population":699,"lat":18.61894,"lng":-90.13975},{"city":"Eknakán","state":"Yucatán","population":698,"lat":20.75886,"lng":-89.37053},{"city":"Moquel","state":"Campeche","population":695,"lat":19.35278,"lng":-90.67278},{"city":"Oxcabal","state":"Campeche","population":692,"lat":18.86447,"lng":-90.96667},{"city":"Sacapuc","state":"Yucatán","population":690,"lat":21.16587,"lng":-89.35549},{"city":"El Palmar","state":"Tabasco","population":681,"lat":17.44692,"lng":-91.03809},{"city":"José María Morelos y Pavón","state":"Campeche","population":678,"lat":19.0925,"lng":-90.72222},{"city":"Conquista Campesina","state":"Campeche","population":675,"lat":18.17934,"lng":-91.28797},{"city":"El Lechugal","state":"Campeche","population":674,"lat":18.60188,"lng":-90.4244},{"city":"Cosgaya","state":"Yucatán","population":670,"lat":21.09832,"lng":-89.70696},{"city":"San Francisco Manzanilla","state":"Yucatán","population":669,"lat":21.25298,"lng":-89.02307},{"city":"Pital Nuevo","state":"Campeche","population":667,"lat":18.59861,"lng":-91.0325},{"city":"Miguel de la Madrid (El Pañuelo)","state":"Campeche","population":667,"lat":17.99417,"lng":-90.40778},{"city":"Nuevo Progreso Dos","state":"Campeche","population":664,"lat":18.62122,"lng":-90.91552},{"city":"Paraíso","state":"Yucatán","population":656,"lat":20.67621,"lng":-90.11681},{"city":"Yohaltún","state":"Campeche","population":655,"lat":19.01315,"lng":-90.3138},{"city":"San Antonio Tzacalá","state":"Yucatán","population":650,"lat":20.75,"lng":-89.65389},{"city":"Ingeniero Ricardo Payro Jene (Polo Norte)","state":"Campeche","population":648,"lat":18.31778,"lng":-89.44639},{"city":"Nueva Chontalpa","state":"Campeche","population":647,"lat":18.47722,"lng":-91.09306},{"city":"San Antonio Millet","state":"Yucatán","population":641,"lat":20.97281,"lng":-89.39795},{"city":"Crucero San Luis","state":"Campeche","population":641,"lat":19.69932,"lng":-89.99022},{"city":"Konchén","state":"Campeche","population":636,"lat":19.5938,"lng":-89.85185},{"city":"Sabacché","state":"Yucatán","population":636,"lat":20.31528,"lng":-89.0275},{"city":"Ignacio Gutiérrez","state":"Campeche","population":634,"lat":18.9007,"lng":-90.94393},{"city":"Santa Isabel","state":"Campeche","population":630,"lat":18.33608,"lng":-92.095},{"city":"Cocoyol","state":"Yucatán","population":629,"lat":20.79139,"lng":-87.75028},{"city":"Pixoyal","state":"Campeche","population":628,"lat":18.93383,"lng":-90.59942},{"city":"Ciudad del Sol","state":"Campeche","population":628,"lat":19.47778,"lng":-90.70306},{"city":"Coahuila","state":"Yucatán","population":626,"lat":20.66538,"lng":-90.1703},{"city":"Chican","state":"Yucatán","population":624,"lat":20.33879,"lng":-89.15785},{"city":"Yaxunah","state":"Yucatán","population":617,"lat":20.54125,"lng":-88.67555},{"city":"Holactun","state":"Yucatán","population":617,"lat":20.87662,"lng":-89.32891},{"city":"Kimbila","state":"Yucatán","population":617,"lat":20.29631,"lng":-89.08533},{"city":"El Chamizal","state":"Tabasco","population":614,"lat":17.49668,"lng":-91.055},{"city":"Álvaro Obregón","state":"Tabasco","population":614,"lat":17.29018,"lng":-91.22854},{"city":"Venustiano Carranza","state":"Campeche","population":613,"lat":18.14708,"lng":-91.02913},{"city":"José de la Cruz Blanco","state":"Campeche","population":612,"lat":18.62227,"lng":-90.78488},{"city":"Xocempich","state":"Yucatán","population":611,"lat":20.77127,"lng":-88.57203},{"city":"Oncán","state":"Yucatán","population":610,"lat":20.96317,"lng":-89.48385},{"city":"Petectunich","state":"Yucatán","population":600,"lat":20.84325,"lng":-89.47568},{"city":"Mesatunych","state":"Yucatán","population":600,"lat":21.07617,"lng":-89.20255},{"city":"Cuauhtémoc","state":"Yucatán","population":600,"lat":20.88752,"lng":-88.99914},{"city":"Chochoh","state":"Yucatán","population":597,"lat":20.99413,"lng":-89.46708},{"city":"Revolución","state":"Campeche","population":596,"lat":18.9034,"lng":-90.73014},{"city":"Tamanché","state":"Yucatán","population":587,"lat":21.1392,"lng":-89.6413},{"city":"Pablo García","state":"Campeche","population":582,"lat":18.07777,"lng":-90.92599},{"city":"Pustunich","state":"Campeche","population":581,"lat":19.14361,"lng":-90.47959},{"city":"Francisco I. Madero","state":"Tabasco","population":581,"lat":18.46848,"lng":-92.73777},{"city":"Tekat","state":"Yucatán","population":579,"lat":21.09677,"lng":-89.4737},{"city":"Chan X-Cail","state":"Yucatán","population":576,"lat":20.35694,"lng":-88.14083},{"city":"Ek-Balam","state":"Yucatán","population":569,"lat":20.12329,"lng":-89.06519},{"city":"Teya","state":"Yucatán","population":566,"lat":20.93647,"lng":-89.52038},{"city":"San Isidro","state":"Campeche","population":560,"lat":18.63384,"lng":-91.05024},{"city":"Kopte","state":"Yucatán","population":556,"lat":21.05546,"lng":-89.23071},{"city":"Holcá","state":"Yucatán","population":552,"lat":21.09145,"lng":-88.2692},{"city":"Dzalbay","state":"Yucatán","population":552,"lat":20.8349,"lng":-88.05297},{"city":"Kancabal","state":"Yucatán","population":552,"lat":21.10972,"lng":-89.25944},{"city":"San Crisanto","state":"Yucatán","population":551,"lat":21.35322,"lng":-89.17224},{"city":"Chechmil","state":"Yucatán","population":547,"lat":20.77296,"lng":-87.9645},{"city":"Santo Domingo","state":"Campeche","population":547,"lat":17.99917,"lng":-89.37694},{"city":"Timul","state":"Yucatán","population":543,"lat":20.31028,"lng":-88.9375},{"city":"Zavala","state":"Yucatán","population":541,"lat":20.60888,"lng":-89.11562},{"city":"Tohopkú","state":"Yucatán","population":541,"lat":20.6539,"lng":-88.46313},{"city":"Fronterita","state":"Tabasco","population":538,"lat":18.41874,"lng":-92.82705},{"city":"Tixcuytun","state":"Yucatán","population":535,"lat":20.20921,"lng":-89.20427},{"city":"Chan Laguna","state":"Campeche","population":532,"lat":18.48121,"lng":-90.2089},{"city":"Pocyaxum","state":"Campeche","population":532,"lat":19.72871,"lng":-90.35042},{"city":"Puerto Rico","state":"Campeche","population":531,"lat":18.62083,"lng":-91.93944},{"city":"Xtepén","state":"Yucatán","population":527,"lat":20.82294,"lng":-89.74294},{"city":"Xmatkuil","state":"Yucatán","population":526,"lat":20.8637,"lng":-89.62466},{"city":"Lázaro Cárdenas","state":"Campeche","population":524,"lat":17.91745,"lng":-90.81216},{"city":"Nahalal","state":"Campeche","population":522,"lat":20.10617,"lng":-89.90564},{"city":"Opichén","state":"Yucatán","population":521,"lat":20.94953,"lng":-89.67946},{"city":"Xbonil","state":"Campeche","population":518,"lat":18.63715,"lng":-90.16655},{"city":"Chemblás","state":"Campeche","population":517,"lat":19.92035,"lng":-90.35558},{"city":"Manuel Castilla Brito","state":"Campeche","population":516,"lat":18.35944,"lng":-89.44167},{"city":"Chulutan","state":"Yucatán","population":515,"lat":20.56781,"lng":-87.96275},{"city":"Cancabchén","state":"Campeche","population":514,"lat":19.30611,"lng":-89.63444},{"city":"San José Tipceh","state":"Yucatán","population":513,"lat":20.46167,"lng":-89.67028},{"city":"General Francisco J. Mújica","state":"Campeche","population":512,"lat":18.22417,"lng":-91.06111},{"city":"Kikab","state":"Campeche","population":509,"lat":19.28889,"lng":-90.20917},{"city":"Sahé","state":"Yucatán","population":507,"lat":20.92181,"lng":-89.46247},{"city":"General Ortiz Ávila","state":"Campeche","population":507,"lat":18.96778,"lng":-90.72611},{"city":"Nuevo Conhuás","state":"Campeche","population":503,"lat":18.54056,"lng":-89.92278},{"city":"Veinte de Noviembre","state":"Chiapas","population":0,"lat":16.54108,"lng":-92.89624}]}}