{"timezone":"America/Chihuahua","countries":{"Mexico":[{"city":"Chihuahua","state":"Chihuahua","population":925762,"lat":28.63528,"lng":-106.08889},{"city":"Cuauhtémoc","state":"Chihuahua","population":168482,"lat":28.40688,"lng":-106.86658},{"city":"Ciudad Delicias","state":"Chihuahua","population":148045,"lat":28.19013,"lng":-105.47012},{"city":"Parral","state":"Chihuahua","population":104836,"lat":26.93022,"lng":-105.6664},{"city":"Nuevo Casas Grandes","state":"Chihuahua","population":55553,"lat":30.41552,"lng":-107.91166},{"city":"Camargo","state":"Chihuahua","population":40221,"lat":27.67891,"lng":-105.17158},{"city":"José Mariano Jiménez","state":"Chihuahua","population":34281,"lat":27.13076,"lng":-104.92391},{"city":"Meoqui","state":"Chihuahua","population":22574,"lat":28.26701,"lng":-105.48093},{"city":"Aldama","state":"Chihuahua","population":18642,"lat":28.83826,"lng":-105.91214},{"city":"Madera","state":"Chihuahua","population":15447,"lat":29.19039,"lng":-108.14123},{"city":"Guachochi","state":"Chihuahua","population":14513,"lat":26.81906,"lng":-107.06903},{"city":"Saucillo","state":"Chihuahua","population":11004,"lat":28.03239,"lng":-105.28763},{"city":"San Juanito","state":"Chihuahua","population":10535,"lat":27.97295,"lng":-107.60199},{"city":"Anáhuac","state":"Chihuahua","population":9952,"lat":28.48396,"lng":-106.7472},{"city":"La Junta","state":"Chihuahua","population":8930,"lat":28.48003,"lng":-107.32948},{"city":"Adolfo López Mateos","state":"Chihuahua","population":8770,"lat":28.46667,"lng":-107.3},{"city":"Santa Bárbara","state":"Chihuahua","population":8765,"lat":26.80381,"lng":-105.82024},{"city":"Lázaro Cárdenas","state":"Chihuahua","population":8704,"lat":28.39051,"lng":-105.62346},{"city":"Miguel Ahumada","state":"Chihuahua","population":8575,"lat":30.61861,"lng":-106.51222},{"city":"Ampliación Colonia Lázaro Cárdenas","state":"Chihuahua","population":8161,"lat":28.38333,"lng":-105.61667},{"city":"Guerrero","state":"Chihuahua","population":7751,"lat":28.54795,"lng":-107.48648},{"city":"Aquiles Serdán","state":"Chihuahua","population":7135,"lat":28.59454,"lng":-105.88761},{"city":"Buenaventura","state":"Chihuahua","population":6957,"lat":29.84346,"lng":-107.46078},{"city":"Benito Juárez","state":"Chihuahua","population":6138,"lat":29.74624,"lng":-107.93966},{"city":"Guadalupe y Calvo","state":"Chihuahua","population":5816,"lat":26.09518,"lng":-106.96465},{"city":"Ejido Benito Juárez","state":"Chihuahua","population":5778,"lat":30.14937,"lng":-106.88362},{"city":"Rosales","state":"Chihuahua","population":5570,"lat":28.18664,"lng":-105.55458},{"city":"Gómez Farías","state":"Chihuahua","population":5330,"lat":29.35717,"lng":-107.73809},{"city":"Casas Grandes","state":"Chihuahua","population":5256,"lat":30.38195,"lng":-107.95796},{"city":"Creel","state":"Chihuahua","population":5026,"lat":27.75054,"lng":-107.6352},{"city":"El Largo","state":"Chihuahua","population":4964,"lat":29.6869,"lng":-108.27501},{"city":"Naica","state":"Chihuahua","population":4938,"lat":27.85562,"lng":-105.48844},{"city":"El Oro","state":"Chihuahua","population":4249,"lat":26.8632,"lng":-105.84838},{"city":"Allende","state":"Chihuahua","population":4185,"lat":26.92897,"lng":-105.3928},{"city":"Colonia Revolución","state":"Chihuahua","population":3995,"lat":28.24167,"lng":-105.44361},{"city":"Ignacio Zaragoza","state":"Chihuahua","population":3518,"lat":29.64248,"lng":-107.76375},{"city":"Baborigame","state":"Chihuahua","population":3294,"lat":26.42962,"lng":-107.26857},{"city":"Oscar Soto Maynez","state":"Chihuahua","population":2978,"lat":29.02963,"lng":-107.47242},{"city":"Miguel Hidalgo","state":"Chihuahua","population":2850,"lat":28.15361,"lng":-105.39389},{"city":"Tomochic","state":"Chihuahua","population":2818,"lat":28.35273,"lng":-107.84576},{"city":"La Constitución","state":"Chihuahua","population":2709,"lat":29.92077,"lng":-106.7962},{"city":"El Terrero","state":"Chihuahua","population":2621,"lat":29.18152,"lng":-107.3874},{"city":"Congregación Ortíz","state":"Chihuahua","population":2620,"lat":28.25375,"lng":-105.51922},{"city":"Matamoros","state":"Chihuahua","population":2615,"lat":26.75862,"lng":-105.58877},{"city":"Las Varas","state":"Chihuahua","population":2410,"lat":28.15626,"lng":-105.34064},{"city":"Colonia Campesina","state":"Chihuahua","population":2365,"lat":28.14028,"lng":-105.52667},{"city":"Valle de Zaragoza","state":"Chihuahua","population":2223,"lat":27.45314,"lng":-105.80815},{"city":"El Molino","state":"Chihuahua","population":2191,"lat":28.16608,"lng":-105.53783},{"city":"El Molino","state":"Chihuahua","population":2176,"lat":29.1918,"lng":-107.40663},{"city":"San Rafael","state":"Chihuahua","population":2160,"lat":27.4975,"lng":-107.89099},{"city":"Octaviano López","state":"Chihuahua","population":2148,"lat":27.0025,"lng":-105.03306},{"city":"Abdenago C. García","state":"Chihuahua","population":2113,"lat":29.98937,"lng":-107.5521},{"city":"Bachíniva","state":"Chihuahua","population":2109,"lat":28.76469,"lng":-107.25395},{"city":"Mariano Balleza","state":"Chihuahua","population":2087,"lat":26.95389,"lng":-106.34611},{"city":"Témoris","state":"Chihuahua","population":2053,"lat":27.27718,"lng":-108.27981},{"city":"Ninguno [CERESO]","state":"Chihuahua","population":2010,"lat":28.60972,"lng":-105.94028},{"city":"Ejido El Vergel","state":"Chihuahua","population":2008,"lat":26.47133,"lng":-106.3832},{"city":"Estación Consuelo","state":"Chihuahua","population":1981,"lat":28.33118,"lng":-105.59471},{"city":"Benito Juárez","state":"Chihuahua","population":1967,"lat":29.16642,"lng":-106.95772},{"city":"Chínipas","state":"Chihuahua","population":1934,"lat":27.39505,"lng":-108.53654},{"city":"Nicolas Bravo","state":"Chihuahua","population":1862,"lat":29.35306,"lng":-107.9344},{"city":"Temósachic","state":"Chihuahua","population":1841,"lat":28.95469,"lng":-107.82957},{"city":"Moris","state":"Chihuahua","population":1799,"lat":28.14796,"lng":-108.52281},{"city":"Julimes","state":"Chihuahua","population":1795,"lat":28.42318,"lng":-105.43091},{"city":"Colonia Nicolás Bravo (Kilómetro Noventa y Dos)","state":"Chihuahua","population":1772,"lat":28.09222,"lng":-105.52778},{"city":"Namiquipa","state":"Chihuahua","population":1752,"lat":29.25173,"lng":-107.414},{"city":"Matachí","state":"Chihuahua","population":1710,"lat":28.84287,"lng":-107.75503},{"city":"Carichí","state":"Chihuahua","population":1672,"lat":27.91637,"lng":-107.05584},{"city":"La Cruz","state":"Chihuahua","population":1671,"lat":27.86359,"lng":-105.19627},{"city":"Estación Conchos","state":"Chihuahua","population":1670,"lat":27.97326,"lng":-105.28843},{"city":"Orranteño","state":"Chihuahua","population":1641,"lat":28.18272,"lng":-105.33774},{"city":"Colonia Terrazas","state":"Chihuahua","population":1602,"lat":28.23795,"lng":-105.46527},{"city":"Cerocahui","state":"Chihuahua","population":1556,"lat":27.29906,"lng":-108.055},{"city":"Bahuichivo","state":"Chihuahua","population":1502,"lat":27.4095,"lng":-108.0674},{"city":"El Sauz","state":"Chihuahua","population":1499,"lat":29.05056,"lng":-106.2528},{"city":"Basúchil","state":"Chihuahua","population":1451,"lat":28.52479,"lng":-107.40172},{"city":"Las Varas (Estación Babícora)","state":"Chihuahua","population":1417,"lat":29.48083,"lng":-108.02556},{"city":"Colonia Abraham González (La Quemada)","state":"Chihuahua","population":1404,"lat":28.20667,"lng":-105.4075},{"city":"Pueblito de Allende","state":"Chihuahua","population":1381,"lat":26.99065,"lng":-105.32686},{"city":"Santa Isabel","state":"Chihuahua","population":1378,"lat":28.34324,"lng":-106.36863},{"city":"Rodrígo M. Quevedo","state":"Chihuahua","population":1367,"lat":29.91982,"lng":-107.52079},{"city":"Nonoava","state":"Chihuahua","population":1272,"lat":27.47198,"lng":-106.73572},{"city":"Ejido La Quemada","state":"Chihuahua","population":1272,"lat":28.84761,"lng":-107.02152},{"city":"Colonia Felipe Ángeles","state":"Chihuahua","population":1254,"lat":28.3855,"lng":-105.51184},{"city":"Basaseachic","state":"Chihuahua","population":1248,"lat":28.20626,"lng":-108.2127},{"city":"Samachique","state":"Chihuahua","population":1241,"lat":27.30156,"lng":-107.53897},{"city":"Batopilas de Manuel Gómez Morín","state":"Chihuahua","population":1220,"lat":27.02721,"lng":-107.73934},{"city":"Las Cruces","state":"Chihuahua","population":1206,"lat":29.43278,"lng":-107.38958},{"city":"Las Yerbitas [Aserradero]","state":"Chihuahua","population":1200,"lat":26.08025,"lng":-106.77969},{"city":"Uruachi","state":"Chihuahua","population":1199,"lat":27.86763,"lng":-108.21557},{"city":"Boquilla de Babisas (La Boquilla de Conchos)","state":"Chihuahua","population":1185,"lat":27.54861,"lng":-105.40361},{"city":"San Francisco de Borja","state":"Chihuahua","population":1157,"lat":27.90171,"lng":-106.68562},{"city":"Turuachi","state":"Chihuahua","population":1131,"lat":26.13139,"lng":-106.70417},{"city":"José Esteban Coronado","state":"Chihuahua","population":1121,"lat":26.73722,"lng":-105.15833},{"city":"Mesa del Huracán","state":"Chihuahua","population":1102,"lat":29.67045,"lng":-108.25182},{"city":"Urique","state":"Chihuahua","population":1102,"lat":27.21272,"lng":-107.91491},{"city":"Sisoguichi","state":"Chihuahua","population":1097,"lat":27.78304,"lng":-107.49517},{"city":"Peña Blanca","state":"Chihuahua","population":1092,"lat":29.28984,"lng":-107.7113},{"city":"Kilómetro Noventa y Nueve","state":"Chihuahua","population":1092,"lat":28.12668,"lng":-105.58018},{"city":"Independencia","state":"Chihuahua","population":1088,"lat":29.09231,"lng":-107.54322},{"city":"Guadalupe Victoria","state":"Chihuahua","population":1045,"lat":28.33304,"lng":-105.42775},{"city":"Juárez","state":"Chihuahua","population":1035,"lat":30.30982,"lng":-108.07852},{"city":"Milpillas","state":"Chihuahua","population":1025,"lat":27.20534,"lng":-108.64493},{"city":"Colonia Vicente Guerrero","state":"Chihuahua","population":996,"lat":28.03389,"lng":-105.31528},{"city":"San Guillermo","state":"Chihuahua","population":979,"lat":28.58753,"lng":-105.93165},{"city":"Alta Vista","state":"Chihuahua","population":971,"lat":27.71794,"lng":-105.19785},{"city":"San Isidro (Los Hoyos)","state":"Chihuahua","population":952,"lat":28.87778,"lng":-106.23444},{"city":"La Perla","state":"Chihuahua","population":943,"lat":28.306,"lng":-104.54943},{"city":"Estación Saucillo","state":"Chihuahua","population":942,"lat":28.02528,"lng":-105.31778},{"city":"Ignacio Allende","state":"Chihuahua","population":935,"lat":29.59107,"lng":-107.72331},{"city":"Hermenegildo Galeana","state":"Chihuahua","population":926,"lat":30.11278,"lng":-107.61611},{"city":"Manuel Benavides","state":"Chihuahua","population":916,"lat":29.10722,"lng":-103.90639},{"city":"Norogachi","state":"Chihuahua","population":900,"lat":27.27433,"lng":-107.13084},{"city":"Los García","state":"Chihuahua","population":890,"lat":28.35528,"lng":-105.42778},{"city":"Lázaro Cárdenas","state":"Chihuahua","population":861,"lat":29.1111,"lng":-107.0261},{"city":"Alvareñas","state":"Chihuahua","population":854,"lat":28.12448,"lng":-105.33815},{"city":"Tutuaca","state":"Chihuahua","population":841,"lat":28.02724,"lng":-106.53511},{"city":"Yoquivo","state":"Chihuahua","population":831,"lat":27.02478,"lng":-107.53478},{"city":"Las Puentes","state":"Chihuahua","population":829,"lat":28.29682,"lng":-105.44742},{"city":"La Norteña","state":"Chihuahua","population":822,"lat":29.6459,"lng":-108.45165},{"city":"Morelos","state":"Chihuahua","population":813,"lat":26.6721,"lng":-107.67705},{"city":"El Tule","state":"Chihuahua","population":811,"lat":27.05391,"lng":-106.26462},{"city":"San Lorenzo","state":"Chihuahua","population":806,"lat":29.81483,"lng":-107.0761},{"city":"Pachera","state":"Chihuahua","population":801,"lat":28.28422,"lng":-107.39929},{"city":"Maguarichi","state":"Chihuahua","population":801,"lat":27.85949,"lng":-107.99411},{"city":"Bocoyna","state":"Chihuahua","population":796,"lat":27.84066,"lng":-107.58859},{"city":"Cajurichic","state":"Chihuahua","population":781,"lat":28.09971,"lng":-108.13675},{"city":"Ex-Hacienda Delicias","state":"Chihuahua","population":774,"lat":28.18611,"lng":-105.52889},{"city":"Santa Gertrudis (La Hacienda)","state":"Chihuahua","population":759,"lat":27.77778,"lng":-105.72972},{"city":"Yepachic","state":"Chihuahua","population":750,"lat":28.42157,"lng":-108.37699},{"city":"Barranco Blanco","state":"Chihuahua","population":748,"lat":28.43806,"lng":-105.61167},{"city":"La Regina","state":"Chihuahua","population":739,"lat":28.40828,"lng":-105.44817},{"city":"Estación la Cruz","state":"Chihuahua","population":739,"lat":27.82611,"lng":-105.18833},{"city":"Gran Morelos","state":"Chihuahua","population":726,"lat":28.25073,"lng":-106.50947},{"city":"Coyame del Sotol","state":"Chihuahua","population":709,"lat":29.46148,"lng":-105.09459},{"city":"Escalón","state":"Chihuahua","population":697,"lat":26.75197,"lng":-104.34211},{"city":"Francisco I. Madero","state":"Chihuahua","population":691,"lat":29.70646,"lng":-107.80469},{"city":"La Paz","state":"Chihuahua","population":677,"lat":28.20472,"lng":-106.47139},{"city":"Santo Tomás","state":"Chihuahua","population":674,"lat":28.68226,"lng":-107.57308},{"city":"San José Bavícora","state":"Chihuahua","population":667,"lat":29.25011,"lng":-107.7472},{"city":"Riva Palacio","state":"Chihuahua","population":662,"lat":28.54567,"lng":-106.50292},{"city":"La Pinta","state":"Chihuahua","population":657,"lat":29.23191,"lng":-107.67255},{"city":"La Mesa","state":"Chihuahua","population":655,"lat":28.7688,"lng":-105.96914},{"city":"Loma Chica","state":"Chihuahua","population":653,"lat":28.11583,"lng":-105.34306},{"city":"Salón de Actos (Ampliación Cuarenta y Siete)","state":"Chihuahua","population":651,"lat":28.4975,"lng":-105.54861},{"city":"San Francisco de Conchos","state":"Chihuahua","population":644,"lat":27.58831,"lng":-105.33398},{"city":"La Garita","state":"Chihuahua","population":642,"lat":28.14546,"lng":-105.58073},{"city":"Santa Catalina de Villela","state":"Chihuahua","population":642,"lat":29.18089,"lng":-106.97286},{"city":"El Torreón","state":"Chihuahua","population":616,"lat":28.32612,"lng":-105.4139},{"city":"Álamos de Cerro Prieto","state":"Chihuahua","population":614,"lat":28.18806,"lng":-107.10439},{"city":"Valle del Toro","state":"Chihuahua","population":608,"lat":27.95865,"lng":-105.22548},{"city":"Colonia Vicente Guerrero","state":"Chihuahua","population":604,"lat":28.19778,"lng":-105.42861},{"city":"Santa María","state":"Chihuahua","population":602,"lat":27.02198,"lng":-105.01003},{"city":"Campo Número Dos","state":"Chihuahua","population":600,"lat":28.44806,"lng":-106.94417},{"city":"Corraleño","state":"Chihuahua","population":591,"lat":27.81124,"lng":-105.16805},{"city":"Granjas el Venado","state":"Chihuahua","population":585,"lat":28.75444,"lng":-106.88056},{"city":"Parritas","state":"Chihuahua","population":584,"lat":27.98913,"lng":-105.23333},{"city":"San Ignacio","state":"Chihuahua","population":576,"lat":27.74812,"lng":-105.18702},{"city":"Ranchos de Santiago","state":"Chihuahua","population":560,"lat":28.35168,"lng":-107.18291},{"city":"Abraham González","state":"Chihuahua","population":560,"lat":28.97611,"lng":-107.4292},{"city":"Tacuba","state":"Chihuahua","population":557,"lat":28.35134,"lng":-107.4732},{"city":"Guadalupe Victoria (Santa Lucía)","state":"Chihuahua","population":554,"lat":28.39333,"lng":-106.79083},{"city":"Buena Fe","state":"Chihuahua","population":544,"lat":30.36402,"lng":-107.92386},{"city":"San Pedro de Chinatú (Ranchería San Pedro)","state":"Chihuahua","population":540,"lat":26.18556,"lng":-106.62111},{"city":"Polanco (Ranchería Mineral Polanco)","state":"Chihuahua","population":537,"lat":26.83361,"lng":-107.63583},{"city":"Borjas","state":"Chihuahua","population":535,"lat":28.53233,"lng":-107.4199},{"city":"Sáenz","state":"Chihuahua","population":532,"lat":28.49917,"lng":-107.35222},{"city":"Colonia Margarita Maza de Juárez","state":"Chihuahua","population":531,"lat":28.75667,"lng":-106.89222},{"city":"Ocampo","state":"Chihuahua","population":527,"lat":28.19351,"lng":-108.36759},{"city":"Colonia el Valle","state":"Chihuahua","population":526,"lat":30.09889,"lng":-107.335},{"city":"Dolores","state":"Chihuahua","population":517,"lat":25.98182,"lng":-107.17018},{"city":"Paramo","state":"Chihuahua","population":516,"lat":28.43208,"lng":-107.18639},{"city":"Ojo Caliente","state":"Chihuahua","population":514,"lat":30.49352,"lng":-106.54841},{"city":"Talamantes","state":"Chihuahua","population":512,"lat":26.91207,"lng":-105.43671},{"city":"Pedernales","state":"Chihuahua","population":509,"lat":28.41126,"lng":-107.1106},{"city":"Colonia Esperanza","state":"Chihuahua","population":509,"lat":28.44722,"lng":-105.45444},{"city":"Colonia San José","state":"Chihuahua","population":509,"lat":28.38343,"lng":-105.44027},{"city":"Guapalaina","state":"Chihuahua","population":508,"lat":27.17807,"lng":-107.89485},{"city":"Doctor Belisario Domínguez","state":"Chihuahua","population":441,"lat":28.15396,"lng":-106.4768},{"city":"Rosario","state":"Chihuahua","population":263,"lat":27.3192,"lng":-106.29554},{"city":"Huejotitán","state":"Chihuahua","population":243,"lat":27.05729,"lng":-106.17842},{"city":"Cusihuiriachi","state":"Chihuahua","population":63,"lat":28.24151,"lng":-106.83651},{"city":"Galeana","state":"Chihuahua","population":0,"lat":30.11383,"lng":-107.6167},{"city":"López","state":"Chihuahua","population":0,"lat":27.00233,"lng":-105.03369},{"city":"Coronado","state":"Chihuahua","population":0,"lat":26.73763,"lng":-105.15763},{"city":"Balleza","state":"Chihuahua","population":0,"lat":26.95349,"lng":-106.34633}]}}