{"timezone":"America/Lower_Princes","countries":{"Sint Maarten":[{"city":"Cul de Sac","state":null,"population":8467,"lat":18.04852,"lng":-63.06513},{"city":"Lower Prince’s Quarter","state":null,"population":8000,"lat":18.04987,"lng":-63.03789},{"city":"Koolbaai","state":null,"population":6000,"lat":18.04048,"lng":-63.08397},{"city":"Little Bay","state":null,"population":5581,"lat":18.0264,"lng":-63.06461},{"city":"Upper Prince’s Quarter","state":null,"population":4020,"lat":18.03277,"lng":-63.03075},{"city":"Philipsburg","state":null,"population":1400,"lat":18.026,"lng":-63.04582},{"city":"Simson Bay Village","state":null,"population":700,"lat":18.03783,"lng":-63.11852}]}}