{"timezone":"America/Coyhaique","countries":{"Chile":[{"city":"Coyhaique","state":"Aysén","population":45787,"lat":-45.57524,"lng":-72.06619},{"city":"Puerto Aysén","state":"Aysén","population":16936,"lat":-45.40303,"lng":-72.69184},{"city":"Puerto Cisnes","state":"Aysén","population":5739,"lat":-44.74736,"lng":-72.69695},{"city":"Cochrane","state":"Aysén","population":2867,"lat":-47.2557,"lng":-72.5695},{"city":"Chile Chico","state":"Aysén","population":2500,"lat":-46.541,"lng":-71.72375},{"city":"Puerto Chacabuco","state":"Aysén","population":1243,"lat":-45.46667,"lng":-72.81667},{"city":"La Junta","state":"Aysén","population":1200,"lat":-43.97434,"lng":-72.40554},{"city":"Lago Verde","state":"Aysén","population":869,"lat":-44.24031,"lng":-71.8495},{"city":"Villa O'higgins","state":"Aysén","population":612,"lat":-48.46737,"lng":-72.56071}]}}