{"timezone":"America/Port-au-Prince","countries":{"Haiti":[{"city":"Port-au-Prince","state":"Ouest","population":1234742,"lat":18.54349,"lng":-72.33881},{"city":"Carrefour","state":"Ouest","population":442156,"lat":18.54114,"lng":-72.39922},{"city":"Delmas","state":"Ouest","population":382920,"lat":18.54478,"lng":-72.30036},{"city":"Port-de-Paix","state":"Nord-Ouest","population":306217,"lat":19.93984,"lng":-72.83037},{"city":"Pétionville","state":"Ouest","population":283052,"lat":18.5125,"lng":-72.28528},{"city":"Croix-des-Bouquets","state":"Ouest","population":229127,"lat":18.57677,"lng":-72.22625},{"city":"Jacmel","state":"Sud-Est","population":137966,"lat":18.23569,"lng":-72.53686},{"city":"Cap-Haïtien","state":"Nord","population":134815,"lat":19.75938,"lng":-72.19815},{"city":"Léogâne","state":"Ouest","population":134190,"lat":18.5111,"lng":-72.63343},{"city":"Les Cayes","state":"Sud","population":125799,"lat":18.19199,"lng":-73.74948},{"city":"Tigwav","state":"Ouest","population":117504,"lat":18.43117,"lng":-72.86521},{"city":"Jérémie","state":"Grand'Anse","population":97503,"lat":18.65,"lng":-74.11667},{"city":"Saint-Michel de l'Atalaye","state":"Artibonite","population":95216,"lat":19.37084,"lng":-72.33472},{"city":"Miragoâne","state":"Nippes","population":89202,"lat":18.44599,"lng":-73.08957},{"city":"Gonaïves","state":"Artibonite","population":84961,"lat":19.44755,"lng":-72.68928},{"city":"Saint-Marc","state":"Artibonite","population":66226,"lat":19.11136,"lng":-72.70078},{"city":"Thomazeau","state":"Ouest","population":52017,"lat":18.65297,"lng":-72.09391},{"city":"Grangwav","state":"Ouest","population":49288,"lat":18.4259,"lng":-72.76995},{"city":"Verrettes","state":"Artibonite","population":48724,"lat":19.0505,"lng":-72.46585},{"city":"Kenscoff","state":"Ouest","population":42175,"lat":18.44773,"lng":-72.28398},{"city":"Saint-Raphaël","state":"Nord","population":37739,"lat":19.43877,"lng":-72.1991},{"city":"Ti Port-de-Paix","state":"Nord-Ouest","population":34657,"lat":19.93333,"lng":-72.83333},{"city":"Lenbe","state":"Nord","population":32645,"lat":19.70603,"lng":-72.40336},{"city":"Gressier","state":"Ouest","population":25947,"lat":18.54091,"lng":-72.52679},{"city":"Terrier Rouge","state":"Nord-Est","population":21328,"lat":19.63634,"lng":-71.95483},{"city":"Hinche","state":"Centre","population":18590,"lat":19.1409,"lng":-72.01194},{"city":"Fond Parisien","state":"Ouest","population":18256,"lat":18.50547,"lng":-71.98122},{"city":"Désarmes","state":"Artibonite","population":15594,"lat":18.99345,"lng":-72.39058},{"city":"Dessalines","state":"Artibonite","population":12288,"lat":19.26177,"lng":-72.51611},{"city":"Saint-Louis du Nord","state":"Nord-Ouest","population":11849,"lat":19.93397,"lng":-72.72138},{"city":"Fort Liberté","state":"Nord-Est","population":11465,"lat":19.66254,"lng":-71.8351},{"city":"Trou du Nord","state":"Nord-Est","population":10569,"lat":19.61668,"lng":-72.02442},{"city":"Ouanaminthe","state":"Nord-Est","population":10118,"lat":19.54934,"lng":-71.72475},{"city":"Sassier","state":"Grand'Anse","population":10000,"lat":18.58336,"lng":-74.11833},{"city":"Mirebalais","state":"Centre","population":9082,"lat":18.83455,"lng":-72.1048},{"city":"Grande Rivière du Nord","state":"Nord","population":8836,"lat":19.57744,"lng":-72.16872},{"city":"Les Anglais","state":"Sud","population":8247,"lat":18.3054,"lng":-74.21968},{"city":"Lascahobas","state":"Centre","population":7574,"lat":18.83047,"lng":-71.93563},{"city":"Cornillon","state":"Ouest","population":7572,"lat":18.67546,"lng":-71.95271},{"city":"Gros Morne","state":"Artibonite","population":7294,"lat":19.6708,"lng":-72.67808},{"city":"Anse à Galets","state":"Ouest","population":7178,"lat":18.83449,"lng":-72.86644},{"city":"Pignon","state":"Nord","population":6731,"lat":19.33594,"lng":-72.11662},{"city":"Dame-Marie","state":"Grand'Anse","population":6036,"lat":18.56107,"lng":-74.42167},{"city":"Sources Chaudes","state":"Grand'Anse","population":5544,"lat":18.48392,"lng":-74.28673},{"city":"Milot","state":"Nord","population":5534,"lat":19.60837,"lng":-72.21319},{"city":"Jean-Rabel","state":"Nord-Ouest","population":5419,"lat":19.85379,"lng":-73.19131},{"city":"Aquin","state":"Sud","population":5246,"lat":18.27974,"lng":-73.39433},{"city":"Mayisad","state":"Centre","population":5204,"lat":19.17607,"lng":-72.13958},{"city":"Dondon","state":"Nord","population":5029,"lat":19.52734,"lng":-72.24337},{"city":"Thomassique","state":"Centre","population":4857,"lat":19.08209,"lng":-71.83855},{"city":"Anse Rouge","state":"Artibonite","population":4437,"lat":19.63382,"lng":-73.0553},{"city":"Borgne","state":"Nord","population":4288,"lat":19.84507,"lng":-72.52349},{"city":"Pilate","state":"Nord","population":4227,"lat":19.66745,"lng":-72.55229},{"city":"Plaisance","state":"Nord","population":4152,"lat":19.59795,"lng":-72.46994},{"city":"Arcahaie","state":"Nord-Ouest","population":4119,"lat":19.81667,"lng":-72.91667},{"city":"Cabaret","state":"Ouest","population":3951,"lat":18.73582,"lng":-72.41929},{"city":"Chardonnière","state":"Sud","population":3930,"lat":18.27484,"lng":-74.16613},{"city":"Port-à-Piment","state":"Sud","population":3819,"lat":18.24963,"lng":-74.0971},{"city":"Limonade","state":"Nord","population":3810,"lat":19.67014,"lng":-72.1243},{"city":"Ferrier","state":"Nord-Est","population":3804,"lat":19.61549,"lng":-71.77792},{"city":"Thomonde","state":"Centre","population":3696,"lat":19.0173,"lng":-71.96235},{"city":"Acul du Nord","state":"Nord","population":3454,"lat":19.68075,"lng":-72.31978},{"city":"Môle Saint-Nicolas","state":"Nord-Ouest","population":3224,"lat":19.80794,"lng":-73.37786},{"city":"Port-Margot","state":"Nord","population":3070,"lat":19.7518,"lng":-72.43006},{"city":"Tiburon","state":"Sud","population":3054,"lat":18.32589,"lng":-74.39598},{"city":"Cerca la Source","state":"Centre","population":2792,"lat":19.16696,"lng":-71.79015},{"city":"Fonds Verrettes","state":"Ouest","population":2789,"lat":18.39566,"lng":-71.85634},{"city":"Corail","state":"Grand'Anse","population":2782,"lat":18.56766,"lng":-73.88942},{"city":"Fond des Blancs","state":"Sud","population":2653,"lat":18.27782,"lng":-73.12733},{"city":"Belle-Anse","state":"Sud-Est","population":2611,"lat":18.23768,"lng":-72.06638},{"city":"Plaine du Nord","state":"Nord","population":2492,"lat":19.67707,"lng":-72.26969},{"city":"Thiotte","state":"Sud-Est","population":2461,"lat":18.24384,"lng":-71.84157},{"city":"Kotdefè","state":"Sud-Est","population":2393,"lat":18.18872,"lng":-73.00287},{"city":"Phaëton","state":"Nord-Est","population":2297,"lat":19.67525,"lng":-71.89691},{"city":"Les Irois","state":"Grand'Anse","population":2265,"lat":18.4049,"lng":-74.4528},{"city":"Marmelade","state":"Artibonite","population":2184,"lat":19.51736,"lng":-72.36133},{"city":"Petit Trou de Nippes","state":"Nippes","population":2130,"lat":18.52535,"lng":-73.50815},{"city":"Montòrganize","state":"Nord-Est","population":2104,"lat":19.40815,"lng":-71.78132},{"city":"Carice","state":"Nord-Est","population":2104,"lat":19.37795,"lng":-71.8303},{"city":"Koto","state":"Sud","population":2065,"lat":18.20601,"lng":-74.04013},{"city":"Bombardopolis","state":"Nord-Ouest","population":1974,"lat":19.69142,"lng":-73.33769},{"city":"Torbeck","state":"Sud","population":1918,"lat":18.16338,"lng":-73.80949},{"city":"Perches","state":"Nord-Est","population":1889,"lat":19.52201,"lng":-71.92323},{"city":"Dérac","state":"Nord-Est","population":1855,"lat":19.65476,"lng":-71.81451},{"city":"Chantal","state":"Sud","population":1848,"lat":18.20169,"lng":-73.88957},{"city":"Moron","state":"Grand'Anse","population":1830,"lat":18.56039,"lng":-74.25777},{"city":"Petite Rivière de Nippes","state":"Nippes","population":1794,"lat":18.47611,"lng":-73.23495},{"city":"Grande Saline","state":"Artibonite","population":1787,"lat":19.26513,"lng":-72.76897},{"city":"Anse-à-Pitre","state":"Sud-Est","population":1736,"lat":18.05,"lng":-71.75},{"city":"Anse-à-Veau","state":"Grand'Anse","population":1731,"lat":18.5011,"lng":-73.3449},{"city":"Marigot","state":"Sud-Est","population":1698,"lat":18.23167,"lng":-72.32289},{"city":"Baradères","state":"Nippes","population":1666,"lat":18.48255,"lng":-73.63884},{"city":"Roche-à-Bateau","state":"Sud","population":1662,"lat":18.18182,"lng":-74.00345},{"city":"Baie de Henne","state":"Nord-Ouest","population":1660,"lat":19.66307,"lng":-73.20943},{"city":"Bahon","state":"Nord","population":1618,"lat":19.46959,"lng":-72.11466},{"city":"Cayes-Jacmel","state":"Sud-Est","population":1609,"lat":18.2311,"lng":-72.39545},{"city":"Caracol","state":"Nord-Est","population":1549,"lat":19.69274,"lng":-72.01733},{"city":"Petite Anse","state":"Nord-Ouest","population":1539,"lat":19.63011,"lng":-73.15499},{"city":"Saint-Louis du Sud","state":"Sud","population":1528,"lat":18.26241,"lng":-73.54603},{"city":"Ennery","state":"Artibonite","population":1511,"lat":19.48342,"lng":-72.48537},{"city":"Chambellan","state":"Grand'Anse","population":1397,"lat":18.55037,"lng":-74.31317},{"city":"Ranquitte","state":"Nord","population":1391,"lat":19.41327,"lng":-72.08077},{"city":"Quartier Morin","state":"Nord","population":1299,"lat":19.69696,"lng":-72.15712},{"city":"Les Abricots","state":"Grand'Anse","population":1245,"lat":18.64901,"lng":-74.30786},{"city":"Fond Bassin Bleu","state":"Nord-Ouest","population":1184,"lat":19.79445,"lng":-72.79949},{"city":"Cavaillon","state":"Sud","population":1023,"lat":18.29987,"lng":-73.65455},{"city":"Camp Perrin","state":"Sud","population":967,"lat":18.32648,"lng":-73.86734},{"city":"Terre Neuve","state":"Artibonite","population":911,"lat":19.59946,"lng":-72.78088},{"city":"L'Asile","state":"Nippes","population":778,"lat":18.38398,"lng":-73.41435},{"city":"Acul Samedi","state":"Nord-Est","population":765,"lat":19.51881,"lng":-71.88214},{"city":"Saint-Jean du Sud","state":"Sud","population":549,"lat":18.07611,"lng":-73.81254}]}}