{"timezone":"America/Martinique","countries":{"Martinique":[{"city":"Fort-de-France","state":"Martinique","population":89995,"lat":14.60365,"lng":-61.07418},{"city":"Le Lamentin","state":"Martinique","population":40581,"lat":14.61341,"lng":-60.99964},{"city":"Le Robert","state":"Martinique","population":23814,"lat":14.67751,"lng":-60.94228},{"city":"Sainte-Marie","state":"Martinique","population":20380,"lat":14.78352,"lng":-60.99227},{"city":"Le François","state":"Martinique","population":19682,"lat":14.61513,"lng":-60.90311},{"city":"Ducos","state":"Martinique","population":17394,"lat":14.57529,"lng":-60.97453},{"city":"Saint-Joseph","state":"Martinique","population":16974,"lat":14.67099,"lng":-61.03905},{"city":"La Trinité","state":"Martinique","population":15040,"lat":14.73807,"lng":-60.96319},{"city":"Rivière-Pilote","state":"Martinique","population":13359,"lat":14.48738,"lng":-60.90257},{"city":"Le Gros-Morne","state":"Martinique","population":11025,"lat":14.7,"lng":-61.0},{"city":"Sainte-Luce","state":"Martinique","population":9196,"lat":14.46848,"lng":-60.92138},{"city":"Saint-Esprit","state":"Martinique","population":8508,"lat":14.55,"lng":-60.93333},{"city":"Le Lorrain","state":"Martinique","population":8341,"lat":14.83257,"lng":-61.05553},{"city":"Le Marin","state":"Martinique","population":7943,"lat":14.47158,"lng":-60.86989},{"city":"Le Vauclin","state":"Martinique","population":7812,"lat":14.5454,"lng":-60.83831},{"city":"Les Trois-Îlets","state":"Martinique","population":5657,"lat":14.53912,"lng":-61.03354},{"city":"Le Morne-Rouge","state":"Martinique","population":5469,"lat":14.7761,"lng":-61.13564},{"city":"Saint-Pierre","state":"Martinique","population":4125,"lat":14.74309,"lng":-61.17541},{"city":"Basse-Pointe","state":"Martinique","population":4037,"lat":14.86935,"lng":-61.11521},{"city":"L'Ajoupa-Bouillon","state":"Martinique","population":1815,"lat":14.82094,"lng":-61.11749},{"city":"Grand'Rivière","state":"Martinique","population":666,"lat":14.87383,"lng":-61.17954},{"city":"Schoelcher","state":"Martinique","population":0,"lat":14.61774,"lng":-61.099}]}}