{"timezone":"America/Nuuk","countries":{"Greenland":[{"city":"Nuuk","state":"Sermersooq","population":14798,"lat":64.18347,"lng":-51.72157},{"city":"Sisimiut","state":"Qeqqata","population":5227,"lat":66.93946,"lng":-53.6735},{"city":"Ilulissat","state":"Avannaata","population":4413,"lat":69.21981,"lng":-51.09861},{"city":"Qaqortoq","state":"Kujalleq","population":3224,"lat":60.71839,"lng":-46.03561},{"city":"Aasiaat","state":"Qeqertalik","population":3005,"lat":68.70869,"lng":-52.86366},{"city":"Maniitsoq","state":"Qeqqata","population":2534,"lat":65.41506,"lng":-52.89822},{"city":"Tasiilaq","state":"Sermersooq","population":1985,"lat":65.61451,"lng":-37.63676},{"city":"Uummannaq","state":"Avannaata","population":1407,"lat":70.67442,"lng":-52.12545},{"city":"Narsaq","state":"Kujalleq","population":1346,"lat":60.91298,"lng":-46.05055},{"city":"Paamiut","state":"Sermersooq","population":1308,"lat":61.99402,"lng":-49.66776},{"city":"Nanortalik","state":"Kujalleq","population":1185,"lat":60.14169,"lng":-45.24069},{"city":"Upernavik","state":"Avannaata","population":1129,"lat":72.78358,"lng":-56.14933},{"city":"Qasigiannguit","state":"Qeqertalik","population":1081,"lat":68.81926,"lng":-51.19221},{"city":"Qeqertarsuaq","state":"Sermersooq","population":986,"lat":62.11667,"lng":-49.78333},{"city":"Qeqertarsuaq","state":"Qeqertalik","population":839,"lat":69.24721,"lng":-53.53682},{"city":"Kangaatsiaq","state":null,"population":520,"lat":68.30648,"lng":-53.46405},{"city":"Kangerlussuaq","state":"Qeqqata","population":508,"lat":67.00876,"lng":-50.68937}]}}