{"timezone":"America/Cancun","countries":{"Mexico":[{"city":"Cancún","state":"Quintana Roo","population":888797,"lat":21.17429,"lng":-86.84656},{"city":"Chetumal","state":"Quintana Roo","population":169028,"lat":18.51957,"lng":-88.30397},{"city":"Playa del Carmen","state":"Quintana Roo","population":149923,"lat":20.6274,"lng":-87.07987},{"city":"Cozumel","state":"Quintana Roo","population":77236,"lat":20.50038,"lng":-86.94272},{"city":"Felipe Carrillo Puerto","state":"Quintana Roo","population":25744,"lat":19.5775,"lng":-88.04529},{"city":"Tulum","state":"Quintana Roo","population":18233,"lat":20.21173,"lng":-87.46325},{"city":"Alfredo V. Bonfil","state":"Quintana Roo","population":14900,"lat":21.08776,"lng":-86.84706},{"city":"Isla Mujeres","state":"Quintana Roo","population":12642,"lat":21.23114,"lng":-86.73105},{"city":"José María Morelos","state":"Quintana Roo","population":11750,"lat":19.74887,"lng":-88.70866},{"city":"Bacalar","state":"Quintana Roo","population":11513,"lat":18.68109,"lng":-88.39333},{"city":"Kantunilkín","state":"Quintana Roo","population":7150,"lat":21.10182,"lng":-87.48644},{"city":"Puerto Aventuras","state":"Quintana Roo","population":5979,"lat":20.50075,"lng":-87.22647},{"city":"Leona Vicario","state":"Quintana Roo","population":5731,"lat":20.9897,"lng":-87.20224},{"city":"Calderitas","state":"Quintana Roo","population":5326,"lat":18.55564,"lng":-88.25518},{"city":"Tihosuco","state":"Quintana Roo","population":4994,"lat":20.19642,"lng":-88.37361},{"city":"Chunhuhub","state":"Quintana Roo","population":4644,"lat":19.58533,"lng":-88.5922},{"city":"Nicolás Bravo","state":"Quintana Roo","population":4011,"lat":18.4591,"lng":-88.92802},{"city":"Señor","state":"Quintana Roo","population":3095,"lat":19.84424,"lng":-88.13524},{"city":"Javier Rojo Gómez","state":"Quintana Roo","population":2911,"lat":18.27389,"lng":-88.68111},{"city":"Dziuche","state":"Quintana Roo","population":2870,"lat":19.89744,"lng":-88.80949},{"city":"Álvaro Obregón","state":"Quintana Roo","population":2869,"lat":18.299,"lng":-88.65145},{"city":"Tepich","state":"Quintana Roo","population":2753,"lat":20.24212,"lng":-88.25694},{"city":"Zona Urbana Ejido Isla Mujeres","state":"Quintana Roo","population":2653,"lat":21.22472,"lng":-86.85361},{"city":"Sergio Butrón Casas","state":"Quintana Roo","population":2235,"lat":18.5139,"lng":-88.56883},{"city":"Ignacio Zaragoza","state":"Quintana Roo","population":2213,"lat":20.88167,"lng":-87.525},{"city":"Saban","state":"Quintana Roo","population":2167,"lat":20.0345,"lng":-88.53891},{"city":"Cacao","state":"Quintana Roo","population":2056,"lat":18.19458,"lng":-88.69529},{"city":"Xul-Ha","state":"Quintana Roo","population":2037,"lat":18.55108,"lng":-88.46363},{"city":"Maya Balam","state":"Quintana Roo","population":2018,"lat":18.93917,"lng":-88.39972},{"city":"Subteniente López","state":"Quintana Roo","population":1915,"lat":18.49546,"lng":-88.39126},{"city":"Pucté","state":"Quintana Roo","population":1861,"lat":18.23237,"lng":-88.6676},{"city":"Carlos A. Madrazo","state":"Quintana Roo","population":1825,"lat":18.50172,"lng":-88.52508},{"city":"Huay-Pix","state":"Quintana Roo","population":1649,"lat":18.51664,"lng":-88.42614},{"city":"Ucum","state":"Quintana Roo","population":1495,"lat":18.50258,"lng":-88.51836},{"city":"Isla Holbox","state":"Quintana Roo","population":1486,"lat":21.52324,"lng":-87.37781},{"city":"Chiquilá","state":"Quintana Roo","population":1466,"lat":21.43273,"lng":-87.33559},{"city":"X-Hazil Sur","state":"Quintana Roo","population":1422,"lat":19.39167,"lng":-88.07417},{"city":"Caobas","state":"Quintana Roo","population":1412,"lat":18.44497,"lng":-89.10498},{"city":"Huay Max","state":"Quintana Roo","population":1399,"lat":20.04173,"lng":-88.52588},{"city":"Ciudad Chemuyil","state":"Quintana Roo","population":1377,"lat":20.34861,"lng":-87.35306},{"city":"La Presumida","state":"Quintana Roo","population":1357,"lat":19.80083,"lng":-88.75389},{"city":"Sabidos","state":"Quintana Roo","population":1342,"lat":18.35716,"lng":-88.58743},{"city":"X-pichil","state":"Quintana Roo","population":1340,"lat":19.69529,"lng":-88.37681},{"city":"Akumal","state":"Quintana Roo","population":1310,"lat":20.39693,"lng":-87.31444},{"city":"Morocoy","state":"Quintana Roo","population":1293,"lat":18.60324,"lng":-88.81097},{"city":"Polyuc","state":"Quintana Roo","population":1226,"lat":19.60889,"lng":-88.56148},{"city":"Dzula","state":"Quintana Roo","population":1223,"lat":19.60328,"lng":-88.41566},{"city":"Coba","state":"Quintana Roo","population":1167,"lat":20.48298,"lng":-87.73888},{"city":"Nuevo Xcán","state":"Quintana Roo","population":1130,"lat":20.86917,"lng":-87.60306},{"city":"Los Divorciados","state":"Quintana Roo","population":1118,"lat":19.07687,"lng":-88.45647},{"city":"Jose Narciso Rovirosa","state":"Quintana Roo","population":1107,"lat":18.1062,"lng":-88.72565},{"city":"La Union","state":"Quintana Roo","population":1099,"lat":17.89918,"lng":-88.88092},{"city":"Juan Sarabia","state":"Quintana Roo","population":1093,"lat":18.50035,"lng":-88.48013},{"city":"X Cabil","state":"Quintana Roo","population":1087,"lat":20.16542,"lng":-88.46398},{"city":"Kancabchén","state":"Quintana Roo","population":1083,"lat":19.71492,"lng":-88.86211},{"city":"El Tintal","state":"Quintana Roo","population":1074,"lat":20.89194,"lng":-87.46611},{"city":"Santa Rosa Segundo","state":"Quintana Roo","population":1068,"lat":19.97778,"lng":-88.2625},{"city":"San Angel","state":"Quintana Roo","population":1041,"lat":21.23535,"lng":-87.43156},{"city":"Cocoyol","state":"Quintana Roo","population":1019,"lat":18.16448,"lng":-88.6908},{"city":"Zacalaca","state":"Quintana Roo","population":1010,"lat":20.0624,"lng":-88.59606},{"city":"Presidente Juárez","state":"Quintana Roo","population":1004,"lat":19.32836,"lng":-88.56164},{"city":"Reforma","state":"Quintana Roo","population":992,"lat":18.81352,"lng":-88.5723},{"city":"Salamanca","state":"Quintana Roo","population":967,"lat":18.67417,"lng":-88.47278},{"city":"Candelaria","state":"Quintana Roo","population":963,"lat":19.73639,"lng":-88.95861},{"city":"Palmar","state":"Quintana Roo","population":950,"lat":18.44801,"lng":-88.53009},{"city":"X-yatil","state":"Quintana Roo","population":945,"lat":19.66176,"lng":-88.44375},{"city":"Mahahual","state":"Quintana Roo","population":920,"lat":18.71613,"lng":-87.7077},{"city":"Laguna Kaná","state":"Quintana Roo","population":914,"lat":19.50292,"lng":-88.39685},{"city":"Ramonal","state":"Quintana Roo","population":901,"lat":18.41947,"lng":-88.5326},{"city":"Santa Gertrudis","state":"Quintana Roo","population":899,"lat":19.8,"lng":-88.77222},{"city":"Luis Echeverría Álvarez","state":"Quintana Roo","population":899,"lat":18.65667,"lng":-88.21833},{"city":"Francisco Villa","state":"Quintana Roo","population":882,"lat":18.47819,"lng":-88.84437},{"city":"Chanchen Primero","state":"Quintana Roo","population":875,"lat":20.40056,"lng":-87.96778},{"city":"Allende","state":"Quintana Roo","population":868,"lat":18.38384,"lng":-88.55525},{"city":"La Pantera","state":"Quintana Roo","population":865,"lat":19.14056,"lng":-88.4925},{"city":"San Isidro la Laguna","state":"Quintana Roo","population":860,"lat":18.81139,"lng":-88.37056},{"city":"Sacxán","state":"Quintana Roo","population":837,"lat":18.4658,"lng":-88.5188},{"city":"Nachi Cocom","state":"Quintana Roo","population":833,"lat":18.48282,"lng":-88.75111},{"city":"El Ideal","state":"Quintana Roo","population":818,"lat":20.88137,"lng":-87.54437},{"city":"Solferino","state":"Quintana Roo","population":799,"lat":21.35219,"lng":-87.4289},{"city":"Tres Garantías","state":"Quintana Roo","population":790,"lat":18.19302,"lng":-88.98267},{"city":"Pedro Joaquín Coldwell","state":"Quintana Roo","population":786,"lat":18.25556,"lng":-88.66139},{"city":"Chun-Yah","state":"Quintana Roo","population":780,"lat":20.10167,"lng":-87.92581},{"city":"San Francisco","state":"Quintana Roo","population":767,"lat":20.82084,"lng":-87.50361},{"city":"San Pedro Peralta","state":"Quintana Roo","population":766,"lat":18.70071,"lng":-88.85617},{"city":"Naranjal Poniente","state":"Quintana Roo","population":754,"lat":19.36189,"lng":-88.46022},{"city":"El Cedral","state":"Quintana Roo","population":752,"lat":20.95102,"lng":-87.55062},{"city":"Santa María Poniente","state":"Quintana Roo","population":752,"lat":19.36761,"lng":-88.40723},{"city":"Las Fincas","state":"Quintana Roo","population":746,"lat":20.49806,"lng":-86.91611},{"city":"Chumpón","state":"Quintana Roo","population":717,"lat":20.00222,"lng":-87.81222},{"city":"San Felipe Primero","state":"Quintana Roo","population":703,"lat":19.81278,"lng":-88.83278},{"city":"Tuzik","state":"Quintana Roo","population":699,"lat":19.91513,"lng":-88.15953},{"city":"Lázaro Cárdenas Segundo","state":"Quintana Roo","population":699,"lat":18.70123,"lng":-88.85822},{"city":"Miguel Alemán","state":"Quintana Roo","population":688,"lat":18.91361,"lng":-89.09333},{"city":"Miguel Hidalgo y Costilla","state":"Quintana Roo","population":676,"lat":18.83333,"lng":-88.34417},{"city":"El Naranjal","state":"Quintana Roo","population":662,"lat":19.64209,"lng":-88.78427},{"city":"Tixcacal Guardia","state":"Quintana Roo","population":659,"lat":19.85894,"lng":-88.1751},{"city":"Francisco Uh May","state":"Quintana Roo","population":655,"lat":20.36472,"lng":-87.59028},{"city":"Laguna Guerrero","state":"Quintana Roo","population":654,"lat":18.68975,"lng":-88.26721},{"city":"Filomeno Mata","state":"Quintana Roo","population":636,"lat":19.85922,"lng":-88.395},{"city":"La Esperanza","state":"Quintana Roo","population":636,"lat":19.8643,"lng":-88.58538},{"city":"Jesús González Ortega","state":"Quintana Roo","population":620,"lat":18.48744,"lng":-88.66938},{"city":"Puerto Arturo","state":"Quintana Roo","population":606,"lat":19.65916,"lng":-89.06668},{"city":"Barceló Maya","state":"Quintana Roo","population":606,"lat":20.4875,"lng":-87.24611},{"city":"Altos de Sevilla","state":"Quintana Roo","population":605,"lat":18.85167,"lng":-88.67722},{"city":"Yaxley","state":"Quintana Roo","population":600,"lat":19.76863,"lng":-88.19966},{"city":"Betania","state":"Quintana Roo","population":584,"lat":19.63806,"lng":-88.28806},{"city":"San Silverio","state":"Quintana Roo","population":582,"lat":20.35969,"lng":-88.03667},{"city":"San Diego","state":"Quintana Roo","population":581,"lat":19.84495,"lng":-88.72935},{"city":"San Francisco Botes","state":"Quintana Roo","population":580,"lat":18.1143,"lng":-88.71764},{"city":"Ignacio Manuel Altamirano","state":"Quintana Roo","population":574,"lat":19.28863,"lng":-88.57488},{"city":"Chan Santa Cruz","state":"Quintana Roo","population":571,"lat":19.36806,"lng":-88.33194},{"city":"Chunhuás","state":"Quintana Roo","population":568,"lat":19.6306,"lng":-88.21026},{"city":"Bulukax","state":"Quintana Roo","population":558,"lat":19.96333,"lng":-88.77222},{"city":"Nuevo Becar","state":"Quintana Roo","population":557,"lat":18.72467,"lng":-89.13068},{"city":"Vicente Guerrero","state":"Quintana Roo","population":552,"lat":20.98306,"lng":-87.49222},{"city":"Othón P. Blanco","state":"Quintana Roo","population":551,"lat":19.62027,"lng":-89.00453},{"city":"Vallehermoso","state":"Quintana Roo","population":545,"lat":19.18519,"lng":-88.52445},{"city":"San Román","state":"Quintana Roo","population":530,"lat":18.79451,"lng":-88.72796},{"city":"Macario Gómez","state":"Quintana Roo","population":510,"lat":20.3512,"lng":-87.57572},{"city":"El Porvenir","state":"Quintana Roo","population":505,"lat":21.07833,"lng":-87.00056}]}}