{"timezone":"America/Boa_Vista","countries":{"Brazil":[{"city":"Boa Vista","state":"Roraima","population":419652,"lat":2.81972,"lng":-60.67333},{"city":"Rorainópolis","state":"Roraima","population":32647,"lat":0.94611,"lng":-60.41806},{"city":"Alto Alegre","state":"Roraima","population":21096,"lat":2.89583,"lng":-61.4975},{"city":"Caracaraí","state":"Roraima","population":20957,"lat":1.81611,"lng":-61.12806},{"city":"Pacaraima","state":"Roraima","population":19305,"lat":4.43139,"lng":-61.14639},{"city":"Cantá","state":"Roraima","population":18682,"lat":2.61028,"lng":-60.5975},{"city":"Mucajaí","state":"Roraima","population":18095,"lat":2.43986,"lng":-60.91146},{"city":"Normandia","state":"Roraima","population":13986,"lat":3.88111,"lng":-59.62278},{"city":"Amajari","state":"Roraima","population":13927,"lat":3.65222,"lng":-61.37056},{"city":"Bonfim","state":"Roraima","population":13923,"lat":3.35972,"lng":-59.83333},{"city":"Uiramutã","state":"Roraima","population":13751,"lat":4.59556,"lng":-60.16778},{"city":"Caroebe","state":"Roraima","population":10656,"lat":0.88389,"lng":-59.69556},{"city":"Iracema","state":"Roraima","population":10023,"lat":2.18222,"lng":-61.04111},{"city":"São João da Baliza","state":"Roraima","population":8858,"lat":0.95,"lng":-59.91181},{"city":"São Luiz","state":"Roraima","population":7315,"lat":1.01039,"lng":-60.04286},{"city":"Pacaraima","state":"Roraima","population":0,"lat":4.48174,"lng":-61.1401},{"city":"Alto Alegre","state":"Roraima","population":0,"lat":2.98948,"lng":-61.30895}]}}