{"timezone":"Asia/Dhaka","countries":{"Bangladesh":[{"city":"Dhaka","state":"Dhaka Division","population":10356500,"lat":23.7104,"lng":90.40744},{"city":"Chattogram","state":"Chittagong","population":3920222,"lat":22.3384,"lng":91.83168},{"city":"Gazipur","state":"Dhaka Division","population":2674697,"lat":23.99844,"lng":90.42234},{"city":"Khulna","state":"Khulna Division","population":1500689,"lat":22.80979,"lng":89.56439},{"city":"Rangpur","state":"Rangpur Division","population":1031388,"lat":25.74664,"lng":89.25166},{"city":"Comilla","state":"Chittagong","population":1030000,"lat":23.46186,"lng":91.18503},{"city":"Rajshahi","state":"Rajshahi Division","population":763580,"lat":24.374,"lng":88.60114},{"city":"Pallabi","state":"Dhaka Division","population":597574,"lat":23.825,"lng":90.37},{"city":"Mirpur Model Thana","state":"Dhaka Division","population":546503,"lat":23.80931,"lng":90.36093},{"city":"Mohāmmadpur","state":"Rajshahi Division","population":527571,"lat":24.89843,"lng":88.52844},{"city":"Hāthazāri","state":"Chittagong","population":498179,"lat":22.50515,"lng":91.81339},{"city":"Bāndarban","state":"Chittagong","population":495272,"lat":22.19534,"lng":92.21946},{"city":"Shibganj","state":"Rajshahi Division","population":378701,"lat":25.00146,"lng":89.32266},{"city":"Natore","state":"Rajshahi Division","population":369138,"lat":24.41112,"lng":88.98673},{"city":"Kāfrul","state":"Dhaka Division","population":339734,"lat":23.78822,"lng":90.37359},{"city":"Tungi","state":"Dhaka Division","population":337579,"lat":23.89154,"lng":90.40232},{"city":"Bhātāra","state":"Dhaka Division","population":324300,"lat":23.8,"lng":90.45},{"city":"Savar","state":"Dhaka Division","population":286008,"lat":23.84858,"lng":90.25002},{"city":"Narsingdi","state":"Dhaka Division","population":281080,"lat":23.92298,"lng":90.71768},{"city":"Nagar Naluākot","state":"Dhaka Division","population":273000,"lat":24.15608,"lng":90.7728},{"city":"Bagerhat","state":"Khulna Division","population":266388,"lat":22.65657,"lng":89.79123},{"city":"Brāhmanbāria","state":"Chittagong","population":264326,"lat":23.97464,"lng":91.11228},{"city":"Cox’s Bāzār","state":"Chittagong","population":253788,"lat":21.43973,"lng":92.00955},{"city":"Jessore","state":"Khulna Division","population":243987,"lat":23.16971,"lng":89.21371},{"city":"Nāgarpur","state":"Dhaka Division","population":238422,"lat":24.05783,"lng":89.87696},{"city":"Sylhet","state":"Sylhet Division","population":237000,"lat":24.89904,"lng":91.87198},{"city":"Mymensingh","state":"Mymensingh Division","population":225126,"lat":24.75636,"lng":90.40646},{"city":"Nārāyanganj","state":"Dhaka Division","population":223622,"lat":23.61352,"lng":90.50298},{"city":"Bogra","state":"Rajshahi Division","population":210000,"lat":24.85098,"lng":89.37108},{"city":"Dinajpur","state":"Rangpur Division","population":206234,"lat":25.62745,"lng":88.63779},{"city":"Karnaphuli","state":"Chittagong","population":203697,"lat":22.69056,"lng":92.23472},{"city":"Chāndpur","state":"Chittagong","population":203000,"lat":23.22714,"lng":90.65433},{"city":"Barishal","state":"Barisal Division","population":202242,"lat":22.70497,"lng":90.37013},{"city":"Saidpur","state":"Rangpur Division","population":199422,"lat":25.77769,"lng":88.89169},{"city":"Pār Naogaon","state":"Rajshahi Division","population":192464,"lat":24.80418,"lng":88.94875},{"city":"Pābna","state":"Rajshahi Division","population":186781,"lat":24.00644,"lng":89.2372},{"city":"Paltan","state":"Dhaka Division","population":184492,"lat":23.73625,"lng":90.41426},{"city":"Āshuganj City","state":"Chittagong","population":180654,"lat":24.04016,"lng":91.0117},{"city":"Tāngāil","state":"Dhaka Division","population":180144,"lat":24.24984,"lng":89.91655},{"city":"Jamālpur","state":"Mymensingh Division","population":167900,"lat":24.91965,"lng":89.94812},{"city":"Puthia","state":"Rajshahi Division","population":159406,"lat":24.36537,"lng":88.83431},{"city":"Ramna Maidan","state":"Dhaka Division","population":143677,"lat":23.73333,"lng":90.4},{"city":"Nawābganj","state":"Rajshahi Division","population":142361,"lat":24.59025,"lng":88.27444},{"city":"Kushtia","state":"Khulna Division","population":135724,"lat":23.9028,"lng":89.11943},{"city":"Maijdi","state":"Chittagong","population":132185,"lat":22.86667,"lng":91.1},{"city":"Sonārgaon","state":"Dhaka Division","population":130000,"lat":23.65,"lng":90.61667},{"city":"Sātkhira","state":"Khulna Division","population":128918,"lat":22.70817,"lng":89.07185},{"city":"Sirajganj","state":"Rajshahi Division","population":127481,"lat":24.45771,"lng":89.70802},{"city":"Farīdpur","state":"Dhaka Division","population":112187,"lat":23.60612,"lng":89.84064},{"city":"Sherpur","state":"Mymensingh Division","population":107419,"lat":25.01881,"lng":90.01751},{"city":"Rāngāmāti","state":"Chittagong","population":106060,"lat":22.64317,"lng":92.19186},{"city":"Bhairab Bāzār","state":"Dhaka Division","population":105457,"lat":24.0524,"lng":90.9764},{"city":"Shāhzādpur","state":"Rajshahi Division","population":102420,"lat":24.17687,"lng":89.5988},{"city":"Bhola","state":"Barisal Division","population":99079,"lat":22.68759,"lng":90.64403},{"city":"Azimpur","state":"Dhaka Division","population":96641,"lat":23.7298,"lng":90.3854},{"city":"Kishorganj","state":"Dhaka Division","population":90690,"lat":24.43944,"lng":90.78291},{"city":"Bibir Hat","state":"Chittagong","population":89030,"lat":22.68347,"lng":91.79058},{"city":"Habiganj","state":"Sylhet Division","population":88760,"lat":24.38044,"lng":91.41299},{"city":"Madaripur","state":"Dhaka Division","population":84789,"lat":23.17097,"lng":90.20935},{"city":"Feni","state":"Chittagong","population":84028,"lat":23.0144,"lng":91.3966},{"city":"Lākshām","state":"Chittagong","population":82290,"lat":23.24018,"lng":91.12143},{"city":"Ishwardi","state":"Rajshahi Division","population":81995,"lat":24.12858,"lng":89.06573},{"city":"Sarishābāri","state":"Mymensingh Division","population":81325,"lat":24.75127,"lng":89.83126},{"city":"Netrakona","state":"Mymensingh Division","population":79016,"lat":24.88352,"lng":90.72898},{"city":"Sunāmganj","state":"Sylhet Division","population":74570,"lat":25.06889,"lng":91.40243},{"city":"Joypur Hāt","state":"Rajshahi Division","population":73068,"lat":25.10147,"lng":89.02734},{"city":"Mānikganj","state":"Dhaka Division","population":71698,"lat":23.85768,"lng":90.00957},{"city":"Thākurgaon","state":"Rangpur Division","population":71096,"lat":26.03097,"lng":88.46989},{"city":"Pālang","state":"Dhaka Division","population":67652,"lat":23.21824,"lng":90.35076},{"city":"Lalmonirhat","state":"Rangpur Division","population":65127,"lat":25.91719,"lng":89.44595},{"city":"Patuakhali","state":"Barisal Division","population":65000,"lat":22.36833,"lng":90.3458},{"city":"Rāipur","state":"Chittagong","population":64652,"lat":23.0391,"lng":90.76808},{"city":"Tungipāra","state":"Dhaka Division","population":62210,"lat":22.89983,"lng":89.90326},{"city":"Lakshmīpur","state":"Chittagong","population":61703,"lat":22.9443,"lng":90.83005},{"city":"Maulavi Bāzār","state":"Sylhet Division","population":57441,"lat":24.48888,"lng":91.77075},{"city":"Rāmganj","state":"Chittagong","population":55241,"lat":23.1006,"lng":90.84989},{"city":"Narail","state":"Khulna Division","population":55112,"lat":23.15509,"lng":89.49515},{"city":"Pirojpur","state":"Barisal Division","population":54418,"lat":22.57965,"lng":89.97521},{"city":"Dhanmondi","state":"Dhaka Division","population":54210,"lat":23.74,"lng":90.385},{"city":"Sandwīp","state":"Chittagong","population":52152,"lat":22.51409,"lng":91.45491},{"city":"Sātkania","state":"Chittagong","population":52005,"lat":22.07639,"lng":92.04955},{"city":"Patiya","state":"Chittagong","population":51360,"lat":22.29543,"lng":91.979},{"city":"Gopālganj","state":"Dhaka Division","population":51346,"lat":23.22348,"lng":90.06041},{"city":"Khagrachhari","state":"Chittagong","population":50364,"lat":23.10787,"lng":91.97007},{"city":"Chilmāri","state":"Rangpur Division","population":49736,"lat":25.55613,"lng":89.67097},{"city":"Nageswari","state":"Rangpur Division","population":49425,"lat":25.96817,"lng":89.69153},{"city":"Panchagarh","state":"Rangpur Division","population":48531,"lat":26.33338,"lng":88.55777},{"city":"Uttar Char Fasson","state":"Khulna Division","population":48305,"lat":22.22647,"lng":90.71275},{"city":"Parbatipur","state":"Rangpur Division","population":48020,"lat":25.66369,"lng":88.93093},{"city":"Paotana Hat","state":"Rangpur Division","population":45911,"lat":25.66473,"lng":89.5026},{"city":"Burhānuddin","state":"Barisal Division","population":45670,"lat":22.49518,"lng":90.72391},{"city":"Kālīganj","state":"Khulna Division","population":45631,"lat":23.40964,"lng":89.13801},{"city":"Dohār","state":"Dhaka Division","population":45543,"lat":23.59311,"lng":90.14251},{"city":"Hājīganj","state":"Chittagong","population":44343,"lat":23.25191,"lng":90.85508},{"city":"Bhanga","state":"Dhaka Division","population":43202,"lat":23.39194,"lng":89.98389},{"city":"Bhātpāra Abhaynagar","state":"Khulna Division","population":42653,"lat":23.01472,"lng":89.43936},{"city":"Lālmohan","state":"Barisal Division","population":42220,"lat":22.33774,"lng":90.73708},{"city":"Jhingergācha","state":"Khulna Division","population":41957,"lat":23.11134,"lng":89.09061},{"city":"Mirzāpur","state":"Dhaka Division","population":41137,"lat":24.10287,"lng":90.09841},{"city":"Sakhipur","state":"Dhaka Division","population":40869,"lat":24.31988,"lng":90.16943},{"city":"Teknāf","state":"Chittagong","population":40557,"lat":20.85829,"lng":92.29773},{"city":"Gaurnadi","state":"Barisal Division","population":40519,"lat":22.97372,"lng":90.22376},{"city":"Kālia","state":"Khulna Division","population":40492,"lat":23.043,"lng":89.63094},{"city":"Dohazāri","state":"Chittagong","population":40147,"lat":22.16385,"lng":92.07333},{"city":"Bera","state":"Rajshahi Division","population":39604,"lat":24.07821,"lng":89.63262},{"city":"Mehendiganj","state":"Barisal Division","population":39424,"lat":22.82257,"lng":90.52859},{"city":"Chhāgalnāiya","state":"Chittagong","population":39335,"lat":23.02475,"lng":91.51091},{"city":"Chhātak","state":"Sylhet Division","population":39218,"lat":25.03852,"lng":91.66958},{"city":"Nālchiti","state":"Barisal Division","population":38703,"lat":22.63696,"lng":90.27195},{"city":"Bherāmāra","state":"Khulna Division","population":38159,"lat":24.02452,"lng":88.99234},{"city":"Phultala","state":"Khulna Division","population":37985,"lat":22.71673,"lng":89.51194},{"city":"Dukuria","state":"Dhaka Division","population":37894,"lat":23.71095,"lng":90.37414},{"city":"Baniachang","state":"Sylhet Division","population":37807,"lat":24.51863,"lng":91.35787},{"city":"Sarankhola","state":"Khulna Division","population":36470,"lat":22.31006,"lng":89.79113},{"city":"Shibganj","state":"Rajshahi Division","population":35961,"lat":24.68501,"lng":88.15638},{"city":"Pīrgaaj","state":"Rangpur Division","population":34606,"lat":25.85587,"lng":88.35943},{"city":"Bājitpur","state":"Dhaka Division","population":34560,"lat":24.21623,"lng":90.95002},{"city":"Char Bhadrāsan","state":"Dhaka Division","population":34423,"lat":23.30916,"lng":90.22698},{"city":"Mātuail","state":"Dhaka Division","population":34310,"lat":23.71211,"lng":90.45983},{"city":"Gafargaon","state":"Mymensingh Division","population":34177,"lat":24.432,"lng":90.5585},{"city":"Badarganj","state":"Rangpur Division","population":32600,"lat":25.67419,"lng":89.05377},{"city":"Nabīnagar","state":"Chittagong","population":31671,"lat":23.88791,"lng":90.96792},{"city":"Morrelgonj","state":"Khulna Division","population":31647,"lat":22.45566,"lng":89.85584},{"city":"Kesabpur","state":"Khulna Division","population":30926,"lat":22.90725,"lng":89.21954},{"city":"Bhāndāria","state":"Barisal Division","population":30219,"lat":22.48898,"lng":90.06273},{"city":"Mathba","state":"Barisal Division","population":29760,"lat":22.28616,"lng":89.95883},{"city":"Shāhbāzpur Town","state":"Chittagong","population":29757,"lat":24.05296,"lng":91.17193},{"city":"Burirchar","state":"Barisal Division","population":29542,"lat":22.13991,"lng":90.20636},{"city":"Raojān","state":"Chittagong","population":25708,"lat":22.53511,"lng":91.91919},{"city":"Manikchari","state":"Chittagong","population":24813,"lat":22.83957,"lng":91.84128},{"city":"Muktāgācha","state":"Mymensingh Division","population":24684,"lat":24.76484,"lng":90.25698},{"city":"Taluker Char Doani","state":"Khulna Division","population":24563,"lat":22.14002,"lng":89.94137},{"city":"Srimangal","state":"Sylhet Division","population":23332,"lat":24.30652,"lng":91.72955},{"city":"Ayla Patakata","state":"Barisal Division","population":19782,"lat":22.21726,"lng":90.20959},{"city":"Natona","state":"Barisal Division","population":19705,"lat":22.05128,"lng":90.03197},{"city":"Charāmaddi","state":"Barisal Division","population":18122,"lat":22.642,"lng":90.42598},{"city":"Phuljhuri","state":"Barisal Division","population":13205,"lat":22.2,"lng":90.06667},{"city":"Singārbīl","state":"Chittagong","population":12917,"lat":23.90704,"lng":91.21707},{"city":"Nachnapāra","state":"Khulna Division","population":12484,"lat":22.17201,"lng":89.96931},{"city":"Nawāb Char","state":"Dhaka Division","population":11609,"lat":23.71461,"lng":90.36684},{"city":"Green Model Town","state":"Dhaka Division","population":10337,"lat":23.7283,"lng":90.4518},{"city":"Samonta Bazar","state":"Khulna Division","population":10000,"lat":23.24784,"lng":88.78382},{"city":"Nalua","state":"Khulna Division","population":9270,"lat":22.49292,"lng":90.41245},{"city":"Singair","state":"Dhaka Division","population":6000,"lat":23.78771,"lng":90.16472},{"city":"Khanbaniara","state":"Dhaka Division","population":5000,"lat":23.78225,"lng":90.18382},{"city":"Ujalpur","state":"Khulna Division","population":4548,"lat":23.80562,"lng":88.62444},{"city":"Hatalia","state":"Barisal Division","population":3542,"lat":22.46839,"lng":89.99351},{"city":"Nowlamary","state":"Khulna Division","population":3500,"lat":23.67346,"lng":88.98885},{"city":"Ramnagar","state":"Dhaka Division","population":3000,"lat":23.7772,"lng":90.17604},{"city":"Jahedpur","state":"Sylhet Division","population":3000,"lat":24.83333,"lng":91.65},{"city":"Mahasthangarh","state":"Rajshahi Division","population":2200,"lat":24.96111,"lng":89.34278},{"city":"Sayani","state":"Dhaka Division","population":1500,"lat":23.79119,"lng":90.16972},{"city":"West Hetālia","state":"Khulna Division","population":1000,"lat":22.34254,"lng":90.30275},{"city":"East Hetālia","state":"Khulna Division","population":1000,"lat":22.34187,"lng":90.3122},{"city":"Paharpur","state":"Rajshahi Division","population":1000,"lat":25.02691,"lng":88.97592},{"city":"Purbadhala","state":"Mymensingh Division","population":0,"lat":24.94077,"lng":90.60025},{"city":"Nilphamari","state":"Rangpur Division","population":0,"lat":25.94167,"lng":88.84667},{"city":"Magura","state":"Khulna Division","population":0,"lat":23.48702,"lng":89.41592},{"city":"Gaibandha","state":"Rangpur Division","population":0,"lat":25.3293,"lng":89.5438}]}}