{"timezone":"Asia/Bangkok","countries":{"Thailand":[{"city":"Bangkok","state":"Bangkok","population":5104476,"lat":13.75398,"lng":100.50144},{"city":"Samut Prakan","state":"Samut Prakan","population":388920,"lat":13.5976,"lng":100.5972},{"city":"Mueang Nonthaburi","state":"Nonthaburi","population":254375,"lat":13.86075,"lng":100.51477},{"city":"Chon Buri","state":"Chon Buri","population":219164,"lat":13.3622,"lng":100.98345},{"city":"Phra Pradaeng","state":"Samut Prakan","population":196129,"lat":13.65855,"lng":100.53362},{"city":"Bang Khae","state":"Bangkok","population":193002,"lat":13.69196,"lng":100.40691},{"city":"Hat Yai","state":"Songkhla","population":191696,"lat":7.00836,"lng":100.47668},{"city":"Pak Kret","state":"Nonthaburi","population":190272,"lat":13.91301,"lng":100.49883},{"city":"Sai Mai","state":"Bangkok","population":188123,"lat":13.92068,"lng":100.64552},{"city":"Si Racha","state":"Chon Buri","population":178916,"lat":13.17372,"lng":100.93111},{"city":"Latkrabang","state":"Bangkok","population":173987,"lat":13.72784,"lng":100.74609},{"city":"Watthana","state":"Bangkok","population":171150,"lat":13.72978,"lng":100.58536},{"city":"Khlong Sam Wa","state":"Bangkok","population":169489,"lat":13.87139,"lng":100.73719},{"city":"Bang Khun Thian","state":"Bangkok","population":165491,"lat":13.66302,"lng":100.43416},{"city":"Lat Krabang","state":"Bangkok","population":163175,"lat":13.72341,"lng":100.78436},{"city":"Chatuchak","state":"Bangkok","population":160906,"lat":13.82893,"lng":100.55985},{"city":"Ban Khlong Prawet","state":"Bangkok","population":160671,"lat":13.71904,"lng":100.68146},{"city":"Chom Thong","state":"Bangkok","population":158005,"lat":13.67717,"lng":100.48407},{"city":"Nong Chok","state":"Bangkok","population":157138,"lat":13.85585,"lng":100.86216},{"city":"Lampang","state":"Lampang","population":156139,"lat":18.29232,"lng":99.49277},{"city":"Nong Khaem","state":"Bangkok","population":150218,"lat":13.70528,"lng":100.34923},{"city":"Bang Kapi","state":"Bangkok","population":147800,"lat":13.7653,"lng":100.647},{"city":"Bueng Kum","state":"Bangkok","population":145830,"lat":13.78528,"lng":100.66958},{"city":"Surat Thani","state":"Surat Thani","population":132040,"lat":9.14011,"lng":99.33311},{"city":"Udon Thani","state":"Udon Thani","population":130531,"lat":17.41567,"lng":102.78589},{"city":"Din Daeng","state":"Bangkok","population":130220,"lat":13.7904,"lng":100.57014},{"city":"Chiang Mai","state":"Chiang Mai","population":127240,"lat":18.79038,"lng":98.98468},{"city":"Nakhon Ratchasima","state":"Nakhon Ratchasima","population":126391,"lat":14.97066,"lng":102.10196},{"city":"Hua Hin","state":"Prachuap Khiri Khan","population":126355,"lat":12.57065,"lng":99.95876},{"city":"Bang Sue","state":"Bangkok","population":125440,"lat":13.81086,"lng":100.53064},{"city":"Ban Samae Dam","state":"Bangkok","population":125133,"lat":13.58956,"lng":100.38734},{"city":"Ubon Ratchathani","state":"Ubon Ratchathani","population":122533,"lat":15.23844,"lng":104.84866},{"city":"Lat Phrao","state":"Bangkok","population":122182,"lat":13.80349,"lng":100.60749},{"city":"Phasi Charoen","state":"Bangkok","population":122070,"lat":13.71466,"lng":100.43691},{"city":"Thon Buri","state":"Bangkok","population":119708,"lat":13.725,"lng":100.48511},{"city":"Khlong Luang","state":"Pathum Thani","population":118551,"lat":14.06467,"lng":100.64578},{"city":"Nakhon Pathom","state":"Nakhon Pathom","population":117927,"lat":13.8196,"lng":100.04427},{"city":"Bangkok Noi","state":"Bangkok","population":117793,"lat":13.76266,"lng":100.47798},{"city":"Thung Khru","state":"Bangkok","population":116473,"lat":13.62875,"lng":100.50964},{"city":"Pattaya","state":"Chon Buri","population":116417,"lat":12.93333,"lng":100.88333},{"city":"Suan Luang","state":"Bangkok","population":115658,"lat":13.73028,"lng":100.65138},{"city":"Wang Thonglang","state":"Bangkok","population":114768,"lat":13.78546,"lng":100.61165},{"city":"Khon Kaen","state":"Khon Kaen","population":114459,"lat":16.44671,"lng":102.833},{"city":"Lak Si","state":"Bangkok","population":109770,"lat":13.88724,"lng":100.5792},{"city":"Khlong Toei","state":"Bangkok","population":109041,"lat":13.71669,"lng":100.57159},{"city":"Dusit","state":"Bangkok","population":107655,"lat":13.7775,"lng":100.51977},{"city":"Rayong","state":"Rayong","population":106737,"lat":12.68095,"lng":101.25798},{"city":"Taling Chan","state":"Bangkok","population":105299,"lat":13.77698,"lng":100.4567},{"city":"Bang Bon","state":"Bangkok","population":105161,"lat":13.66185,"lng":100.39567},{"city":"Nakhon Si Thammarat","state":"Nakhon Si Thammarat","population":102152,"lat":8.43333,"lng":99.96667},{"city":"Chanthaburi","state":"Chanthaburi","population":99819,"lat":12.60961,"lng":102.10447},{"city":"Bang Rak","state":"Bangkok","population":99273,"lat":13.73058,"lng":100.52388},{"city":"Tha Raeng","state":"Bangkok","population":97658,"lat":13.86849,"lng":100.64534},{"city":"Bang Na","state":"Bangkok","population":95912,"lat":13.66744,"lng":100.64206},{"city":"Anusawari","state":"Bangkok","population":94550,"lat":13.89466,"lng":100.61425},{"city":"Yala","state":"Yala","population":93558,"lat":6.53995,"lng":101.28128},{"city":"Ratchaburi","state":"Ratchaburi","population":92448,"lat":13.53671,"lng":99.81712},{"city":"Bang Phlat","state":"Bangkok","population":92325,"lat":13.79425,"lng":100.50447},{"city":"Phra Khanong","state":"Bangkok","population":90354,"lat":13.70185,"lng":100.60157},{"city":"Saphan Sung","state":"Bangkok","population":89825,"lat":13.77019,"lng":100.68531},{"city":"Khan Na Yao","state":"Bangkok","population":88678,"lat":13.82609,"lng":100.67933},{"city":"Ban Mai","state":"Songkhla","population":86899,"lat":7.20411,"lng":100.54508},{"city":"Rat Burana","state":"Bangkok","population":86695,"lat":13.68219,"lng":100.50603},{"city":"Sathon","state":"Bangkok","population":84916,"lat":13.7085,"lng":100.52619},{"city":"Nakhon Sawan","state":"Nakhon Sawan","population":82305,"lat":15.70472,"lng":100.13717},{"city":"Yan Nawa","state":"Bangkok","population":81521,"lat":13.69634,"lng":100.54212},{"city":"Sathorn","state":"Bangkok","population":79624,"lat":13.74998,"lng":100.51682},{"city":"Bang Sue subdistrict","state":"Bangkok","population":79405,"lat":13.80645,"lng":100.53062},{"city":"Phuket","state":"Phuket","population":79308,"lat":7.89059,"lng":98.3981},{"city":"Chiang Rai","state":"Chiang Rai","population":78756,"lat":19.90858,"lng":99.8325},{"city":"Bang Kruai","state":"Nonthaburi","population":78305,"lat":13.805,"lng":100.47283},{"city":"Huai Khwang","state":"Bangkok","population":78175,"lat":13.77678,"lng":100.579},{"city":"Khlong Chan","state":"Bangkok","population":76934,"lat":13.78126,"lng":100.64506},{"city":"Thawi Watthana","state":"Bangkok","population":76351,"lat":13.78316,"lng":100.37805},{"city":"Sakon Nakhon","state":"Sakon Nakhon","population":76237,"lat":17.16116,"lng":104.14725},{"city":"Khlong San","state":"Bangkok","population":73263,"lat":13.73086,"lng":100.50903},{"city":"Ratchathewi","state":"Bangkok","population":73035,"lat":13.759,"lng":100.53358},{"city":"Krathum Baen","state":"Samut Sakhon","population":72819,"lat":13.6533,"lng":100.25972},{"city":"Bangkok Yai","state":"Bangkok","population":72321,"lat":13.72319,"lng":100.476},{"city":"Ban Ko Sire","state":"Phuket","population":71284,"lat":7.88747,"lng":98.42575},{"city":"Phaya Thai","state":"Bangkok","population":70238,"lat":13.78005,"lng":100.54275},{"city":"Khlong Kum","state":"Bangkok","population":69071,"lat":13.78843,"lng":100.68033},{"city":"Huamak","state":"Bangkok","population":67798,"lat":13.7578,"lng":100.64737},{"city":"Saraburi","state":"Saraburi","population":67763,"lat":14.53333,"lng":100.91667},{"city":"Trang","state":"Trang","population":66713,"lat":7.55633,"lng":99.61141},{"city":"Sattahip","state":"Chon Buri","population":65444,"lat":12.66644,"lng":100.90073},{"city":"Kanchanaburi","state":"Kanchanaburi","population":63699,"lat":14.00412,"lng":99.54832},{"city":"Nong Khai","state":"Nong Khai","population":63609,"lat":17.87847,"lng":102.742},{"city":"Samut Sakhon","state":"Samut Sakhon","population":63498,"lat":13.54753,"lng":100.27362},{"city":"Phitsanulok","state":"Phitsanulok","population":62584,"lat":16.82481,"lng":100.25858},{"city":"Songkhla","state":"Songkhla","population":61758,"lat":7.19882,"lng":100.5951},{"city":"Ban Tha Kham","state":"Bangkok","population":61011,"lat":13.6375,"lng":100.44128},{"city":"Ban Lam Luk Ka","state":"Pathum Thani","population":60700,"lat":13.97738,"lng":100.77776},{"city":"Bang Khae Nuea","state":"Bangkok","population":59821,"lat":13.70552,"lng":100.38933},{"city":"Kamphaeng Phet","state":"Kamphaeng Phet","population":58787,"lat":16.48344,"lng":99.52153},{"city":"Chaiyaphum","state":"Chaiyaphum","population":58350,"lat":15.81047,"lng":102.02881},{"city":"Uttaradit","state":"Uttaradit","population":58313,"lat":17.62557,"lng":100.09421},{"city":"Lop Buri","state":"Lopburi","population":57761,"lat":14.79808,"lng":100.65397},{"city":"Ban Pong","state":"Ratchaburi","population":57559,"lat":13.81629,"lng":99.87739},{"city":"Phra Phutthabat","state":"Saraburi","population":57008,"lat":14.72526,"lng":100.79536},{"city":"Chumphon","state":"Chumphon","population":55835,"lat":10.4957,"lng":99.17971},{"city":"Klaeng","state":"Rayong","population":55619,"lat":12.77972,"lng":101.64831},{"city":"Kalasin","state":"Kalasin","population":55102,"lat":16.43281,"lng":103.50658},{"city":"Suphan Buri","state":"Suphan Buri","population":53399,"lat":14.47418,"lng":100.12218},{"city":"Pathum Wan","state":"Bangkok","population":53263,"lat":13.73649,"lng":100.5239},{"city":"Wat Tha Phra","state":"Bangkok","population":53111,"lat":13.73462,"lng":100.47608},{"city":"Tha Maka","state":"Kanchanaburi","population":52907,"lat":13.9,"lng":99.76667},{"city":"Ban Talat Yai","state":"Phuket","population":52192,"lat":7.88481,"lng":98.40008},{"city":"Ban Lak Song","state":"Bangkok","population":52144,"lat":13.68928,"lng":100.39814},{"city":"Maha Sarakham","state":"Maha Sarakham","population":51584,"lat":16.18483,"lng":103.30067},{"city":"Phra Nakhon","state":"Bangkok","population":51231,"lat":13.76512,"lng":100.49864},{"city":"Pom Prap Sattru Phai","state":"Bangkok","population":51006,"lat":13.75822,"lng":100.51325},{"city":"Phra Nakhon Si Ayutthaya","state":"Phra Nakhon Si Ayutthaya","population":50830,"lat":14.35167,"lng":100.57739},{"city":"Phetchabun","state":"Phetchabun","population":50656,"lat":16.41904,"lng":101.16056},{"city":"Ko Samui","state":"Surat Thani","population":50000,"lat":9.53567,"lng":99.93567},{"city":"Chachoengsao","state":"Chachoengsao","population":49741,"lat":13.6882,"lng":101.07156},{"city":"Cha-am","state":"Phetchaburi","population":49375,"lat":12.8,"lng":99.96667},{"city":"Pak Chong","state":"Nakhon Ratchasima","population":48999,"lat":14.70802,"lng":101.41614},{"city":"Chong Nonsi","state":"Bangkok","population":48277,"lat":13.69311,"lng":100.54869},{"city":"Bangkok Riverside","state":"Bangkok","population":48227,"lat":13.7549,"lng":100.51716},{"city":"Narathiwat","state":"Narathiwat","population":47771,"lat":6.42639,"lng":101.82308},{"city":"Pran Buri","state":"Prachuap Khiri Khan","population":47293,"lat":12.38487,"lng":99.90157},{"city":"Surin","state":"Surin","population":46673,"lat":14.88181,"lng":103.49364},{"city":"Phetchaburi","state":"Phetchaburi","population":46601,"lat":13.11189,"lng":99.94467},{"city":"Chum Phae","state":"Khon Kaen","population":46335,"lat":16.5443,"lng":102.09924},{"city":"Sadao","state":"Songkhla","population":46236,"lat":6.63883,"lng":100.42342},{"city":"Si Sa Ket","state":"Si Sa Ket","population":44751,"lat":15.11481,"lng":104.32938},{"city":"Mae Sot","state":"Tak","population":44563,"lat":16.71667,"lng":98.56667},{"city":"Pattani","state":"Pattani","population":43690,"lat":6.86814,"lng":101.25009},{"city":"Phatthalung","state":"Phatthalung","population":43522,"lat":7.61786,"lng":100.07792},{"city":"Lamphun","state":"Lamphun","population":43196,"lat":18.58054,"lng":99.00745},{"city":"Warin Chamrap","state":"Ubon Ratchathani","population":43102,"lat":15.19319,"lng":104.8628},{"city":"Wong Sawang","state":"Bangkok","population":43005,"lat":13.81671,"lng":100.51587},{"city":"Su-ngai Kolok","state":"Narathiwat","population":42776,"lat":6.02977,"lng":101.96586},{"city":"Tha Yang","state":"Phetchaburi","population":42602,"lat":12.95772,"lng":99.90555},{"city":"Ban Phaeo","state":"Samut Sakhon","population":41904,"lat":13.59072,"lng":100.10748},{"city":"Bang Bua Thong","state":"Nonthaburi","population":41567,"lat":13.91783,"lng":100.42403},{"city":"Lat Yao","state":"Bangkok","population":41238,"lat":13.84725,"lng":100.56373},{"city":"Nong Khae","state":"Saraburi","population":41067,"lat":14.34062,"lng":100.86733},{"city":"Mukdahan","state":"Mukdahan","population":40480,"lat":16.54531,"lng":104.72351},{"city":"Bang Phai","state":"Bangkok","population":40277,"lat":13.70667,"lng":100.38673},{"city":"Ban Na","state":"Sukhothai","population":40174,"lat":17.01717,"lng":99.73283},{"city":"Bang Lamung","state":"Chon Buri","population":39620,"lat":13.04704,"lng":100.92891},{"city":"Roi Et","state":"Roi Et","population":39328,"lat":16.0567,"lng":103.65309},{"city":"Wichian Buri","state":"Phetchabun","population":39272,"lat":15.65778,"lng":101.10603},{"city":"Khwaeng Bang Khae","state":"Bangkok","population":38915,"lat":13.69162,"lng":100.40448},{"city":"Wichit","state":"Phuket","population":38701,"lat":7.8894,"lng":98.38523},{"city":"Phrae","state":"Phrae","population":38538,"lat":18.14589,"lng":100.14103},{"city":"Khetsamsenok","state":"Bangkok","population":38204,"lat":13.79284,"lng":100.58298},{"city":"Chan Kasem","state":"Bangkok","population":38080,"lat":13.82064,"lng":100.58311},{"city":"Mae Chan","state":"Chiang Rai","population":37672,"lat":20.14675,"lng":99.85256},{"city":"Sam Phran","state":"Nakhon Pathom","population":37115,"lat":13.72698,"lng":100.21526},{"city":"Sukhothai","state":"Sukhothai","population":37000,"lat":17.00778,"lng":99.823},{"city":"Kantharalak","state":"Si Sa Ket","population":36621,"lat":14.64056,"lng":104.64992},{"city":"Photharam","state":"Ratchaburi","population":36248,"lat":13.69234,"lng":99.84969},{"city":"Ban Ang Sila","state":"Chon Buri","population":36055,"lat":13.33956,"lng":100.92964},{"city":"Bang Khlo","state":"Bangkok","population":35838,"lat":13.69889,"lng":100.51244},{"city":"Phichit","state":"Phichit","population":35760,"lat":16.44184,"lng":100.34879},{"city":"Det Udom","state":"Ubon Ratchathani","population":35669,"lat":14.90598,"lng":105.07836},{"city":"Ban Phai","state":"Khon Kaen","population":35583,"lat":16.05997,"lng":102.73097},{"city":"Tha Bo","state":"Nong Khai","population":35292,"lat":17.85003,"lng":102.58139},{"city":"Loei","state":"Loei","population":35273,"lat":17.49052,"lng":101.72749},{"city":"Samut Songkhram","state":"Samut Songkhram","population":35065,"lat":13.41456,"lng":100.00264},{"city":"Kathu","state":"Phuket","population":34835,"lat":7.91779,"lng":98.33322},{"city":"Amnat Charoen","state":"Amnat Charoen","population":34769,"lat":15.85851,"lng":104.62883},{"city":"Nakhon Phanom","state":"Nakhon Phanom","population":34595,"lat":17.41081,"lng":104.77856},{"city":"Satun","state":"Satun","population":34544,"lat":6.62314,"lng":100.06676},{"city":"Nong Bua Lamphu","state":"Nong Bua Lamphu","population":34401,"lat":17.20406,"lng":102.44068},{"city":"Ban Ratsada","state":"Phuket","population":33534,"lat":7.90963,"lng":98.40248},{"city":"Prachuap Khiri Khan","state":"Prachuap Khiri Khan","population":33521,"lat":11.82098,"lng":99.7841},{"city":"Chomphon","state":"Bangkok","population":33250,"lat":13.80354,"lng":100.5603},{"city":"San Kamphaeng","state":"Chiang Mai","population":32950,"lat":18.74486,"lng":99.11953},{"city":"Prachin Buri","state":"Prachin Buri","population":32600,"lat":14.04992,"lng":101.36864},{"city":"Ban Khlong Bang Phran","state":"Bangkok","population":32286,"lat":13.66314,"lng":100.38781},{"city":"Bang Khun Si","state":"Bangkok","population":31689,"lat":13.75064,"lng":100.47022},{"city":"Krabi","state":"Krabi","population":31219,"lat":8.07257,"lng":98.91052},{"city":"Ban Khlong Bang Sao Thong","state":"Samut Prakan","population":31153,"lat":13.64172,"lng":100.83272},{"city":"Yaring","state":"Pattani","population":31111,"lat":6.86617,"lng":101.36894},{"city":"Na Klang","state":"Nong Bua Lamphu","population":31024,"lat":17.3072,"lng":102.18886},{"city":"Ban Aranyik","state":"Phitsanulok","population":30508,"lat":16.82553,"lng":100.28486},{"city":"Sam Sen Nai","state":"Bangkok","population":30476,"lat":13.77714,"lng":100.55082},{"city":"Kaeng Khoi","state":"Saraburi","population":30332,"lat":14.58617,"lng":100.99758},{"city":"Betong","state":"Yala","population":29604,"lat":5.77434,"lng":101.07231},{"city":"Bang Phae","state":"Ratchaburi","population":29548,"lat":13.69157,"lng":99.92982},{"city":"Ban Phan Don","state":"Udon Thani","population":29211,"lat":17.14272,"lng":102.97261},{"city":"Ban Chang Lo","state":"Bangkok","population":29122,"lat":13.75085,"lng":100.47704},{"city":"Kaeng Khro","state":"Chaiyaphum","population":29056,"lat":16.10864,"lng":102.25808},{"city":"Amphoe Sikhiu","state":"Nakhon Ratchasima","population":28681,"lat":14.89944,"lng":101.70833},{"city":"Sa Kaeo","state":"Sa Kaeo","population":28497,"lat":13.81411,"lng":102.07222},{"city":"Bang Bo District","state":"Samut Prakan","population":28376,"lat":13.58333,"lng":100.81667},{"city":"Buri Ram","state":"Buriram","population":28283,"lat":14.99433,"lng":103.10392},{"city":"Thung Song","state":"Nakhon Si Thammarat","population":28223,"lat":8.16453,"lng":99.68039},{"city":"Ban Chang","state":"Rayong","population":28204,"lat":12.72543,"lng":101.05531},{"city":"Ban Bang Kadi","state":"Pathum Thani","population":27911,"lat":13.99904,"lng":100.54962},{"city":"Nong Phai","state":"Phetchabun","population":27756,"lat":15.99025,"lng":101.06183},{"city":"Mae Sai","state":"Chiang Rai","population":27520,"lat":20.43353,"lng":99.87617},{"city":"Chorakhe Bua","state":"Bangkok","population":27465,"lat":13.839,"lng":100.61144},{"city":"Tha Muang","state":"Kanchanaburi","population":26746,"lat":13.96118,"lng":99.64122},{"city":"Ron Phibun","state":"Nakhon Si Thammarat","population":26621,"lat":8.17911,"lng":99.85425},{"city":"Ban Talat Bueng","state":"Chon Buri","population":26113,"lat":13.07147,"lng":101.00314},{"city":"Si Satchanalai","state":"Sukhothai","population":25942,"lat":17.51692,"lng":99.75978},{"city":"Inner Huai Khwang","state":"Bangkok","population":25879,"lat":13.78152,"lng":100.58382},{"city":"Tha Kham","state":"Surat Thani","population":25810,"lat":9.11072,"lng":99.23208},{"city":"Bang Pakong","state":"Chachoengsao","population":25620,"lat":13.54297,"lng":100.99333},{"city":"Chai Badan","state":"Lopburi","population":25196,"lat":15.2,"lng":101.13333},{"city":"Prachin Buri Town","state":"Prachin Buri","population":25157,"lat":14.05458,"lng":101.37264},{"city":"Pak Phanang","state":"Nakhon Si Thammarat","population":25014,"lat":8.35109,"lng":100.20195},{"city":"Bangbontai","state":"Bangkok","population":24860,"lat":13.6472,"lng":100.37144},{"city":"Bang Yi Khan","state":"Bangkok","population":24745,"lat":13.76327,"lng":100.48982},{"city":"Kut Chap","state":"Udon Thani","population":24696,"lat":17.4257,"lng":102.56692},{"city":"Nan","state":"Nan","population":24670,"lat":18.78378,"lng":100.77899},{"city":"Ranong","state":"Ranong province","population":24561,"lat":9.96583,"lng":98.63476},{"city":"Pathum Thani","state":"Pathum Thani","population":24547,"lat":14.01346,"lng":100.53049},{"city":"Bang O","state":"Nonthaburi","population":24225,"lat":13.83576,"lng":100.46001},{"city":"Samphanthawong","state":"Bangkok","population":24150,"lat":13.737,"lng":100.512},{"city":"Tak","state":"Tak","population":24149,"lat":16.86968,"lng":99.12898},{"city":"Ban Khlong Bang Bon","state":"Bangkok","population":24008,"lat":13.63606,"lng":100.3775},{"city":"Dok Kham Tai","state":"Phayao","population":23824,"lat":19.16242,"lng":99.99342},{"city":"Ban Bueng","state":"Chon Buri","population":23509,"lat":13.311,"lng":101.11214},{"city":"Kamalasai","state":"Kalasin","population":23393,"lat":16.33839,"lng":103.57564},{"city":"Ban Talat Nua","state":"Phuket","population":23381,"lat":7.88489,"lng":98.38557},{"city":"Chok Chai","state":"Nakhon Ratchasima","population":23337,"lat":14.72844,"lng":102.16524},{"city":"Damnoen Saduak","state":"Ratchaburi","population":23296,"lat":13.51825,"lng":99.95469},{"city":"Bang Kho Laem","state":"Bangkok","population":22697,"lat":13.69347,"lng":100.5022},{"city":"Bang Kho Laem subdistrict","state":"Bangkok","population":22697,"lat":13.6934,"lng":100.50221},{"city":"Bang Bon Nuea","state":"Bangkok","population":22619,"lat":13.65293,"lng":100.35866},{"city":"Tha Mai","state":"Chanthaburi","population":22445,"lat":12.62137,"lng":102.00481},{"city":"Ban Kamala","state":"Phuket","population":22296,"lat":7.95508,"lng":98.28322},{"city":"Uthai Thani","state":"Uthai Thani","population":22219,"lat":15.37939,"lng":100.0245},{"city":"Nang Rong","state":"Buriram","population":21961,"lat":14.6377,"lng":102.79138},{"city":"Khwaeng Bang Plat","state":"Bangkok","population":21953,"lat":13.78775,"lng":100.49469},{"city":"Phanat Nikhom","state":"Chon Buri","population":21924,"lat":13.44581,"lng":101.18445},{"city":"Ban Na San","state":"Surat Thani","population":21900,"lat":8.80036,"lng":99.36372},{"city":"Taphan Hin","state":"Phichit","population":21895,"lat":16.22095,"lng":100.41978},{"city":"Khanu Woralaksaburi","state":"Kamphaeng Phet","population":21889,"lat":16.0617,"lng":99.86058},{"city":"Chatuchak subdistrict","state":"Bangkok","population":21853,"lat":13.82735,"lng":100.55531},{"city":"Ban Nong Wua So","state":"Udon Thani","population":21722,"lat":17.2675,"lng":103.22472},{"city":"Yasothon","state":"Yasothon","population":21643,"lat":15.79408,"lng":104.1451},{"city":"Trat","state":"Trat","population":21590,"lat":12.24364,"lng":102.51514},{"city":"Nakhon Nayok","state":"Nakhon Nayok","population":21309,"lat":14.20463,"lng":101.21295},{"city":"Phayao","state":"Phayao","population":21058,"lat":19.19203,"lng":99.87883},{"city":"Kuchinarai","state":"Kalasin","population":20532,"lat":16.541,"lng":104.05004},{"city":"Bang Pa-in","state":"Phra Nakhon Si Ayutthaya","population":20484,"lat":14.22783,"lng":100.57589},{"city":"Sena Nikhom","state":"Bangkok","population":20393,"lat":13.83655,"lng":100.57727},{"city":"Aranyaprathet","state":"Sa Kaeo","population":20236,"lat":13.69276,"lng":102.50128},{"city":"Kabin Buri","state":"Prachin Buri","population":20212,"lat":13.95114,"lng":101.71769},{"city":"Sing Buri","state":"Sing Buri","population":20046,"lat":14.88786,"lng":100.40464},{"city":"Thambon Na Mueang","state":"Prachin Buri","population":19910,"lat":14.05603,"lng":101.37218},{"city":"Phibun Mangsahan","state":"Ubon Ratchathani","population":19883,"lat":15.24467,"lng":105.22908},{"city":"Arun Amarin","state":"Bangkok","population":19882,"lat":13.76693,"lng":100.48258},{"city":"Sawankhalok","state":"Sukhothai","population":19805,"lat":17.31597,"lng":99.83186},{"city":"Ban Khlong Bang Ramat","state":"Bangkok","population":19783,"lat":13.76667,"lng":100.43333},{"city":"Ranot","state":"Songkhla","population":19780,"lat":7.77768,"lng":100.32134},{"city":"Sam Roi Yot","state":"Prachuap Khiri Khan","population":19709,"lat":12.27081,"lng":99.87203},{"city":"Ban Dung","state":"Udon Thani","population":19479,"lat":17.699,"lng":103.25957},{"city":"Phak Hai","state":"Phra Nakhon Si Ayutthaya","population":19386,"lat":14.45736,"lng":100.36989},{"city":"Nam Som","state":"Udon Thani","population":19324,"lat":17.77036,"lng":102.18947},{"city":"Wiset Chaichan","state":"Ang Thong","population":19129,"lat":14.5945,"lng":100.33825},{"city":"Tha Ruea","state":"Phra Nakhon Si Ayutthaya","population":19116,"lat":14.56739,"lng":100.72598},{"city":"Kui Buri","state":"Prachuap Khiri Khan","population":19046,"lat":12.08283,"lng":99.85431},{"city":"Bang Krathum","state":"Phitsanulok","population":18874,"lat":16.57831,"lng":100.30034},{"city":"Phan Thong","state":"Chon Buri","population":18708,"lat":13.46804,"lng":101.09532},{"city":"Khon Buri","state":"Nakhon Ratchasima","population":18596,"lat":14.52541,"lng":102.24591},{"city":"Kaset Wisai","state":"Roi Et","population":18569,"lat":15.65558,"lng":103.58361},{"city":"Ban Bang Bamru","state":"Bangkok","population":18514,"lat":13.78333,"lng":100.48333},{"city":"Khao Yoi","state":"Phetchaburi","population":18506,"lat":13.24025,"lng":99.82428},{"city":"Thoen","state":"Lampang","population":18459,"lat":17.61289,"lng":99.21612},{"city":"Non Sung","state":"Nakhon Ratchasima","population":18399,"lat":15.18014,"lng":102.25695},{"city":"Ban Tak","state":"Tak","population":18384,"lat":17.04325,"lng":99.08128},{"city":"Ban Chalong","state":"Phuket","population":18072,"lat":7.84468,"lng":98.33897},{"city":"Hang Dong","state":"Chiang Mai","population":17931,"lat":18.68703,"lng":98.91939},{"city":"Bang Len","state":"Nakhon Pathom","population":17914,"lat":14.02188,"lng":100.17183},{"city":"San Pa Tong","state":"Chiang Mai","population":17773,"lat":18.62828,"lng":98.89572},{"city":"Chon Daen","state":"Phetchabun","population":17567,"lat":16.18953,"lng":100.85958},{"city":"Lat Yao","state":"Nakhon Sawan","population":17506,"lat":15.751,"lng":99.78925},{"city":"Ban Phe","state":"Rayong","population":17414,"lat":12.62824,"lng":101.43757},{"city":"Ban Selaphum","state":"Roi Et","population":17412,"lat":16.01667,"lng":103.95},{"city":"Mae Ramat","state":"Tak","population":17316,"lat":16.98403,"lng":98.51665},{"city":"Lom Sak","state":"Phetchabun","population":17309,"lat":16.77983,"lng":101.24225},{"city":"Tak Bai","state":"Narathiwat","population":17241,"lat":6.25947,"lng":102.05461},{"city":"Phu Khiao","state":"Chaiyaphum","population":17122,"lat":16.3765,"lng":102.12853},{"city":"Den Chai","state":"Phrae","population":17019,"lat":17.98372,"lng":100.05217},{"city":"Nong Kung Si","state":"Kalasin","population":17001,"lat":16.65,"lng":103.3},{"city":"Kaset Sombun","state":"Chaiyaphum","population":16996,"lat":16.28053,"lng":101.95422},{"city":"Ra-ngae","state":"Narathiwat","population":16862,"lat":6.29678,"lng":101.72844},{"city":"Bang Rakam","state":"Phitsanulok","population":16841,"lat":16.75847,"lng":100.11742},{"city":"Bua Yai","state":"Nakhon Ratchasima","population":16832,"lat":15.58552,"lng":102.42587},{"city":"Sawang Daen Din","state":"Sakon Nakhon","population":16825,"lat":17.47531,"lng":103.45753},{"city":"Bo Phloi","state":"Kanchanaburi","population":16786,"lat":14.32517,"lng":99.51467},{"city":"Thap Than","state":"Uthai Thani","population":16615,"lat":15.46063,"lng":99.89166},{"city":"Bang Ban","state":"Phra Nakhon Si Ayutthaya","population":16588,"lat":14.37395,"lng":100.48528},{"city":"Huai Yot","state":"Trang","population":16586,"lat":7.78937,"lng":99.63469},{"city":"Seka","state":"Bueng Kan","population":16493,"lat":17.92851,"lng":103.95519},{"city":"Wang Nam Yen","state":"Sa Kaeo","population":16299,"lat":13.50325,"lng":102.18115},{"city":"Lang Suan","state":"Chumphon","population":16142,"lat":9.94561,"lng":99.07847},{"city":"Phu Kradueng","state":"Loei","population":16079,"lat":16.88425,"lng":101.88467},{"city":"Laem Sing","state":"Chanthaburi","population":16066,"lat":12.48164,"lng":102.07375},{"city":"Phanom Sarakham","state":"Chachoengsao","population":16057,"lat":13.74872,"lng":101.34888},{"city":"Ban Mo","state":"Saraburi","population":15959,"lat":14.61544,"lng":100.72731},{"city":"Wang Noi","state":"Phra Nakhon Si Ayutthaya","population":15865,"lat":14.22689,"lng":100.7155},{"city":"Makkasan","state":"Bangkok","population":15815,"lat":13.7523,"lng":100.54335},{"city":"Wang Saphung","state":"Loei","population":15747,"lat":17.30097,"lng":101.7685},{"city":"Bang Mun Nak","state":"Phichit","population":15616,"lat":16.02781,"lng":100.37917},{"city":"Pa Sang","state":"Lamphun","population":15607,"lat":18.52617,"lng":98.93936},{"city":"Dan Khun Thot","state":"Nakhon Ratchasima","population":15580,"lat":15.2085,"lng":101.77138},{"city":"Prakhon Chai","state":"Buriram","population":15564,"lat":14.60592,"lng":103.12081},{"city":"Thap Khlo","state":"Phichit","population":15528,"lat":16.16003,"lng":100.59656},{"city":"Chai Nat","state":"Chai Nat","population":15469,"lat":15.18636,"lng":100.12353},{"city":"Ban Phra","state":"Prachin Buri","population":15396,"lat":14.09461,"lng":101.389},{"city":"Ban Huai Thalaeng","state":"Nakhon Ratchasima","population":15352,"lat":14.98333,"lng":102.65},{"city":"Bang Racham","state":"Sing Buri","population":15313,"lat":14.892,"lng":100.31728},{"city":"Phon Charoen","state":"Nong Khai","population":15208,"lat":18.03333,"lng":103.16667},{"city":"Khao Wong","state":"Kalasin","population":15184,"lat":16.70008,"lng":104.09019},{"city":"Chom Bueng","state":"Ratchaburi","population":15143,"lat":13.62,"lng":99.59169},{"city":"Bang Saphan","state":"Prachuap Khiri Khan","population":15134,"lat":11.21259,"lng":99.51167},{"city":"Nakhon Luang","state":"Phra Nakhon Si Ayutthaya","population":15008,"lat":14.46281,"lng":100.60832},{"city":"Bamnet Narong","state":"Chaiyaphum","population":14890,"lat":15.50189,"lng":101.68982},{"city":"Patong","state":"Phuket","population":14797,"lat":7.89607,"lng":98.29661},{"city":"Doembang Nangbuat","state":"Suphan Buri","population":14671,"lat":14.83333,"lng":100.1},{"city":"Phon","state":"Khon Kaen","population":14596,"lat":15.816,"lng":102.59981},{"city":"Chiang Khong","state":"Chiang Rai","population":14505,"lat":20.26125,"lng":100.40461},{"city":"Ban Thai Tan","state":"Ang Thong","population":14430,"lat":14.62161,"lng":100.48739},{"city":"That Phanom","state":"Nakhon Phanom","population":14424,"lat":16.93636,"lng":104.71039},{"city":"Pong","state":"Phayao","population":14392,"lat":19.14931,"lng":100.27522},{"city":"Sung Noen","state":"Nakhon Ratchasima","population":14365,"lat":14.8992,"lng":101.82075},{"city":"Sai Buri","state":"Pattani","population":14356,"lat":6.70131,"lng":101.61675},{"city":"Ban Su-ngai Pa Di","state":"Narathiwat","population":14274,"lat":6.07239,"lng":101.87172},{"city":"Nong Bua","state":"Nakhon Sawan","population":14160,"lat":15.86458,"lng":100.58581},{"city":"Kantang","state":"Trang","population":14156,"lat":7.40542,"lng":99.51561},{"city":"Soeng Sang","state":"Nakhon Ratchasima","population":14138,"lat":14.42642,"lng":102.46058},{"city":"Wat Arun","state":"Bangkok","population":14100,"lat":13.74133,"lng":100.4884},{"city":"Chiang Kham","state":"Phayao","population":14092,"lat":19.52331,"lng":100.3},{"city":"Si Chiang Mai","state":"Nong Khai","population":14068,"lat":17.95639,"lng":102.58667},{"city":"Bang Yai","state":"Nonthaburi","population":14012,"lat":13.84341,"lng":100.36251},{"city":"Lan Sak","state":"Uthai Thani","population":13905,"lat":15.45289,"lng":99.57606},{"city":"Ang Thong","state":"Ang Thong","population":13738,"lat":14.58839,"lng":100.45283},{"city":"Chai Wari","state":"Roi Et","population":13671,"lat":16.32827,"lng":103.77033},{"city":"Pa Daet","state":"Chiang Rai","population":13624,"lat":19.50489,"lng":99.99241},{"city":"Rawai","state":"Phuket","population":13623,"lat":7.77965,"lng":98.32532},{"city":"Bo Rai","state":"Trat","population":13620,"lat":12.57283,"lng":102.53714},{"city":"Nong Ki","state":"Buriram","population":13592,"lat":14.68679,"lng":102.538},{"city":"Ban Khlong Bang Phrom","state":"Bangkok","population":13553,"lat":13.75792,"lng":100.41056},{"city":"Bang Khla","state":"Chachoengsao","population":13528,"lat":13.72144,"lng":101.20814},{"city":"Kranuan","state":"Khon Kaen","population":13475,"lat":16.70672,"lng":103.07878},{"city":"Siriraj","state":"Bangkok","population":13458,"lat":13.75754,"lng":100.48474},{"city":"Ban Sam Chuk","state":"Suphan Buri","population":13438,"lat":14.74219,"lng":100.09531},{"city":"Yang Talat","state":"Kalasin","population":13360,"lat":16.39982,"lng":103.36785},{"city":"Waeng","state":"Roi Et","population":13317,"lat":16.30006,"lng":103.97786},{"city":"Khlung","state":"Chanthaburi","population":13286,"lat":12.45467,"lng":102.22142},{"city":"Chaiyo","state":"Ang Thong","population":13255,"lat":14.67639,"lng":100.46861},{"city":"Chiang Klang","state":"Nan","population":13244,"lat":19.29378,"lng":100.86169},{"city":"Phai Sali","state":"Nakhon Sawan","population":13088,"lat":15.60003,"lng":100.64937},{"city":"Phimai","state":"Nakhon Ratchasima","population":13084,"lat":15.22324,"lng":102.49473},{"city":"Na Wa","state":"Nakhon Phanom","population":12989,"lat":17.4897,"lng":104.10056},{"city":"Si Bun Rueang","state":"Nong Bua Lamphu","population":12842,"lat":16.96705,"lng":102.27607},{"city":"Ban Dong Phra Ram","state":"Prachin Buri","population":12703,"lat":14.06667,"lng":101.4},{"city":"Chom Thong","state":"Chiang Mai","population":12488,"lat":18.41742,"lng":98.67428},{"city":"Phanom Thuan","state":"Kanchanaburi","population":12469,"lat":14.13031,"lng":99.69858},{"city":"Don Sak","state":"Surat Thani","population":12422,"lat":9.31676,"lng":99.69184},{"city":"Huai Mek","state":"Kalasin","population":12352,"lat":16.58975,"lng":103.23547},{"city":"Nakhon Thai","state":"Phitsanulok","population":12345,"lat":17.10056,"lng":100.83739},{"city":"Ban Nam Yuen","state":"Chumphon","population":12335,"lat":9.87686,"lng":98.86592},{"city":"Phayuha Khiri","state":"Nakhon Sawan","population":12271,"lat":15.45525,"lng":100.13533},{"city":"Chaiya","state":"Surat Thani","population":12223,"lat":9.38625,"lng":99.19861},{"city":"Suwannaphum","state":"Roi Et","population":12221,"lat":15.60348,"lng":103.80207},{"city":"Nuea Khlong","state":"Krabi","population":12217,"lat":8.07143,"lng":98.99933},{"city":"Pho Thong","state":"Ang Thong","population":12200,"lat":14.66731,"lng":100.40878},{"city":"Rong Kwang","state":"Phrae","population":12087,"lat":18.33903,"lng":100.31736},{"city":"Non Thai","state":"Nakhon Ratchasima","population":11959,"lat":15.1958,"lng":102.07145},{"city":"Wiang Sa","state":"Surat Thani","population":11933,"lat":8.63585,"lng":99.3666},{"city":"Ko Pha Ngan","state":"Surat Thani","population":11846,"lat":9.75778,"lng":100.02914},{"city":"Non Sang","state":"Nong Bua Lamphu","population":11819,"lat":16.8687,"lng":102.56642},{"city":"Long","state":"Phrae","population":11802,"lat":18.07422,"lng":99.83073},{"city":"Phrai Bueng","state":"Si Sa Ket","population":11494,"lat":14.74833,"lng":104.36261},{"city":"Satuek","state":"Buriram","population":11481,"lat":15.29703,"lng":103.29192},{"city":"Nong Chik","state":"Pattani","population":11385,"lat":6.84356,"lng":101.17803},{"city":"Mai Khet","state":"Prachin Buri","population":11342,"lat":14.10881,"lng":101.32717},{"city":"Khiri Mat","state":"Sukhothai","population":11272,"lat":16.83333,"lng":99.8},{"city":"Kham Sakae Saeng","state":"Nakhon Ratchasima","population":11018,"lat":15.33221,"lng":102.17278},{"city":"Chawang","state":"Nakhon Si Thammarat","population":10923,"lat":8.42614,"lng":99.50472},{"city":"Chiang Saen","state":"Chiang Rai","population":10807,"lat":20.27511,"lng":100.08689},{"city":"Kosum Phisai","state":"Maha Sarakham","population":10672,"lat":16.24858,"lng":103.06739},{"city":"Phayakkhaphum Phisai","state":"Maha Sarakham","population":10212,"lat":15.51631,"lng":103.19367},{"city":"Wapi Pathum","state":"Maha Sarakham","population":10198,"lat":15.84523,"lng":103.37678},{"city":"Ban Ko Kaeo","state":"Phuket","population":10136,"lat":7.93599,"lng":98.39664},{"city":"Mae Tha","state":"Lamphun","population":10048,"lat":18.46456,"lng":99.14026},{"city":"Sangkhla Buri","state":"Kanchanaburi","population":10000,"lat":15.15553,"lng":98.45361},{"city":"Ban Khlong Chak Phra","state":"Bangkok","population":9982,"lat":13.77128,"lng":100.44672},{"city":"Bueng Kan","state":"Bueng Kan","population":9712,"lat":18.36303,"lng":103.65194},{"city":"Phang Nga","state":"Phang Nga","population":9676,"lat":8.45091,"lng":98.52985},{"city":"Dong Khilek","state":"Prachin Buri","population":9640,"lat":14.08383,"lng":101.42711},{"city":"Ao Luek","state":"Krabi","population":9628,"lat":8.37803,"lng":98.72117},{"city":"Bang Khun Non","state":"Bangkok","population":9549,"lat":13.76029,"lng":100.47286},{"city":"Ban Noen Hom","state":"Prachin Buri","population":9304,"lat":14.18219,"lng":101.34889},{"city":"Ban Khao Nang Sang Hua","state":"Kanchanaburi","population":9256,"lat":14.54283,"lng":99.76761},{"city":"Mae Hong Son","state":"Mae Hong Son","population":9109,"lat":19.30029,"lng":97.96852},{"city":"Wang Sai Phun","state":"Phichit","population":8899,"lat":16.3885,"lng":100.53801},{"city":"Pong Nam Ron","state":"Chanthaburi","population":8878,"lat":12.90575,"lng":102.26225},{"city":"Bang Nam Priao","state":"Chachoengsao","population":8642,"lat":13.84739,"lng":101.05306},{"city":"In Buri","state":"Sing Buri","population":8586,"lat":15.00787,"lng":100.32691},{"city":"Ban Nong Pradu","state":"Kanchanaburi","population":8375,"lat":14.49058,"lng":99.70714},{"city":"Ban Ao Nang","state":"Krabi","population":8000,"lat":8.0458,"lng":98.81035},{"city":"Samphantawong","state":"Bangkok","population":7998,"lat":13.73956,"lng":100.50826},{"city":"Saladan","state":"Krabi","population":7946,"lat":7.61342,"lng":99.03651},{"city":"Ban Mae Thalop","state":"Chiang Mai","population":7930,"lat":19.72178,"lng":99.1815},{"city":"Sawang Wirawong","state":"Ubon Ratchathani","population":7773,"lat":15.24158,"lng":105.0922},{"city":"Fang","state":"Chiang Mai","population":7635,"lat":19.91689,"lng":99.2145},{"city":"Lan Krabue","state":"Kamphaeng Phet","population":7633,"lat":16.60003,"lng":99.84889},{"city":"Muban Thep Thani","state":"Bangkok","population":7613,"lat":13.69919,"lng":100.69406},{"city":"Na Mom","state":"Songkhla","population":7537,"lat":6.95856,"lng":100.55683},{"city":"Nong Wua So","state":"Udon Thani","population":7503,"lat":17.16261,"lng":102.57272},{"city":"Tha Khanon","state":"Surat Thani","population":7300,"lat":9.0302,"lng":98.95286},{"city":"Tham Phannara","state":"Nakhon Si Thammarat","population":7119,"lat":8.42045,"lng":99.39517},{"city":"Ban Karon","state":"Phuket","population":7094,"lat":7.84769,"lng":98.2985},{"city":"Chai Buri","state":"Surat Thani","population":6126,"lat":8.46222,"lng":99.07631},{"city":"Khet Rop Mueang","state":"Prachin Buri","population":6092,"lat":14.06244,"lng":101.36066},{"city":"Ko Lanta","state":"Krabi","population":6090,"lat":7.53362,"lng":99.08647},{"city":"Huai Khot","state":"Uthai Thani","population":5940,"lat":15.29095,"lng":99.61661},{"city":"Ban Non Hom","state":"Prachin Buri","population":5794,"lat":14.08486,"lng":101.44119},{"city":"Ban Dan Lan Hoi","state":"Sukhothai","population":5791,"lat":17.00683,"lng":99.57497},{"city":"Ban Phru Nai","state":"Phang Nga","population":5713,"lat":7.95458,"lng":98.58989},{"city":"Moeiwadi","state":"Roi Et","population":5609,"lat":16.38944,"lng":104.1572},{"city":"Ban Hat Lek","state":"Trat","population":5530,"lat":11.6557,"lng":102.907},{"city":"Ban Mae Waen","state":"Chiang Mai","population":5517,"lat":19.31414,"lng":99.18842},{"city":"Mae Chai","state":"Phayao","population":5094,"lat":19.34597,"lng":99.814},{"city":"Ban Mai Khao","state":"Phuket","population":5000,"lat":8.12713,"lng":98.30738},{"city":"Ban Kata","state":"Phuket","population":5000,"lat":7.82125,"lng":98.30703},{"city":"Godown","state":"Bangkok","population":5000,"lat":13.71667,"lng":100.5},{"city":"Kao Liao","state":"Nakhon Sawan","population":4988,"lat":15.85053,"lng":100.07914},{"city":"Bueng Na Rang","state":"Phichit","population":4948,"lat":16.1712,"lng":100.12531},{"city":"Nai Harn","state":"Phuket","population":4767,"lat":7.77859,"lng":98.30661},{"city":"Ban Tha Ngam","state":"Prachin Buri","population":4720,"lat":14.03383,"lng":101.41381},{"city":"Chat Trakan","state":"Phitsanulok","population":4608,"lat":17.27606,"lng":100.60022},{"city":"Pueai Noi","state":"Khon Kaen","population":4468,"lat":15.86978,"lng":102.90767},{"city":"Ban Khok Mai Lai","state":"Prachin Buri","population":3977,"lat":14.144,"lng":101.30842},{"city":"Sangkhom","state":"Nong Khai","population":3846,"lat":18.06389,"lng":102.27364},{"city":"Khlong Khuean","state":"Chachoengsao","population":3703,"lat":13.79131,"lng":101.16353},{"city":"Ban Bang Decha","state":"Prachin Buri","population":3143,"lat":14.00589,"lng":101.33442},{"city":"Ban Wat Bot","state":"Prachin Buri","population":2922,"lat":14.0355,"lng":101.33517},{"city":"Bang Rak Subdistrict","state":"Bangkok","population":2672,"lat":13.72781,"lng":100.51373},{"city":"Ko Chang Tai","state":"Trat","population":2346,"lat":12.00171,"lng":102.37267},{"city":"Pai","state":"Chiang Mai","population":2284,"lat":19.36168,"lng":98.43973},{"city":"Ban Khlong Sakae","state":"Bangkok","population":2236,"lat":13.73131,"lng":100.62217},{"city":"Ban Ko Lan","state":"Chon Buri","population":2000,"lat":12.92419,"lng":100.78794},{"city":"Ban Khao Lak","state":"Phang Nga","population":1700,"lat":8.61501,"lng":98.23994},{"city":"Ban Khlong Yai Tho","state":"Prachin Buri","population":1503,"lat":14.05,"lng":101.38333},{"city":"Koh Tao","state":"Surat Thani","population":1382,"lat":10.09808,"lng":99.83809},{"city":"Ban Bang Boribun","state":"Prachin Buri","population":1296,"lat":14.03143,"lng":101.42801},{"city":"Phi Phi Don","state":"Krabi","population":1000,"lat":7.74044,"lng":98.772},{"city":"Son","state":"Satun","population":947,"lat":6.62675,"lng":99.61656},{"city":"Pante Malakar","state":"Satun","population":856,"lat":6.68439,"lng":99.64359},{"city":"Ban Ao Makham","state":"Satun","population":765,"lat":6.56778,"lng":99.62528},{"city":"Ta Lo Wow","state":"Satun","population":765,"lat":6.70237,"lng":99.66539},{"city":"Ban Bang Bao","state":"Trat","population":700,"lat":11.9727,"lng":102.31168},{"city":"Ban Phrao","state":"Nan","population":631,"lat":19.07447,"lng":100.895},{"city":"Ban Ho Mae Salong","state":"Chiang Rai","population":540,"lat":20.16667,"lng":99.63333},{"city":"Thung Sai","state":"Kamphaeng Phet","population":0,"lat":16.31489,"lng":99.83267},{"city":"Nopphitam","state":"Nakhon Si Thammarat","population":0,"lat":8.72206,"lng":99.74878},{"city":"Lam Thap","state":"Krabi","population":0,"lat":8.07228,"lng":99.29225},{"city":"Ban Huai I Huak","state":"Mae Hong Son","population":0,"lat":18.07861,"lng":98.035},{"city":"Phrao","state":"Chiang Mai","population":0,"lat":19.36586,"lng":99.20187},{"city":"Mae Taeng","state":"Chiang Mai","population":0,"lat":19.11712,"lng":98.94176},{"city":"Mae Ai","state":"Chiang Mai","population":0,"lat":20.02883,"lng":99.29833},{"city":"Yan Ta Khao","state":"Trang","population":0,"lat":7.38622,"lng":99.66692},{"city":"Wiang Pa Pao","state":"Chiang Rai","population":0,"lat":19.34778,"lng":99.50722},{"city":"Wiang Haeng","state":"Chiang Mai","population":0,"lat":19.557,"lng":98.6425},{"city":"Wiang Chai","state":"Chiang Rai","population":0,"lat":19.88361,"lng":99.93314},{"city":"Wat Phleng","state":"Ratchaburi","population":0,"lat":13.45407,"lng":99.88637},{"city":"Wang Wiset","state":"Trang","population":0,"lat":7.73631,"lng":99.3987},{"city":"Wang Nuea","state":"Lampang","population":0,"lat":19.14678,"lng":99.61933},{"city":"U Thong","state":"Suphan Buri","population":0,"lat":14.37514,"lng":99.89225},{"city":"Umphang","state":"Tak","population":0,"lat":16.01622,"lng":98.8627},{"city":"Thung Yai","state":"Nakhon Si Thammarat","population":0,"lat":8.30119,"lng":99.36611},{"city":"Thung Tako","state":"Chumphon","population":0,"lat":10.11022,"lng":99.08306},{"city":"Thung Saliam","state":"Sukhothai","population":0,"lat":17.32106,"lng":99.56092},{"city":"Thong Pha Phum","state":"Kanchanaburi","population":0,"lat":14.74345,"lng":98.63101},{"city":"Tha Song Yang","state":"Tak","population":0,"lat":17.22708,"lng":98.22572},{"city":"Tha Sala","state":"Nakhon Si Thammarat","population":0,"lat":8.66733,"lng":99.93078},{"city":"Tha Sae","state":"Chumphon","population":0,"lat":10.66461,"lng":99.17281},{"city":"Thap Sakae","state":"Prachuap Khiri Khan","population":0,"lat":11.49964,"lng":99.6217},{"city":"Thap Put","state":"Phang Nga","population":0,"lat":8.51625,"lng":98.63972},{"city":"Tha Phae","state":"Satun","population":0,"lat":6.79014,"lng":99.97005},{"city":"Thalang","state":"Phuket","population":0,"lat":8.03169,"lng":98.33408},{"city":"Thai Mueang","state":"Phang Nga","population":0,"lat":8.39914,"lng":98.26061},{"city":"Tha Chang","state":"Surat Thani","population":0,"lat":9.26418,"lng":99.19218},{"city":"Tha Chana","state":"Surat Thani","population":0,"lat":9.57203,"lng":99.16586},{"city":"Takua Thung","state":"Phang Nga","population":0,"lat":8.38373,"lng":98.45123},{"city":"Takua Pa","state":"Phang Nga","population":0,"lat":8.8705,"lng":98.34383},{"city":"Suan Phueng","state":"Ratchaburi","population":0,"lat":13.5429,"lng":99.33961},{"city":"Sop Prap","state":"Lampang","population":0,"lat":17.88053,"lng":99.337},{"city":"Soem Ngam","state":"Lampang","population":0,"lat":18.06506,"lng":99.24537},{"city":"Si Sawat","state":"Kanchanaburi","population":0,"lat":14.59922,"lng":99.11406},{"city":"Si Samrong","state":"Sukhothai","population":0,"lat":17.164,"lng":99.86222},{"city":"Si Nakhon","state":"Sukhothai","population":0,"lat":17.34907,"lng":99.98563},{"city":"Sikao","state":"Trang","population":0,"lat":7.57158,"lng":99.34494},{"city":"Si Banphot","state":"Phatthalung","population":0,"lat":7.72136,"lng":99.8843},{"city":"Sawi","state":"Chumphon","population":0,"lat":10.23668,"lng":99.10938},{"city":"Sawang Arom","state":"Uthai Thani","population":0,"lat":15.58394,"lng":99.86089},{"city":"Saraphi","state":"Chiang Mai","population":0,"lat":18.71417,"lng":99.03528},{"city":"San Sai","state":"Chiang Mai","population":0,"lat":18.84792,"lng":99.04508},{"city":"Samoeng","state":"Chiang Mai","population":0,"lat":18.84806,"lng":98.73242},{"city":"Sam Ngao","state":"Tak","population":0,"lat":17.24331,"lng":99.02256},{"city":"Sai Yok","state":"Kanchanaburi","population":0,"lat":14.11899,"lng":99.142},{"city":"Sai Ngam","state":"Kamphaeng Phet","population":0,"lat":16.46862,"lng":99.88843},{"city":"Plai Phraya","state":"Krabi","population":0,"lat":8.53278,"lng":98.8637},{"city":"Phrom Khiri","state":"Nakhon Si Thammarat","population":0,"lat":8.52333,"lng":99.82275},{"city":"Phrasaeng","state":"Surat Thani","population":0,"lat":8.56781,"lng":99.24756},{"city":"Phran Kratai","state":"Kamphaeng Phet","population":0,"lat":16.66511,"lng":99.58894},{"city":"Phop Phra","state":"Tak","population":0,"lat":16.38461,"lng":98.69028},{"city":"Phipun","state":"Nakhon Si Thammarat","population":0,"lat":8.56036,"lng":99.60703},{"city":"Phato","state":"Chumphon","population":0,"lat":9.79089,"lng":98.77658},{"city":"Phanom","state":"Surat Thani","population":0,"lat":8.85475,"lng":98.81267},{"city":"Phan","state":"Chiang Rai","population":0,"lat":19.55395,"lng":99.74045},{"city":"Pathio","state":"Chumphon","population":0,"lat":10.70908,"lng":99.3182},{"city":"Palian","state":"Trang","population":0,"lat":7.17237,"lng":99.68624},{"city":"Pak Tho","state":"Ratchaburi","population":0,"lat":13.37263,"lng":99.83938},{"city":"Om Koi","state":"Chiang Mai","population":0,"lat":17.80122,"lng":98.35933},{"city":"Nong Ya Plong","state":"Phetchaburi","population":0,"lat":13.16288,"lng":99.69723},{"city":"Nong Kha Yang","state":"Uthai Thani","population":0,"lat":15.364,"lng":99.92939},{"city":"Nong Chang","state":"Uthai Thani","population":0,"lat":15.39147,"lng":99.84147},{"city":"Ngao","state":"Lampang","population":0,"lat":18.75678,"lng":99.97814},{"city":"Na Bon","state":"Nakhon Si Thammarat","population":0,"lat":8.26167,"lng":99.59472},{"city":"Mueang Pan","state":"Lampang","population":0,"lat":18.76803,"lng":99.5025},{"city":"Mae Tha","state":"Lampang","population":0,"lat":18.13411,"lng":99.51389},{"city":"Mae Suai","state":"Chiang Rai","population":0,"lat":19.65633,"lng":99.54367},{"city":"Mae Phrik","state":"Lampang","population":0,"lat":17.44688,"lng":99.1142},{"city":"Mae Mo","state":"Lampang","population":0,"lat":18.27561,"lng":99.65045},{"city":"Mae La Noi","state":"Mae Hong Son","population":0,"lat":18.38181,"lng":97.94372},{"city":"Mae Chaem","state":"Chiang Mai","population":0,"lat":18.49926,"lng":98.36494},{"city":"Li","state":"Lamphun","population":0,"lat":17.80269,"lng":98.95097},{"city":"La-Un","state":"Ranong province","population":0,"lat":10.11646,"lng":98.75},{"city":"Lao Khwan","state":"Kanchanaburi","population":0,"lat":14.59522,"lng":99.77431},{"city":"Lan Saka","state":"Nakhon Si Thammarat","population":0,"lat":8.37097,"lng":99.80564},{"city":"La-ngu","state":"Satun","population":0,"lat":6.88492,"lng":99.78836},{"city":"Lamae","state":"Chumphon","population":0,"lat":9.76789,"lng":99.09256},{"city":"Kra Buri","state":"Ranong province","population":0,"lat":10.40429,"lng":98.77266},{"city":"Ko Yao","state":"Phang Nga","population":0,"lat":8.11013,"lng":98.59231},{"city":"Kong Ra","state":"Phatthalung","population":0,"lat":7.40272,"lng":99.94972},{"city":"Kong Krailat","state":"Sukhothai","population":0,"lat":16.95197,"lng":99.97769},{"city":"Ko Kha","state":"Lampang","population":0,"lat":18.19225,"lng":99.39433},{"city":"Khura Buri","state":"Phang Nga","population":0,"lat":9.19397,"lng":98.41514},{"city":"Khun Yuam","state":"Mae Hong Son","population":0,"lat":18.82958,"lng":97.93347},{"city":"Khlong Thom","state":"Krabi","population":0,"lat":7.9375,"lng":99.14457},{"city":"Khlong Lan","state":"Kamphaeng Phet","population":0,"lat":16.20331,"lng":99.31997},{"city":"Khlong Khlung","state":"Kamphaeng Phet","population":0,"lat":16.21633,"lng":99.71906},{"city":"Khian Sa","state":"Surat Thani","population":0,"lat":8.84295,"lng":99.19856},{"city":"Khao Phanom","state":"Krabi","population":0,"lat":8.26549,"lng":99.05124},{"city":"Kapong","state":"Phang Nga","population":0,"lat":8.69697,"lng":98.40914},{"city":"Kapoe","state":"Ranong province","population":0,"lat":9.58522,"lng":98.59611},{"city":"Kanchanadit","state":"Surat Thani","population":0,"lat":9.16611,"lng":99.47014},{"city":"Hot","state":"Chiang Mai","population":0,"lat":18.19317,"lng":98.61039},{"city":"Hang Chat","state":"Lampang","population":0,"lat":18.32883,"lng":99.34621},{"city":"Doi Tao","state":"Chiang Mai","population":0,"lat":17.95286,"lng":98.68458},{"city":"Dan Chang","state":"Suphan Buri","population":0,"lat":14.84183,"lng":99.69756},{"city":"Chiang Dao","state":"Chiang Mai","population":0,"lat":19.36542,"lng":98.96453},{"city":"Chae Hom","state":"Lampang","population":0,"lat":18.71267,"lng":99.55758},{"city":"Wiang Nuea","state":"Mae Hong Son","population":0,"lat":19.37972,"lng":98.44644},{"city":"Wang Chin","state":"Phrae","population":0,"lat":17.8802,"lng":99.6105},{"city":"Wang Chao","state":"Tak","population":0,"lat":16.67441,"lng":99.26903},{"city":"Thung Wa","state":"Satun","population":0,"lat":7.10957,"lng":99.75586},{"city":"Thung Hua Chang","state":"Lamphun","population":0,"lat":18.00301,"lng":99.0278},{"city":"Tha Maka","state":"Kanchanaburi","population":0,"lat":13.92081,"lng":99.76553},{"city":"Ban Rai","state":"Uthai Thani","population":0,"lat":15.08417,"lng":99.52108},{"city":"Banphot Phisai","state":"Nakhon Sawan","population":0,"lat":15.93558,"lng":99.98129},{"city":"Nong Prue","state":"Kanchanaburi","population":0,"lat":14.60784,"lng":99.45783},{"city":"Nong Mamong","state":"Chai Nat","population":0,"lat":15.27613,"lng":99.8664},{"city":"Noen Kham","state":"Chai Nat","population":0,"lat":14.9501,"lng":99.93899},{"city":"Ban Na Doem","state":"Surat Thani","population":0,"lat":8.88361,"lng":99.31014},{"city":"Ban Lat","state":"Phetchaburi","population":0,"lat":13.0515,"lng":99.91701},{"city":"Ban Laem","state":"Phetchaburi","population":0,"lat":13.20468,"lng":99.97959},{"city":"Ban Kha","state":"Ratchaburi","population":0,"lat":13.43047,"lng":99.40967},{"city":"Kaeng Krachan","state":"Phetchaburi","population":0,"lat":12.90742,"lng":99.64795},{"city":"Huai Krachao","state":"Kanchanaburi","population":0,"lat":14.3275,"lng":99.66767},{"city":"Ban Hong","state":"Lamphun","population":0,"lat":18.33086,"lng":98.81925},{"city":"Bang Saphan Noi","state":"Prachuap Khiri Khan","population":0,"lat":11.07535,"lng":99.44152},{"city":"Bang Khon Thi","state":"Samut Songkhram","population":0,"lat":13.46906,"lng":99.94021},{"city":"Bang Khan","state":"Nakhon Si Thammarat","population":0,"lat":8.02689,"lng":99.47372},{"city":"Don Tum","state":"Nakhon Pathom","population":0,"lat":13.9609,"lng":100.07888},{"city":"Doi Lo","state":"Chiang Mai","population":0,"lat":18.46098,"lng":98.77767},{"city":"Dan Makham Tia","state":"Kanchanaburi","population":0,"lat":13.85339,"lng":99.41042},{"city":"Amphawa","state":"Samut Songkhram","population":0,"lat":13.42436,"lng":99.95688},{"city":"Sa Bot","state":"Lopburi","population":0,"lat":15.21006,"lng":100.83076},{"city":"Phatthana Nikhom","state":"Lopburi","population":0,"lat":14.85647,"lng":100.98459},{"city":"Na Dun","state":"Maha Sarakham","population":0,"lat":15.71668,"lng":103.22781},{"city":"Ko Pha Ngan","state":"Surat Thani","population":0,"lat":9.71945,"lng":99.99511},{"city":"Yang Si Surat","state":"Maha Sarakham","population":0,"lat":15.68361,"lng":103.10311},{"city":"Mueang Yang","state":"Nakhon Ratchasima","population":0,"lat":15.4206,"lng":102.89282},{"city":"Siao","state":"Si Sa Ket","population":0,"lat":14.79583,"lng":104.67017},{"city":"Samran","state":"Kalasin","population":0,"lat":16.86322,"lng":103.54106},{"city":"Thepharak","state":"Nakhon Ratchasima","population":0,"lat":15.30868,"lng":101.55045},{"city":"Sak Lek","state":"Phichit","population":0,"lat":16.50528,"lng":100.47103},{"city":"Phayu","state":"Si Sa Ket","population":0,"lat":14.90851,"lng":104.39101},{"city":"Pha Khao","state":"Loei","population":0,"lat":17.06507,"lng":102.02965},{"city":"Non Suwan","state":"Buriram","population":0,"lat":14.58044,"lng":102.59689},{"city":"Nong Na Kham","state":"Khon Kaen","population":0,"lat":16.8043,"lng":102.33647},{"city":"Nong Muang","state":"Lopburi","population":0,"lat":15.24592,"lng":100.65556},{"city":"Nong Hin","state":"Loei","population":0,"lat":17.12356,"lng":101.85789},{"city":"Nong Hi","state":"Roi Et","population":0,"lat":15.61117,"lng":103.99484},{"city":"Na Yung","state":"Udon Thani","population":0,"lat":17.89747,"lng":102.14981},{"city":"Na Tan","state":"Ubon Ratchathani","population":0,"lat":15.89749,"lng":105.29318},{"city":"Mueang Chan","state":"Si Sa Ket","population":0,"lat":15.15951,"lng":104.03615},{"city":"Lam Sonthi","state":"Lopburi","population":0,"lat":15.30154,"lng":101.36365},{"city":"Huai Rat","state":"Buriram","population":0,"lat":14.96039,"lng":103.18911},{"city":"Ban Haet","state":"Khon Kaen","population":0,"lat":16.19648,"lng":102.75959},{"city":"Fao Rai","state":"Nong Khai","population":0,"lat":18.01791,"lng":103.30388},{"city":"Ban Dan","state":"Buriram","population":0,"lat":15.10839,"lng":103.17551},{"city":"Charoen Sin","state":"Sakon Nakhon","population":0,"lat":17.57925,"lng":103.54033},{"city":"Waeng","state":"Narathiwat","population":0,"lat":5.928,"lng":101.88382},{"city":"Thepha","state":"Songkhla","population":0,"lat":6.82936,"lng":100.96431},{"city":"Tak Fa","state":"Nakhon Sawan","population":0,"lat":15.34917,"lng":100.49522},{"city":"Prakhon Chai","state":"Buriram","population":0,"lat":14.61073,"lng":103.07923},{"city":"Bacho","state":"Narathiwat","population":0,"lat":6.51678,"lng":101.651},{"city":"Yi-ngo","state":"Narathiwat","population":0,"lat":6.40297,"lng":101.70625},{"city":"Yang Chum Noi","state":"Si Sa Ket","population":0,"lat":15.26453,"lng":104.39769},{"city":"Yarang","state":"Pattani","population":0,"lat":6.75986,"lng":101.29339},{"city":"Yaha","state":"Yala","population":0,"lat":6.4797,"lng":101.132},{"city":"Wihan Daeng","state":"Saraburi","population":0,"lat":14.34586,"lng":100.98942},{"city":"Wiang Sa","state":"Nan","population":0,"lat":18.59856,"lng":100.74103},{"city":"Watthana Nakhon","state":"Sa Kaeo","population":0,"lat":13.74462,"lng":102.31863},{"city":"Wat Sing","state":"Chai Nat","population":0,"lat":15.25987,"lng":100.0404},{"city":"Wat Bot","state":"Phitsanulok","population":0,"lat":16.98114,"lng":100.33195},{"city":"Warichaphum","state":"Sakon Nakhon","population":0,"lat":17.29409,"lng":103.63816},{"city":"Wan Yai","state":"Mukdahan","population":0,"lat":16.72229,"lng":104.74135},{"city":"Wanon Niwat","state":"Sakon Nakhon","population":0,"lat":17.63391,"lng":103.75241},{"city":"Wang Thong","state":"Phitsanulok","population":0,"lat":16.82458,"lng":100.42936},{"city":"Wang Sam Mo","state":"Udon Thani","population":0,"lat":16.95294,"lng":103.4365},{"city":"Wang Hin","state":"Si Sa Ket","population":0,"lat":14.94783,"lng":104.23097},{"city":"Wang Chan","state":"Rayong","population":0,"lat":12.93646,"lng":101.52303},{"city":"Waeng Yai","state":"Khon Kaen","population":0,"lat":15.95547,"lng":102.5469},{"city":"Waeng Noi","state":"Khon Kaen","population":0,"lat":15.8035,"lng":102.41614},{"city":"Uthumphon Phisai","state":"Si Sa Ket","population":0,"lat":15.11161,"lng":104.14011},{"city":"Uthai","state":"Phra Nakhon Si Ayutthaya","population":0,"lat":14.36278,"lng":100.67203},{"city":"Khuean Ubonrat","state":"Khon Kaen","population":0,"lat":16.75269,"lng":102.63245},{"city":"Tron","state":"Uttaradit","population":0,"lat":17.48181,"lng":100.11281},{"city":"Trakan Phut Phon","state":"Ubon Ratchathani","population":0,"lat":15.61183,"lng":105.02147},{"city":"Thung Fon","state":"Udon Thani","population":0,"lat":17.47167,"lng":103.26033},{"city":"Thoeng","state":"Chiang Rai","population":0,"lat":19.68508,"lng":100.19456},{"city":"Thep Sathit","state":"Chaiyaphum","population":0,"lat":15.39247,"lng":101.45061},{"city":"Tha Wung","state":"Lopburi","population":0,"lat":14.811,"lng":100.50333},{"city":"Thawat Buri","state":"Roi Et","population":0,"lat":16.0385,"lng":103.74647},{"city":"Tha Wang Pha","state":"Nan","population":0,"lat":19.12189,"lng":100.81106},{"city":"Tha Uthen","state":"Nakhon Phanom","population":0,"lat":17.57605,"lng":104.59906},{"city":"Tha Tum","state":"Surin","population":0,"lat":15.3195,"lng":103.67542},{"city":"Tha Tako","state":"Nakhon Sawan","population":0,"lat":15.64218,"lng":100.47839},{"city":"Tha Pla","state":"Uttaradit","population":0,"lat":17.79112,"lng":100.37611},{"city":"Thanyaburi","state":"Pathum Thani","population":0,"lat":14.02114,"lng":100.73433},{"city":"Than To","state":"Yala","population":0,"lat":6.16739,"lng":101.18008},{"city":"Tha Luang","state":"Lopburi","population":0,"lat":15.07124,"lng":101.09801},{"city":"Tha Li","state":"Loei","population":0,"lat":17.62355,"lng":101.42099},{"city":"Tha Khantho","state":"Kalasin","population":0,"lat":16.93953,"lng":103.24586},{"city":"Tha Chang","state":"Sing Buri","population":0,"lat":14.76142,"lng":100.38989},{"city":"Ta Phraya","state":"Sa Kaeo","population":0,"lat":14.00308,"lng":102.80541},{"city":"Tao Ngoi","state":"Sakon Nakhon","population":0,"lat":16.99689,"lng":104.16672},{"city":"Tan Sum","state":"Ubon Ratchathani","population":0,"lat":15.31569,"lng":105.15464},{"city":"Tamot","state":"Phatthalung","population":0,"lat":7.33922,"lng":100.11167},{"city":"Takhli","state":"Nakhon Sawan","population":0,"lat":15.26336,"lng":100.34378},{"city":"Suwannakhuha","state":"Nong Bua Lamphu","population":0,"lat":17.56292,"lng":102.27989},{"city":"Sung Men","state":"Phrae","population":0,"lat":18.0494,"lng":100.11457},{"city":"Sukhirin","state":"Narathiwat","population":0,"lat":5.93889,"lng":101.77077},{"city":"So Phisai","state":"Bueng Kan","population":0,"lat":18.0772,"lng":103.4432},{"city":"Song Phi Nong","state":"Suphan Buri","population":0,"lat":14.22408,"lng":100.02094},{"city":"Song","state":"Phrae","population":0,"lat":18.47204,"lng":100.18346},{"city":"Somdet","state":"Kalasin","population":0,"lat":16.70462,"lng":103.74935},{"city":"Si Thep","state":"Phetchabun","population":0,"lat":15.45214,"lng":101.06667},{"city":"Si That","state":"Udon Thani","population":0,"lat":16.97361,"lng":103.21644},{"city":"Si Songkhram","state":"Nakhon Phanom","population":0,"lat":17.62745,"lng":104.25069},{"city":"Si Sakhon","state":"Narathiwat","population":0,"lat":6.23137,"lng":101.50048},{"city":"Si Rattana","state":"Si Sa Ket","population":0,"lat":14.79328,"lng":104.46922},{"city":"Si Prachan","state":"Suphan Buri","population":0,"lat":14.61992,"lng":100.14483},{"city":"Si Mueang Mai","state":"Ubon Ratchathani","population":0,"lat":15.49315,"lng":105.27624},{"city":"Si Maha Phot","state":"Prachin Buri","population":0,"lat":13.96597,"lng":101.51303},{"city":"Si Khoraphum","state":"Surin","population":0,"lat":14.94418,"lng":103.79704},{"city":"Sikhio","state":"Nakhon Ratchasima","population":0,"lat":14.89225,"lng":101.72314},{"city":"Si Chomphu","state":"Khon Kaen","population":0,"lat":16.79878,"lng":102.18466},{"city":"Senangkhanikhom","state":"Amnat Charoen","population":0,"lat":16.03972,"lng":104.66939},{"city":"Sena","state":"Phra Nakhon Si Ayutthaya","population":0,"lat":14.327,"lng":100.40433},{"city":"Selaphum","state":"Roi Et","population":0,"lat":16.02992,"lng":103.93826},{"city":"Sawaeng Ha","state":"Ang Thong","population":0,"lat":14.74642,"lng":100.32942},{"city":"Sathing Phra","state":"Songkhla","population":0,"lat":7.47303,"lng":100.43908},{"city":"Sao Hai","state":"Saraburi","population":0,"lat":14.55083,"lng":100.84436},{"city":"Sapphaya","state":"Chai Nat","population":0,"lat":15.14616,"lng":100.24215},{"city":"Sanom","state":"Surin","population":0,"lat":15.2036,"lng":103.76054},{"city":"Sankhaburi","state":"Chai Nat","population":0,"lat":15.04733,"lng":100.16178},{"city":"Sang Khom","state":"Udon Thani","population":0,"lat":17.82649,"lng":103.09262},{"city":"Sangkha","state":"Surin","population":0,"lat":14.6362,"lng":103.85278},{"city":"Sanam Chai Khet","state":"Chachoengsao","population":0,"lat":13.65864,"lng":101.43906},{"city":"Samrong Thap","state":"Surin","population":0,"lat":15.02258,"lng":103.93631},{"city":"Sam Ngam","state":"Phichit","population":0,"lat":16.50653,"lng":100.20497},{"city":"Sam Ko","state":"Ang Thong","population":0,"lat":14.60735,"lng":100.2186},{"city":"Sam Khok","state":"Pathum Thani","population":0,"lat":14.0655,"lng":100.52264},{"city":"Sam Chuk","state":"Suphan Buri","population":0,"lat":14.75763,"lng":100.08992},{"city":"Sai Noi","state":"Nonthaburi","population":0,"lat":13.97915,"lng":100.31209},{"city":"Sai Mun","state":"Yasothon","population":0,"lat":15.94495,"lng":104.20812},{"city":"Sahatsakhan","state":"Kalasin","population":0,"lat":16.71236,"lng":103.5202},{"city":"Saba Yoi","state":"Songkhla","population":0,"lat":6.6175,"lng":100.95189},{"city":"Rueso","state":"Narathiwat","population":0,"lat":6.39364,"lng":101.51847},{"city":"Rong Kham","state":"Kalasin","population":0,"lat":16.26943,"lng":103.74689},{"city":"Renu Nakhon","state":"Nakhon Phanom","population":0,"lat":17.05157,"lng":104.67709},{"city":"Rattaphum","state":"Songkhla","population":0,"lat":7.13478,"lng":100.25647},{"city":"Rattanaburi","state":"Surin","population":0,"lat":15.31788,"lng":103.84859},{"city":"Rasi Salai","state":"Si Sa Ket","population":0,"lat":15.34466,"lng":104.15476},{"city":"Raman","state":"Yala","population":0,"lat":6.47862,"lng":101.42414},{"city":"Pua","state":"Nan","population":0,"lat":19.17503,"lng":100.91622},{"city":"Prathai","state":"Nakhon Ratchasima","population":0,"lat":15.53319,"lng":102.72283},{"city":"Prasat","state":"Surin","population":0,"lat":14.64039,"lng":103.40447},{"city":"Prang Ku","state":"Si Sa Ket","population":0,"lat":14.85672,"lng":104.03981},{"city":"Pakham","state":"Buriram","population":0,"lat":14.43817,"lng":102.72558},{"city":"Prachantakham","state":"Prachin Buri","population":0,"lat":14.06442,"lng":101.51503},{"city":"Pluak Daeng","state":"Rayong","population":0,"lat":12.97122,"lng":101.21463},{"city":"Pla Pak","state":"Nakhon Phanom","population":0,"lat":17.18064,"lng":104.52606},{"city":"Plaeng Yao","state":"Chachoengsao","population":0,"lat":13.58467,"lng":101.28403},{"city":"Phu Wiang","state":"Khon Kaen","population":0,"lat":16.65259,"lng":102.37555},{"city":"Phutthaisong","state":"Buriram","population":0,"lat":15.54783,"lng":103.02467},{"city":"Phu Ruea","state":"Loei","population":0,"lat":17.4538,"lng":101.36231},{"city":"Phu Pha Man","state":"Khon Kaen","population":0,"lat":16.64888,"lng":101.90097},{"city":"Phu Luang","state":"Loei","population":0,"lat":17.1392,"lng":101.66392},{"city":"Phrom Phiram","state":"Phitsanulok","population":0,"lat":17.03352,"lng":100.2019},{"city":"Phrom Buri","state":"Sing Buri","population":0,"lat":14.79086,"lng":100.45325},{"city":"Phra Yuen","state":"Khon Kaen","population":0,"lat":16.3293,"lng":102.65182},{"city":"Pho Thale","state":"Phichit","population":0,"lat":16.09269,"lng":100.26089},{"city":"Pho Sai","state":"Ubon Ratchathani","population":0,"lat":15.82586,"lng":105.26064},{"city":"Phon Sai","state":"Roi Et","population":0,"lat":15.48797,"lng":103.99642},{"city":"Phon Phisai","state":"Nong Khai","population":0,"lat":18.02106,"lng":103.07664},{"city":"Phichai","state":"Uttaradit","population":0,"lat":17.28764,"lng":100.0867},{"city":"Phen","state":"Udon Thani","population":0,"lat":17.69614,"lng":102.90689},{"city":"Phanom Phrai","state":"Roi Et","population":0,"lat":15.67783,"lng":104.11025},{"city":"Phanna Nikhom","state":"Sakon Nakhon","population":0,"lat":17.35245,"lng":103.85032},{"city":"Phang Khon","state":"Sakon Nakhon","population":0,"lat":17.39051,"lng":103.71692},{"city":"Phana","state":"Amnat Charoen","population":0,"lat":15.68231,"lng":104.84603},{"city":"Phachi","state":"Phra Nakhon Si Ayutthaya","population":0,"lat":14.44914,"lng":100.72833},{"city":"Pa Bon","state":"Phatthalung","population":0,"lat":7.26942,"lng":100.17036},{"city":"Phaya Mengrai","state":"Chiang Rai","population":0,"lat":19.84922,"lng":100.15358},{"city":"Pa Tio","state":"Yasothon","population":0,"lat":15.83281,"lng":104.38673},{"city":"Pathum Rat","state":"Roi Et","population":0,"lat":15.6345,"lng":103.34325},{"city":"Panare","state":"Pattani","population":0,"lat":6.86192,"lng":101.49103},{"city":"Pa Mok","state":"Ang Thong","population":0,"lat":14.48989,"lng":100.44847},{"city":"Pak Thong Chai","state":"Nakhon Ratchasima","population":0,"lat":14.7226,"lng":102.02512},{"city":"Pak Phli","state":"Nakhon Nayok","population":0,"lat":14.16308,"lng":101.26886},{"city":"Pak Phayun","state":"Phatthalung","population":0,"lat":7.34219,"lng":100.31747},{"city":"Pak Khat","state":"Bueng Kan","population":0,"lat":18.30556,"lng":103.30441},{"city":"Ongkharak","state":"Nakhon Nayok","population":0,"lat":14.12117,"lng":101.00364},{"city":"Non Sa-at","state":"Udon Thani","population":0,"lat":16.97914,"lng":102.89369},{"city":"Non Kho","state":"Si Sa Ket","population":0,"lat":14.91666,"lng":104.72522},{"city":"Nong Yai","state":"Chon Buri","population":0,"lat":13.15515,"lng":101.37226},{"city":"Nong Sung","state":"Mukdahan","population":0,"lat":16.48299,"lng":104.34712},{"city":"Nong Suea","state":"Pathum Thani","population":0,"lat":14.13478,"lng":100.82503},{"city":"Nong Saeng","state":"Udon Thani","population":0,"lat":17.16739,"lng":102.78081},{"city":"Nong Saeng","state":"Saraburi","population":0,"lat":14.49208,"lng":100.78431},{"city":"Nong Ruea","state":"Khon Kaen","population":0,"lat":16.49333,"lng":102.43339},{"city":"Nong Phok","state":"Roi Et","population":0,"lat":16.31006,"lng":104.20247},{"city":"Nong Hong","state":"Buriram","population":0,"lat":14.84782,"lng":102.68401},{"city":"Nong Han","state":"Udon Thani","population":0,"lat":17.36083,"lng":103.10533},{"city":"Nong Bun Nak","state":"Nakhon Ratchasima","population":0,"lat":14.73947,"lng":102.36564},{"city":"Nong Bua Rawe","state":"Chaiyaphum","population":0,"lat":15.75314,"lng":101.76396},{"city":"Nong Bua Daeng","state":"Chaiyaphum","population":0,"lat":16.07978,"lng":101.80225},{"city":"Noen Maprang","state":"Phitsanulok","population":0,"lat":16.56667,"lng":100.63333},{"city":"Nikhom Nam Un","state":"Sakon Nakhon","population":0,"lat":17.18314,"lng":103.71842},{"city":"Nikhom Kham Soi","state":"Mukdahan","population":0,"lat":16.37167,"lng":104.55147},{"city":"Na Thawi","state":"Songkhla","population":0,"lat":6.74192,"lng":100.69139},{"city":"Na Pho","state":"Buriram","population":0,"lat":15.64113,"lng":102.95462},{"city":"Na Noi","state":"Nan","population":0,"lat":18.32639,"lng":100.71417},{"city":"Na Muen","state":"Nan","population":0,"lat":18.18931,"lng":100.66047},{"city":"Nam Phong","state":"Khon Kaen","population":0,"lat":16.70228,"lng":102.85569},{"city":"Nam Pat","state":"Uttaradit","population":0,"lat":17.72806,"lng":100.68433},{"city":"Na Mon","state":"Kalasin","population":0,"lat":16.57653,"lng":103.78711},{"city":"Nam Nao","state":"Phetchabun","population":0,"lat":16.76753,"lng":101.66917},{"city":"Nam Kliang","state":"Si Sa Ket","population":0,"lat":14.92731,"lng":104.51303},{"city":"Nakhon Chai Si","state":"Nakhon Pathom","population":0,"lat":13.80126,"lng":100.18451},{"city":"Na Kae","state":"Nakhon Phanom","population":0,"lat":16.94645,"lng":104.50081},{"city":"Na Chueak","state":"Maha Sarakham","population":0,"lat":15.79339,"lng":103.03184},{"city":"Na Chaluai","state":"Ubon Ratchathani","population":0,"lat":14.52046,"lng":105.24478},{"city":"Mueang Suang","state":"Roi Et","population":0,"lat":15.82192,"lng":103.72884},{"city":"Muang Sam Sip","state":"Ubon Ratchathani","population":0,"lat":15.51307,"lng":104.72565},{"city":"Min Buri","state":"Bangkok","population":0,"lat":13.81407,"lng":100.73135},{"city":"Mayo","state":"Pattani","population":0,"lat":6.71864,"lng":101.40983},{"city":"Manorom","state":"Chai Nat","population":0,"lat":15.30997,"lng":100.08283},{"city":"Mancha Khiri","state":"Khon Kaen","population":0,"lat":16.13048,"lng":102.53712},{"city":"Makham","state":"Chanthaburi","population":0,"lat":12.67292,"lng":102.19575},{"city":"Mai Kaen","state":"Pattani","population":0,"lat":6.60975,"lng":101.66686},{"city":"Maha Rat","state":"Phra Nakhon Si Ayutthaya","population":0,"lat":14.53367,"lng":100.52672},{"city":"Maha Chana Chai","state":"Yasothon","population":0,"lat":15.52935,"lng":104.23847},{"city":"Mae Charim","state":"Nan","population":0,"lat":18.70614,"lng":101.0057},{"city":"Lom Kao","state":"Phetchabun","population":0,"lat":16.88614,"lng":101.22894},{"city":"Loeng Nok Tha","state":"Yasothon","population":0,"lat":16.2075,"lng":104.55528},{"city":"Lat Lum Kaeo","state":"Pathum Thani","population":0,"lat":14.03728,"lng":100.40486},{"city":"Lat Bua Luang","state":"Phra Nakhon Si Ayutthaya","population":0,"lat":14.16572,"lng":100.30789},{"city":"Lap Lae","state":"Uttaradit","population":0,"lat":17.65211,"lng":100.03892},{"city":"Lam Plai Mat","state":"Buriram","population":0,"lat":15.0252,"lng":102.83894},{"city":"Lam Luk Ka","state":"Pathum Thani","population":0,"lat":13.93226,"lng":100.74937},{"city":"Lamduan","state":"Surin","population":0,"lat":14.72205,"lng":103.66934},{"city":"Lahan Sai","state":"Buriram","population":0,"lat":14.41142,"lng":102.85936},{"city":"Laem Ngop","state":"Trat","population":0,"lat":12.17169,"lng":102.39489},{"city":"Kut Khaopun","state":"Ubon Ratchathani","population":0,"lat":15.79267,"lng":104.99814},{"city":"Kut Chum","state":"Yasothon","population":0,"lat":16.03289,"lng":104.33936},{"city":"Kut Bak","state":"Sakon Nakhon","population":0,"lat":17.08882,"lng":103.81875},{"city":"Kusuman","state":"Sakon Nakhon","population":0,"lat":17.33259,"lng":104.33147},{"city":"Kumphawapi","state":"Udon Thani","population":0,"lat":17.10875,"lng":103.01487},{"city":"Krok Phra","state":"Nakhon Sawan","population":0,"lat":15.55589,"lng":100.07153},{"city":"Krasang","state":"Buriram","population":0,"lat":14.92375,"lng":103.30369},{"city":"Krasae Sin","state":"Songkhla","population":0,"lat":7.61548,"lng":100.32842},{"city":"Ko Si Chang","state":"Chon Buri","population":0,"lat":13.16389,"lng":100.80547},{"city":"Khun Han","state":"Si Sa Ket","population":0,"lat":14.61739,"lng":104.42506},{"city":"Khu Mueang","state":"Buriram","population":0,"lat":15.2716,"lng":103.00167},{"city":"Khu Khan","state":"Si Sa Ket","population":0,"lat":14.71358,"lng":104.19836},{"city":"Khuan Niang","state":"Songkhla","population":0,"lat":7.19138,"lng":100.35355},{"city":"Khuan Khanun","state":"Phatthalung","population":0,"lat":7.7347,"lng":100.00931},{"city":"Khuan Kalong","state":"Satun","population":0,"lat":6.84538,"lng":100.07148},{"city":"Khueang Nai","state":"Ubon Ratchathani","population":0,"lat":15.38989,"lng":104.55083},{"city":"Khuan Don","state":"Satun","population":0,"lat":6.78758,"lng":100.07778},{"city":"Kho Wang","state":"Yasothon","population":0,"lat":15.36998,"lng":104.35231},{"city":"Khon Sawan","state":"Chaiyaphum","population":0,"lat":15.93192,"lng":102.28103},{"city":"Khon San","state":"Chaiyaphum","population":0,"lat":16.61286,"lng":101.91944},{"city":"Khong Chiam","state":"Ubon Ratchathani","population":0,"lat":15.31856,"lng":105.49506},{"city":"Khong","state":"Nakhon Ratchasima","population":0,"lat":15.44393,"lng":102.32862},{"city":"Khok Si Suphan","state":"Sakon Nakhon","population":0,"lat":17.04507,"lng":104.2756},{"city":"Khok Samrong","state":"Lopburi","population":0,"lat":15.06649,"lng":100.72233},{"city":"Khok Pho","state":"Pattani","population":0,"lat":6.73064,"lng":101.09619},{"city":"Khok Charoen","state":"Lopburi","population":0,"lat":15.37927,"lng":100.8187},{"city":"Khlong Yai","state":"Trat","population":0,"lat":11.77645,"lng":102.88567},{"city":"Khlong Hat","state":"Sa Kaeo","population":0,"lat":13.45177,"lng":102.29823},{"city":"Khemarat","state":"Ubon Ratchathani","population":0,"lat":16.04252,"lng":105.21836},{"city":"Khao Saming","state":"Trat","population":0,"lat":12.35353,"lng":102.4355},{"city":"Khao Chaison","state":"Phatthalung","population":0,"lat":7.46125,"lng":100.13372},{"city":"Kham Thale So","state":"Nakhon Ratchasima","population":0,"lat":14.96083,"lng":101.94789},{"city":"Kham Ta Kla","state":"Sakon Nakhon","population":0,"lat":17.85231,"lng":103.75657},{"city":"Kham Muang","state":"Kalasin","population":0,"lat":16.92902,"lng":103.63518},{"city":"Kham Khuean Kaeo","state":"Yasothon","population":0,"lat":15.65233,"lng":104.30861},{"city":"Khamcha-i","state":"Mukdahan","population":0,"lat":16.57764,"lng":104.41956},{"city":"Kantharawichai","state":"Maha Sarakham","population":0,"lat":16.32719,"lng":103.29864},{"city":"Kanthararom","state":"Si Sa Ket","population":0,"lat":15.10323,"lng":104.57343},{"city":"Krong Pi Nang","state":"Yala","population":0,"lat":6.4112,"lng":101.27394},{"city":"Su-ngai Padi","state":"Narathiwat","population":0,"lat":6.0857,"lng":101.87959},{"city":"Ka Bang","state":"Yala","population":0,"lat":6.41536,"lng":101.05456},{"city":"Cho-airong","state":"Narathiwat","population":0,"lat":6.22553,"lng":101.81128},{"city":"Kamphaeng Saen","state":"Nakhon Pathom","population":0,"lat":13.99966,"lng":99.98981},{"city":"Kae Dam","state":"Maha Sarakham","population":0,"lat":16.02397,"lng":103.38444},{"city":"Hua Taphan","state":"Amnat Charoen","population":0,"lat":15.6971,"lng":104.4916},{"city":"Hua Sai","state":"Nakhon Si Thammarat","population":0,"lat":8.04408,"lng":100.30586},{"city":"Huai Thap Than","state":"Si Sa Ket","population":0,"lat":15.05333,"lng":104.02754},{"city":"Huai Thalaeng","state":"Nakhon Ratchasima","population":0,"lat":14.99701,"lng":102.64746},{"city":"Huai Phueng","state":"Kalasin","population":0,"lat":16.65038,"lng":103.91005},{"city":"Hankha","state":"Chai Nat","population":0,"lat":14.98122,"lng":100.0147},{"city":"Fak Tha","state":"Uttaradit","population":0,"lat":17.99948,"lng":100.88014},{"city":"Don Tan","state":"Mukdahan","population":0,"lat":16.31697,"lng":104.92},{"city":"Dong Luang","state":"Mukdahan","population":0,"lat":16.81589,"lng":104.538},{"city":"Don Chedi","state":"Suphan Buri","population":0,"lat":14.63497,"lng":100.02097},{"city":"Dan Sai","state":"Loei","population":0,"lat":17.28011,"lng":101.14686},{"city":"Chum Phuang","state":"Nakhon Ratchasima","population":0,"lat":15.34861,"lng":102.74161},{"city":"Chumphon Buri","state":"Surin","population":0,"lat":15.34862,"lng":103.39217},{"city":"Chonnabot","state":"Khon Kaen","population":0,"lat":16.08861,"lng":102.62178},{"city":"Chom Phra","state":"Surin","population":0,"lat":15.11814,"lng":103.60743},{"city":"Chian Yai","state":"Nakhon Si Thammarat","population":0,"lat":8.16936,"lng":100.14469},{"city":"Chiang Yuen","state":"Maha Sarakham","population":0,"lat":16.41042,"lng":103.09767},{"city":"Chiang Khan","state":"Loei","population":0,"lat":17.89382,"lng":101.65997},{"city":"Cha-uat","state":"Nakhon Si Thammarat","population":0,"lat":7.96773,"lng":99.99985},{"city":"Chaturaphak Phiman","state":"Roi Et","population":0,"lat":15.84572,"lng":103.55719},{"city":"Chatturat","state":"Chaiyaphum","population":0,"lat":15.56542,"lng":101.84547},{"city":"Chanuman","state":"Amnat Charoen","population":0,"lat":16.23356,"lng":105.0005},{"city":"Chanae","state":"Narathiwat","population":0,"lat":6.09914,"lng":101.69353},{"city":"Chana","state":"Songkhla","population":0,"lat":6.91542,"lng":100.74039},{"city":"Chaloem Phra Kiat","state":"Nakhon Ratchasima","population":0,"lat":15.00508,"lng":102.27033},{"city":"Chaiyo","state":"Ang Thong","population":0,"lat":14.64878,"lng":100.47878},{"city":"Chaiwan","state":"Udon Thani","population":0,"lat":17.29447,"lng":103.23385},{"city":"Buntharik","state":"Ubon Ratchathani","population":0,"lat":14.75639,"lng":105.41147},{"city":"Bueng Sam Phan","state":"Phetchabun","population":0,"lat":15.83024,"lng":100.91938},{"city":"Bueng Khong Long","state":"Bueng Kan","population":0,"lat":17.96129,"lng":104.04667},{"city":"Bua Chet","state":"Surin","population":0,"lat":14.52814,"lng":103.94567},{"city":"Bo Thong","state":"Chon Buri","population":0,"lat":13.27825,"lng":101.44028},{"city":"Borabue","state":"Maha Sarakham","population":0,"lat":16.04179,"lng":103.11506},{"city":"Bo Kluea","state":"Nan","population":0,"lat":19.15029,"lng":101.1556},{"city":"Wang Pong","state":"Phetchabun","population":0,"lat":16.34147,"lng":100.79317},{"city":"Wang Muang","state":"Saraburi","population":0,"lat":14.84228,"lng":101.1255},{"city":"Ban Thaen","state":"Chaiyaphum","population":0,"lat":16.40506,"lng":102.34239},{"city":"Song Khwae","state":"Nan","population":0,"lat":19.35964,"lng":100.70042},{"city":"Ban Sang","state":"Prachin Buri","population":0,"lat":13.99503,"lng":101.22095},{"city":"Ratchasan","state":"Chachoengsao","population":0,"lat":13.78211,"lng":101.28133},{"city":"Ban Phue","state":"Udon Thani","population":0,"lat":17.68877,"lng":102.47878},{"city":"Ban Phraek","state":"Phra Nakhon Si Ayutthaya","population":0,"lat":14.64681,"lng":100.57617},{"city":"Ban Pho","state":"Chachoengsao","population":0,"lat":13.59864,"lng":101.07956},{"city":"Ban Phaeng","state":"Nakhon Phanom","population":0,"lat":17.96507,"lng":104.21534},{"city":"Pak Chom","state":"Loei","population":0,"lat":18.02061,"lng":101.89828},{"city":"Nong Muang Khai","state":"Phrae","population":0,"lat":18.26464,"lng":100.18967},{"city":"Nong Don","state":"Saraburi","population":0,"lat":14.68488,"lng":100.7094},{"city":"Na Yia","state":"Ubon Ratchathani","population":0,"lat":15.06367,"lng":105.05994},{"city":"Na Yai Am","state":"Chanthaburi","population":0,"lat":12.78153,"lng":101.82256},{"city":"Na Thom","state":"Nakhon Phanom","population":0,"lat":17.78491,"lng":104.09082},{"city":"Ban Nang Sata","state":"Yala","population":0,"lat":6.26638,"lng":101.26461},{"city":"Na Khu","state":"Kalasin","population":0,"lat":16.76384,"lng":104.02626},{"city":"Na Haeo","state":"Loei","population":0,"lat":17.48536,"lng":101.06808},{"city":"Na Di","state":"Prachin Buri","population":0,"lat":14.11517,"lng":101.78189},{"city":"Ban Na","state":"Nakhon Nayok","population":0,"lat":14.26238,"lng":101.07111},{"city":"Ban Muang","state":"Sakon Nakhon","population":0,"lat":17.8508,"lng":103.56939},{"city":"Muak Lek","state":"Saraburi","population":0,"lat":14.65287,"lng":101.20022},{"city":"Ban Mi","state":"Lopburi","population":0,"lat":15.04428,"lng":100.53681},{"city":"Mae Lan","state":"Pattani","population":0,"lat":6.66114,"lng":101.23958},{"city":"Chiang Muan","state":"Phayao","population":0,"lat":18.88969,"lng":100.30589},{"city":"Ban Luang","state":"Nan","population":0,"lat":18.84969,"lng":100.43725},{"city":"Ban Lueam","state":"Nakhon Ratchasima","population":0,"lat":15.60916,"lng":102.12928},{"city":"Lao Suea Kok","state":"Ubon Ratchathani","population":0,"lat":15.4183,"lng":104.92363},{"city":"Kut Rang","state":"Maha Sarakham","population":0,"lat":16.09398,"lng":103.00998},{"city":"Ban Kruat","state":"Buriram","population":0,"lat":14.42313,"lng":103.09974},{"city":"Ban Khwao","state":"Chaiyaphum","population":0,"lat":15.77772,"lng":101.9072},{"city":"Khok Sung","state":"Sa Kaeo","population":0,"lat":13.83824,"lng":102.62254},{"city":"Bang Rachan","state":"Sing Buri","population":0,"lat":14.79717,"lng":100.3065},{"city":"Ban Khok","state":"Uttaradit","population":0,"lat":18.02614,"lng":101.06772},{"city":"Khlong Hoi Khong","state":"Songkhla","population":0,"lat":6.89865,"lng":100.38885},{"city":"Khao Chakan","state":"Sa Kaeo","population":0,"lat":13.6535,"lng":102.08825},{"city":"Ban Khai","state":"Rayong","population":0,"lat":12.78261,"lng":101.29639},{"city":"Kap Choeng","state":"Surin","population":0,"lat":14.47486,"lng":103.59439},{"city":"Kapho","state":"Pattani","population":0,"lat":6.55968,"lng":101.53426},{"city":"Kaeng Sanam Nang","state":"Nakhon Ratchasima","population":0,"lat":15.74954,"lng":102.25484},{"city":"Kaeng Hang Maeo","state":"Chanthaburi","population":0,"lat":13.00825,"lng":101.90608},{"city":"Bang Sai","state":"Phra Nakhon Si Ayutthaya","population":0,"lat":14.33433,"lng":100.30378},{"city":"Bang Pla Ma","state":"Suphan Buri","population":0,"lat":14.39604,"lng":100.1587},{"city":"Bang Phli","state":"Samut Prakan","population":0,"lat":13.60678,"lng":100.71201},{"city":"Bang Pahan","state":"Phra Nakhon Si Ayutthaya","population":0,"lat":14.46217,"lng":100.54478},{"city":"Bang Khen","state":"Bangkok","population":0,"lat":13.87741,"lng":100.6255},{"city":"Bang Bo","state":"Samut Prakan","population":0,"lat":13.57428,"lng":100.83533},{"city":"Ban Fang","state":"Khon Kaen","population":0,"lat":16.45331,"lng":102.63892},{"city":"Don Phut","state":"Saraburi","population":0,"lat":14.59175,"lng":100.62828},{"city":"Chamni","state":"Buriram","population":0,"lat":14.78629,"lng":102.82277},{"city":"Chakkarat","state":"Nakhon Ratchasima","population":0,"lat":15.01353,"lng":102.41289},{"city":"Bang Klam","state":"Songkhla","population":0,"lat":7.08953,"lng":100.41075},{"city":"Bang Kaeo","state":"Phatthalung","population":0,"lat":7.42947,"lng":100.17803},{"city":"Lue Amnat","state":"Amnat Charoen","population":0,"lat":15.69476,"lng":104.64846},{"city":"At Samat","state":"Roi Et","population":0,"lat":15.84308,"lng":103.87839},{"city":"Akat Amnuai","state":"Sakon Nakhon","population":0,"lat":17.59639,"lng":103.9816},{"city":"Phon Charoen","state":"Bueng Kan","population":0,"lat":18.03143,"lng":103.70996},{"city":"Samrong","state":"Ubon Ratchathani","population":0,"lat":15.00781,"lng":104.78419},{"city":"Bueng Bun","state":"Si Sa Ket","population":0,"lat":15.3303,"lng":104.04485},{"city":"Song Dao","state":"Sakon Nakhon","population":0,"lat":17.33628,"lng":103.47547},{"city":"Thung Yang Daeng","state":"Pattani","population":0,"lat":6.61822,"lng":101.4265},{"city":"Phanom Dong Rak","state":"Surin","population":0,"lat":14.44575,"lng":103.30508},{"city":"Don Mueang","state":"Bangkok","population":0,"lat":13.91392,"lng":100.58994},{"city":"Salaya","state":"Nakhon Pathom","population":0,"lat":13.802,"lng":100.32111},{"city":"Chun","state":"Phayao","population":0,"lat":19.33695,"lng":100.13478},{"city":"Thung Chang","state":"Nan","population":0,"lat":19.38786,"lng":100.87619},{"city":"Sop Pong","state":"Mae Hong Son","population":0,"lat":19.51881,"lng":98.26042},{"city":"Mueang Phuket","state":"Phuket","population":0,"lat":7.86338,"lng":98.36437},{"city":"Bang Sao Thong","state":"Samut Prakan","population":0,"lat":13.595,"lng":100.83042},{"city":"Mae Fa Luang","state":"Chiang Rai","population":0,"lat":20.26628,"lng":99.79846},{"city":"Wiang Chiang Rung","state":"Chiang Rai","population":0,"lat":20.01328,"lng":100.05639},{"city":"Wiang Kaen","state":"Chiang Rai","population":0,"lat":20.11297,"lng":100.51331},{"city":"Khun Tan","state":"Chiang Rai","population":0,"lat":19.83353,"lng":100.25858},{"city":"Chaloem Phra Kiat","state":"Nan","population":0,"lat":19.57881,"lng":101.08011},{"city":"Mae Lao","state":"Chiang Rai","population":0,"lat":19.79003,"lng":99.69967},{"city":"Suk Samran","state":"Ranong province","population":0,"lat":9.34458,"lng":98.42903},{"city":"Ban Takhun","state":"Surat Thani","population":0,"lat":8.90364,"lng":98.8845},{"city":"Takuk Nuea","state":"Surat Thani","population":0,"lat":9.23894,"lng":98.97861},{"city":"Wiang Nong Long","state":"Lamphun","population":0,"lat":18.42043,"lng":98.74967},{"city":"Mae Poen","state":"Nakhon Sawan","population":0,"lat":15.65789,"lng":99.46981},{"city":"Pang Sila Thong","state":"Kamphaeng Phet","population":0,"lat":16.09631,"lng":99.48906},{"city":"Kosamphi Nakhon","state":"Kamphaeng Phet","population":0,"lat":16.63131,"lng":99.34975},{"city":"Ban Thi","state":"Lamphun","population":0,"lat":18.63186,"lng":99.11661},{"city":"Manang","state":"Satun","population":0,"lat":6.99933,"lng":99.92161},{"city":"Ratsada","state":"Trang","population":0,"lat":7.97467,"lng":99.63353},{"city":"Phra Phrom","state":"Nakhon Si Thammarat","population":0,"lat":8.33911,"lng":99.90092},{"city":"Chulabhorn","state":"Nakhon Si Thammarat","population":0,"lat":8.07597,"lng":99.86947},{"city":"Chang Klang","state":"Nakhon Si Thammarat","population":0,"lat":8.37094,"lng":99.56249},{"city":"Nong Yasai","state":"Suphan Buri","population":0,"lat":14.77988,"lng":99.91073},{"city":"Chum Ta Bong","state":"Nakhon Sawan","population":0,"lat":15.63194,"lng":99.55231},{"city":"Mae Wong","state":"Nakhon Sawan","population":0,"lat":15.78164,"lng":99.51864},{"city":"Bueng Samakkhi","state":"Kamphaeng Phet","population":0,"lat":16.18728,"lng":99.97525},{"city":"Phu Kam Yao","state":"Phayao","population":0,"lat":19.2705,"lng":99.97011},{"city":"Chaloem Phra Kiat","state":"Nakhon Si Thammarat","population":0,"lat":8.17689,"lng":100.03581},{"city":"Sawaengha","state":"Ang Thong","population":0,"lat":14.75186,"lng":100.32481},{"city":"Doem Bang Nang Buat","state":"Suphan Buri","population":0,"lat":14.85428,"lng":100.09772},{"city":"Chumsaeng","state":"Nakhon Sawan","population":0,"lat":15.89152,"lng":100.30795},{"city":"Wachira Barami","state":"Phichit","population":0,"lat":16.52314,"lng":100.14464},{"city":"Thong Saen Khan","state":"Uttaradit","population":0,"lat":17.47065,"lng":100.33146},{"city":"Laplae","state":"Uttaradit","population":0,"lat":17.65211,"lng":100.03892},{"city":"Chaloem Phra Kiat","state":"Saraburi","population":0,"lat":14.6115,"lng":100.90825},{"city":"Santi Suk","state":"Nan","population":0,"lat":18.9137,"lng":100.94169},{"city":"Phu Phiang","state":"Nan","population":0,"lat":18.74264,"lng":100.79951},{"city":"Nikhom Phattana","state":"Rayong","population":0,"lat":12.82736,"lng":101.20273},{"city":"Ko Chan","state":"Chon Buri","population":0,"lat":13.41658,"lng":101.33458},{"city":"Si Mahosot","state":"Prachin Buri","population":0,"lat":13.8878,"lng":101.40501},{"city":"Phakdi Chumphon","state":"Chaiyaphum","population":0,"lat":15.90517,"lng":101.42228},{"city":"Khao Chamao","state":"Rayong","population":0,"lat":12.97586,"lng":101.68511},{"city":"Tha Takiap","state":"Chachoengsao","population":0,"lat":13.44547,"lng":101.61133},{"city":"Wang Nam Khiao","state":"Nakhon Ratchasima","population":0,"lat":14.41801,"lng":101.86113},{"city":"Prachamtakham","state":"Prachin Buri","population":0,"lat":14.06442,"lng":101.51503},{"city":"Sap Yai","state":"Chaiyaphum","population":0,"lat":15.63739,"lng":101.61671},{"city":"Erawan","state":"Loei","population":0,"lat":17.30181,"lng":101.95382},{"city":"Khao Khitchakut","state":"Chanthaburi","population":0,"lat":12.80481,"lng":102.11514},{"city":"Soi Dao","state":"Chanthaburi","population":0,"lat":13.12894,"lng":102.21402},{"city":"Wang Sombun","state":"Sa Kaeo","population":0,"lat":13.36176,"lng":102.19105},{"city":"Noen Sa-nga","state":"Chaiyaphum","population":0,"lat":15.56428,"lng":102.00128},{"city":"Khok Pho Chai","state":"Khon Kaen","population":0,"lat":16.08375,"lng":102.399},{"city":"Na Wang","state":"Nong Bua Lamphu","population":0,"lat":17.32444,"lng":102.07829},{"city":"Non Din Daeng","state":"Buriram","population":0,"lat":14.31353,"lng":102.74814},{"city":"Pa Kham","state":"Buriram","population":0,"lat":14.43817,"lng":102.72558},{"city":"Chaloem Phra Kiat","state":"Buriram","population":0,"lat":14.55839,"lng":102.92475},{"city":"Lam Thamen Chai","state":"Nakhon Ratchasima","population":0,"lat":15.3535,"lng":102.91803},{"city":"Non Daeng","state":"Nakhon Ratchasima","population":0,"lat":15.41061,"lng":102.54025},{"city":"Ban Mai Chaiyaphot","state":"Buriram","population":0,"lat":15.57361,"lng":102.83331},{"city":"Non Sila","state":"Khon Kaen","population":0,"lat":15.97439,"lng":102.66983},{"city":"Ubonratana","state":"Khon Kaen","population":0,"lat":16.75269,"lng":102.63245},{"city":"Ban Na Muang","state":"Udon Thani","population":0,"lat":17.23824,"lng":103.00892},{"city":"Sa Khrai","state":"Nong Khai","population":0,"lat":17.67544,"lng":102.75069},{"city":"Phlapphla Chai","state":"Buriram","population":0,"lat":14.73011,"lng":103.16728},{"city":"Si Somdet","state":"Roi Et","population":0,"lat":15.99797,"lng":103.48789},{"city":"Khong Chai","state":"Kalasin","population":0,"lat":16.26025,"lng":103.45828},{"city":"Chuen Chom","state":"Maha Sarakham","population":0,"lat":16.55488,"lng":103.17661},{"city":"Sam Sung","state":"Khon Kaen","population":0,"lat":16.5432,"lng":103.07992},{"city":"Ku Kaeo","state":"Udon Thani","population":0,"lat":17.17214,"lng":103.15303},{"city":"Phibun Rak","state":"Udon Thani","population":0,"lat":17.55312,"lng":103.05794},{"city":"Pakkhat","state":"Nong Khai","population":0,"lat":18.29789,"lng":103.30689},{"city":"Phonphisai","state":"Nong Khai","population":0,"lat":18.02106,"lng":103.07664},{"city":"Si Narong","state":"Surin","population":0,"lat":14.76736,"lng":103.87392},{"city":"Non Narai","state":"Surin","population":0,"lat":15.23764,"lng":103.91333},{"city":"Khwao Sinarin","state":"Surin","population":0,"lat":15.00244,"lng":103.59154},{"city":"Thung Khao Luang","state":"Roi Et","population":0,"lat":15.99397,"lng":103.86264},{"city":"Chiang Khwan","state":"Roi Et","population":0,"lat":16.16328,"lng":103.75359},{"city":"Changhan","state":"Roi Et","population":0,"lat":16.13873,"lng":103.60388},{"city":"Don Chan","state":"Kalasin","population":0,"lat":16.45711,"lng":103.69558},{"city":"Phu Phan","state":"Sakon Nakhon","population":0,"lat":16.99891,"lng":103.97347},{"city":"Si Wilai","state":"Bueng Kan","population":0,"lat":18.18188,"lng":103.74793},{"city":"Phu Sing","state":"Si Sa Ket","population":0,"lat":14.54744,"lng":104.13167},{"city":"Pho Si Suwan","state":"Si Sa Ket","population":0,"lat":15.22929,"lng":104.0767},{"city":"Sila Lat","state":"Si Sa Ket","population":0,"lat":15.47156,"lng":104.07153},{"city":"Thai Charoen","state":"Yasothon","population":0,"lat":16.06645,"lng":104.44018},{"city":"Phon Na Kaeo","state":"Sakon Nakhon","population":0,"lat":17.22122,"lng":104.28995},{"city":"Wang Yang","state":"Nakhon Phanom","population":0,"lat":17.05751,"lng":104.45333},{"city":"Nathom","state":"Nakhon Phanom","population":0,"lat":17.78536,"lng":104.09072},{"city":"Thung Si Udom","state":"Ubon Ratchathani","population":0,"lat":14.73303,"lng":104.90897},{"city":"Nam Khun","state":"Ubon Ratchathani","population":0,"lat":14.58386,"lng":104.92481},{"city":"Benchalak","state":"Si Sa Ket","population":0,"lat":14.79583,"lng":104.67017},{"city":"Pathum Ratchawongsa","state":"Amnat Charoen","population":0,"lat":15.89224,"lng":104.90563},{"city":"Don Mot Daeng","state":"Ubon Ratchathani","population":0,"lat":15.37903,"lng":105.02786},{"city":"Mae Wang","state":"Chiang Mai","population":0,"lat":18.61604,"lng":98.77292},{"city":"Khao Kho","state":"Phetchabun","population":0,"lat":16.65791,"lng":101.02208},{"city":"Phra Thong Kham","state":"Nakhon Ratchasima","population":0,"lat":15.306,"lng":101.983},{"city":"Wiang Kao","state":"Khon Kaen","population":0,"lat":16.68247,"lng":102.28511},{"city":"Khaen Dong","state":"Buriram","population":0,"lat":15.32476,"lng":103.13343},{"city":"Sirindhorn","state":"Ubon Ratchathani","population":0,"lat":15.20084,"lng":105.39222},{"city":"Sida","state":"Nakhon Ratchasima","population":0,"lat":15.54994,"lng":102.56675},{"city":"Srinagarindra","state":"Phatthalung","population":0,"lat":7.56991,"lng":99.94353},{"city":"Sam Chai","state":"Kalasin","population":0,"lat":16.86322,"lng":103.54106},{"city":"Dong Charoen","state":"Phichit","population":0,"lat":16.02058,"lng":100.66286},{"city":"Chaem Luang","state":"Chiang Mai","population":0,"lat":19.03193,"lng":98.28767},{"city":"Rattanawapi","state":"Nong Khai","population":0,"lat":18.21365,"lng":103.17967},{"city":"Hat Samran","state":"Trang","population":0,"lat":7.24034,"lng":99.57621},{"city":"Ban Pa Pae","state":"Mae Hong Son","population":0,"lat":18.28425,"lng":98.05683},{"city":"Bung Khla","state":"Bueng Kan","population":0,"lat":18.30232,"lng":103.97418},{"city":"Chai Prakan","state":"Chiang Mai","population":0,"lat":19.73136,"lng":99.13997},{"city":"Doi Luang","state":"Chiang Rai","population":0,"lat":20.11783,"lng":100.09919},{"city":"Mae On","state":"Chiang Mai","population":0,"lat":18.77681,"lng":99.24861},{"city":"Sop Moei","state":"Mae Hong Son","population":0,"lat":17.96209,"lng":97.93288},{"city":"Bua Lai","state":"Nakhon Ratchasima","population":0,"lat":15.66548,"lng":102.49881},{"city":"Phra Samut Chedi","state":"Samut Prakan","population":0,"lat":13.60222,"lng":100.5721},{"city":"Singhanakhon","state":"Songkhla","population":0,"lat":7.23903,"lng":100.55272},{"city":"Phu Sang","state":"Phayao","population":0,"lat":19.59903,"lng":100.32444},{"city":"Mae Hi","state":"Mae Hong Son","population":0,"lat":19.34286,"lng":98.45023},{"city":"Pa Phayom","state":"Phatthalung","population":0,"lat":7.84031,"lng":99.91773},{"city":"Na Yong","state":"Trang","population":0,"lat":7.56167,"lng":99.69483},{"city":"Pho Tak","state":"Nong Khai","population":0,"lat":17.87486,"lng":102.40406},{"city":"Ko Kut","state":"Trat","population":0,"lat":11.65856,"lng":102.54197},{"city":"Na Kluea","state":"Chon Buri","population":0,"lat":12.96199,"lng":100.89715},{"city":"Ko Chang","state":"Trat","population":0,"lat":12.10445,"lng":102.35239}],"Vietnam":[{"city":"Hanoi","state":"Hanoi","population":8053663,"lat":21.0245,"lng":105.84117},{"city":"Haiphong","state":"Hai Phong","population":2625200,"lat":20.86481,"lng":106.68345},{"city":"Hu","state":"Tha Thin Hu Province","population":1380000,"lat":16.4619,"lng":107.59546},{"city":"Thanh Ha","state":"Thanh Ha Province","population":850000,"lat":19.8,"lng":105.76667},{"city":"Vinh","state":"Ngh An Province","population":790000,"lat":18.67337,"lng":105.69232},{"city":"Bc Giang","state":"Bac Ninh","population":450000,"lat":21.27307,"lng":106.1946},{"city":"Nam nh","state":"Ninh Binh","population":448225,"lat":20.43389,"lng":106.17729},{"city":"Thi Nguyn","state":"Thai Nguyen","population":420000,"lat":21.59422,"lng":105.84817},{"city":"Vit Tr","state":"Phu Tho","population":415280,"lat":21.32274,"lng":105.40198},{"city":"ng a","state":"Hanoi","population":371606,"lat":21.02009,"lng":105.83097},{"city":"Long Bien","state":"Hanoi","population":347829,"lat":21.03333,"lng":105.9},{"city":"Gia Lm","state":"Hanoi","population":309353,"lat":21.05352,"lng":106.00712},{"city":"Hai B Trng","state":"Hanoi","population":303586,"lat":21.01341,"lng":105.84772},{"city":"Nghi Sn","state":"Thanh Ha Province","population":302210,"lat":19.32746,"lng":105.82145},{"city":"Thanh Xun","state":"Hanoi","population":293292,"lat":20.99472,"lng":105.79977},{"city":"Cu Giy","state":"Hanoi","population":292536,"lat":21.03228,"lng":105.80073},{"city":"Bc Ninh","state":"Bac Ninh","population":287658,"lat":21.18608,"lng":106.07631},{"city":"Ba V","state":"Hanoi","population":282600,"lat":21.08333,"lng":105.38333},{"city":"H Long","state":"Qung Ninh","population":270054,"lat":20.95045,"lng":107.07336},{"city":"Th Trn ng Triu","state":"Qung Ninh","population":248896,"lat":21.08242,"lng":106.5138},{"city":"Hi Dng","state":"Hai Phong","population":241373,"lat":20.94099,"lng":106.33302},{"city":"Sn Ty","state":"Hanoi","population":230577,"lat":21.14053,"lng":105.50686},{"city":"Ba Dinh","state":"Hanoi","population":221893,"lat":21.03652,"lng":105.82684},{"city":"Lng Sn","state":"Lng Sn Province","population":200108,"lat":21.85264,"lng":106.76101},{"city":"Thun Thanh","state":"Bac Ninh","population":199577,"lat":21.046,"lng":106.079},{"city":"Cm Ph","state":"Qung Ninh","population":190232,"lat":21.01004,"lng":107.27345},{"city":"Phc Yn","state":"Phu Tho","population":180000,"lat":21.23695,"lng":105.70483},{"city":"Ty H","state":"Hanoi","population":168300,"lat":21.06895,"lng":105.81053},{"city":"ng H","state":"Quang Tri","population":164228,"lat":16.81625,"lng":107.10031},{"city":"K Anh","state":"H Tnh Province","population":150226,"lat":18.06243,"lng":106.29832},{"city":"Ph L","state":"Ninh Binh","population":136654,"lat":20.54531,"lng":105.91221},{"city":"Hon Kim","state":"Hanoi","population":135618,"lat":21.02857,"lng":105.85064},{"city":"ng Hi","state":"Quang Tri","population":133672,"lat":17.46885,"lng":106.62226},{"city":"Lo Cai","state":"Lao Cai","population":130671,"lat":22.48556,"lng":103.97066},{"city":"Ch","state":"Bac Ninh","population":127881,"lat":21.37379,"lng":106.56649},{"city":"B ","state":"Hanoi","population":120028,"lat":21.05618,"lng":105.86675},{"city":"Vnh Yn","state":"Phu Tho","population":119128,"lat":21.30891,"lng":105.60489},{"city":"Hng Yn","state":"Hng Yn Province","population":118646,"lat":20.64637,"lng":106.05112},{"city":"Nghi Xun","state":"H Tnh Province","population":118000,"lat":18.66206,"lng":105.75575},{"city":"M Ho","state":"Hng Yn Province","population":115608,"lat":20.91667,"lng":106.08333},{"city":"Phong in","state":"Tha Thin Hu Province","population":114820,"lat":16.58321,"lng":107.36438},{"city":"Mng Ci","state":"Qung Ninh","population":108553,"lat":21.52471,"lng":107.96619},{"city":"Yn Vinh","state":"Ngh An Province","population":107082,"lat":18.66667,"lng":105.66667},{"city":"Ba n","state":"Quang Tri","population":106413,"lat":17.75353,"lng":106.42355},{"city":"Sn La","state":"Sn La Province","population":106052,"lat":21.3256,"lng":103.91882},{"city":"Ha Bnh","state":"Phu Tho","population":105260,"lat":20.81717,"lng":105.33759},{"city":"Tuyn Quang","state":"Tuyen Quang","population":104645,"lat":21.82356,"lng":105.21424},{"city":"Yn Bi","state":"Lao Cai","population":100631,"lat":21.72288,"lng":104.9113},{"city":"Ngha ","state":"Hanoi","population":96418,"lat":21.05,"lng":105.8},{"city":"Ph Th","state":"Phu Tho","population":91650,"lat":21.39963,"lng":105.22221},{"city":"Bch Mai","state":"Hanoi","population":91308,"lat":20.98333,"lng":105.83333},{"city":"Thng Ct","state":"Hanoi","population":87406,"lat":21.09342,"lng":105.73188},{"city":"Vnh Tuy","state":"Hanoi","population":86618,"lat":21.0,"lng":105.88333},{"city":"Sc Sn","state":"Hanoi","population":85431,"lat":21.25782,"lng":105.84894},{"city":"Dien Bien Phu","state":"in Bin Province","population":84672,"lat":21.38602,"lng":103.02301},{"city":"Cam L","state":"Quang Tri","population":83544,"lat":16.80797,"lng":106.99405},{"city":"Yn Ha","state":"Hanoi","population":77029,"lat":21.02185,"lng":105.79147},