{"timezone":"Asia/Aqtau","countries":{"Kazakhstan":[{"city":"Aktau","state":"Mangghystaū","population":147443,"lat":43.66105,"lng":51.17392},{"city":"Zhanaozen","state":"Mangghystaū","population":103598,"lat":43.34116,"lng":52.86192},{"city":"Mangistau","state":"Mangghystaū","population":31368,"lat":43.69088,"lng":51.32237},{"city":"Beyneu","state":"Mangghystaū","population":14245,"lat":45.31667,"lng":55.2},{"city":"Shetpe","state":"Mangghystaū","population":11836,"lat":44.13922,"lng":52.15305},{"city":"Kuryk","state":"Mangghystaū","population":11836,"lat":43.18032,"lng":51.68116},{"city":"Zhetybay","state":"Mangghystaū","population":11731,"lat":43.58928,"lng":52.10313},{"city":"Fort-Shevchenko","state":"Mangghystaū","population":5213,"lat":44.50654,"lng":50.26388},{"city":"Munayshy","state":"Mangghystaū","population":4085,"lat":43.49988,"lng":52.09745},{"city":"Bautino","state":"Mangghystaū","population":3247,"lat":44.54479,"lng":50.24629},{"city":"Taūshyq","state":"Mangghystaū","population":2600,"lat":44.34678,"lng":51.34932},{"city":"Umirzak","state":"Mangghystaū","population":1885,"lat":43.59762,"lng":51.24094},{"city":"Say-Otes","state":"Mangghystaū","population":1571,"lat":44.32787,"lng":53.53216}]}}