{"timezone":"Asia/Ashgabat","countries":{"Turkmenistan":[{"city":"Ashgabat","state":"Ashgabat","population":727700,"lat":37.95,"lng":58.38333},{"city":"Türkmenabat","state":"Lebap","population":234817,"lat":39.07328,"lng":63.57861},{"city":"Daşoguz","state":"Daşoguz","population":166500,"lat":41.83625,"lng":59.96661},{"city":"Mary","state":"Mary","population":114680,"lat":37.59378,"lng":61.83031},{"city":"Türkmenbaşy","state":"Balkan","population":91745,"lat":40.02216,"lng":52.95517},{"city":"Balkanabat","state":"Balkan","population":87822,"lat":39.51075,"lng":54.36713},{"city":"Bayramaly","state":"Mary","population":70376,"lat":37.61852,"lng":62.16715},{"city":"Tejen","state":"Ahal","population":67488,"lat":37.38338,"lng":60.50545},{"city":"Arkadag","state":"Ahal","population":40524,"lat":38.07127,"lng":58.06562},{"city":"Abadan","state":"Ahal","population":39481,"lat":38.05415,"lng":58.19721},{"city":"Yolöten","state":"Mary","population":37705,"lat":37.29886,"lng":62.35975},{"city":"Bäherden","state":"Ahal","population":37588,"lat":38.43624,"lng":57.43158},{"city":"Köneürgench","state":"Daşoguz","population":36754,"lat":42.32773,"lng":59.15442},{"city":"Yylanly","state":"Daşoguz","population":36594,"lat":41.83333,"lng":59.65},{"city":"Gowurdak","state":"Lebap","population":34745,"lat":37.81244,"lng":66.04656},{"city":"Gökdepe","state":"Ahal","population":33381,"lat":38.15863,"lng":57.96072},{"city":"Kerki","state":"Lebap","population":33242,"lat":37.83573,"lng":65.21058},{"city":"Änew","state":"Ahal","population":27526,"lat":37.88754,"lng":58.51596},{"city":"Görogly","state":"Daşoguz","population":26770,"lat":41.65041,"lng":59.9164},{"city":"Bereket","state":"Balkan","population":24500,"lat":39.24463,"lng":55.51536},{"city":"Gumdag","state":"Balkan","population":24312,"lat":39.20611,"lng":54.59056},{"city":"Hojambaz","state":"Lebap","population":21454,"lat":38.11635,"lng":65.00347},{"city":"Oýrat","state":"Daşoguz","population":21160,"lat":41.9458,"lng":59.90885},{"city":"Boldumsaz","state":"Daşoguz","population":21159,"lat":42.12824,"lng":59.67101},{"city":"Gazojak","state":"Lebap","population":21021,"lat":41.18746,"lng":61.4036},{"city":"Kaka","state":"Ahal","population":18545,"lat":37.34821,"lng":59.61431},{"city":"Seydi","state":"Mary","population":17762,"lat":39.4816,"lng":62.91374},{"city":"Saýat","state":"Lebap","population":17762,"lat":38.78393,"lng":63.88035},{"city":"Gubadag","state":"Daşoguz","population":17118,"lat":42.07948,"lng":59.94964},{"city":"Jebel","state":"Balkan","population":15056,"lat":39.63415,"lng":54.23053},{"city":"Hazar","state":"Balkan","population":14671,"lat":39.40632,"lng":53.12832},{"city":"Farap","state":"Lebap","population":14503,"lat":39.17037,"lng":63.61165},{"city":"Akdepe","state":"Daşoguz","population":14177,"lat":42.05513,"lng":59.37877},{"city":"Altyn asyr","state":"Ahal","population":13660,"lat":37.28158,"lng":60.70432},{"city":"Dostluk","state":"Lebap","population":13655,"lat":37.74548,"lng":65.33761},{"city":"Babadaykhan","state":null,"population":13440,"lat":37.68333,"lng":60.43333},{"city":"Murgab","state":"Mary","population":13199,"lat":37.49656,"lng":61.97142},{"city":"Esenguly","state":"Balkan","population":12918,"lat":37.4678,"lng":53.97767},{"city":"Etrek","state":"Balkan","population":12508,"lat":37.66114,"lng":54.76645},{"city":"Serdar","state":"Balkan","population":12000,"lat":38.97644,"lng":56.27575},{"city":"Babaarap","state":"Ahal","population":9681,"lat":38.09737,"lng":58.1083},{"city":"Aşyr Kakabaýew","state":"Daşoguz","population":9603,"lat":42.28167,"lng":58.71935},{"city":"Sarahs","state":"Ahal","population":9585,"lat":36.52381,"lng":61.21477},{"city":"Garadepe","state":"Balkan","population":9016,"lat":38.03222,"lng":54.03556},{"city":"Garaşsyzlyk","state":null,"population":8673,"lat":37.39188,"lng":60.4349},{"city":"Ýaňgala","state":"Ahal","population":8657,"lat":38.12317,"lng":57.9471},{"city":"Koytendag","state":"Lebap","population":8654,"lat":37.509,"lng":66.01358},{"city":"Magtymguly","state":"Balkan","population":8412,"lat":38.43749,"lng":56.28081},{"city":"Duşak","state":"Ahal","population":8405,"lat":37.19518,"lng":60.02469},{"city":"Ýaşlyk","state":"Ahal","population":8172,"lat":37.77687,"lng":58.89644},{"city":"Galkynyş","state":"Lebap","population":7932,"lat":39.26284,"lng":63.18429},{"city":"Bokurdak","state":null,"population":7726,"lat":38.76307,"lng":58.49269},{"city":"Türkmenbaşy","state":null,"population":7334,"lat":40.01151,"lng":53.11521},{"city":"Nyyazow","state":null,"population":7291,"lat":41.83926,"lng":60.13172},{"city":"Birata","state":"Lebap","population":7212,"lat":40.48204,"lng":62.1586},{"city":"Babadaýhan","state":"Ahal","population":7130,"lat":37.68887,"lng":60.39372},{"city":"Shatlyk","state":"Mary","population":7000,"lat":37.60724,"lng":61.59394},{"city":"Garabogaz","state":"Balkan","population":6895,"lat":41.54013,"lng":52.57344},{"city":"Saparmurat Turkmenbashy","state":null,"population":6770,"lat":42.37986,"lng":58.814},{"city":"Akdaş","state":"Balkan","population":6750,"lat":40.04222,"lng":53.12608},{"city":"Yzgant","state":"Ahal","population":6547,"lat":38.18249,"lng":58.11344},{"city":"Turkmen-Kala","state":"Mary","population":6465,"lat":37.42469,"lng":62.33821},{"city":"Arçman","state":"Ahal","population":6014,"lat":38.54346,"lng":57.15711},{"city":"Takhta-Bazar","state":"Mary","population":5907,"lat":35.9561,"lng":62.91842},{"city":"Karabekaul","state":"Lebap","population":5509,"lat":38.48457,"lng":64.15149},{"city":"Serhetabat","state":"Mary","population":5200,"lat":35.27992,"lng":62.34383},{"city":"Täze eýýam","state":"Ahal","population":5196,"lat":38.17249,"lng":58.04702},{"city":"Halaç","state":"Lebap","population":5101,"lat":38.07201,"lng":64.87938},{"city":"Bowga","state":"Ahal","population":4094,"lat":38.1239,"lng":57.99944},{"city":"Ekerem","state":"Balkan","population":3972,"lat":38.06509,"lng":53.84157},{"city":"Janahyr","state":"Balkan","population":3664,"lat":38.97276,"lng":56.22742},{"city":"Gaňňaly","state":"Ahal","population":3580,"lat":37.03417,"lng":60.79656},{"city":"Gyzylbaýyr","state":"Balkan","population":3516,"lat":38.21968,"lng":55.6507},{"city":"Arçabil","state":"Ahal","population":3000,"lat":37.915,"lng":58.08987},{"city":"Bükri","state":"Ahal","population":2316,"lat":38.1064,"lng":57.97853},{"city":"Guwlymaýak","state":"Balkan","population":1853,"lat":40.2443,"lng":52.74151},{"city":"Belek","state":"Balkan","population":1720,"lat":39.92917,"lng":53.8425},{"city":"Oglanly","state":null,"population":1715,"lat":39.85175,"lng":54.49531},{"city":"Kommunizm","state":"Mary","population":1674,"lat":37.61185,"lng":61.92482},{"city":"Bereketli zaman","state":"Ahal","population":1429,"lat":37.79884,"lng":58.7103},{"city":"Gyzylgaýa","state":null,"population":993,"lat":40.6219,"lng":55.46537},{"city":"Nowata","state":"Ahal","population":892,"lat":38.08318,"lng":57.96868},{"city":"Gyzylsuw","state":"Balkan","population":859,"lat":39.79717,"lng":53.01144},{"city":"Garagöl","state":"Balkan","population":765,"lat":39.37982,"lng":53.17342},{"city":"Uzboý","state":"Balkan","population":730,"lat":39.33635,"lng":54.1544}]}}