{"timezone":"Asia/Kolkata","countries":{"India":[{"city":"Mumbai","state":"Maharashtra","population":12691836,"lat":19.07283,"lng":72.88261},{"city":"Delhi","state":"Delhi","population":11034555,"lat":28.65195,"lng":77.23149},{"city":"Bengaluru","state":"Karnataka","population":8495492,"lat":12.97194,"lng":77.59369},{"city":"Hyderabad","state":"Telangana","population":6993262,"lat":17.38405,"lng":78.45636},{"city":"Ahmedabad","state":"Gujarat","population":6357693,"lat":23.02579,"lng":72.58727},{"city":"Chennai","state":"Tamil Nadu","population":4681087,"lat":13.08784,"lng":80.27847},{"city":"Kolkata","state":"West Bengal","population":4631392,"lat":22.56263,"lng":88.36304},{"city":"Surat","state":"Gujarat","population":4591246,"lat":21.19594,"lng":72.83023},{"city":"Pune","state":"Maharashtra","population":3124458,"lat":18.51957,"lng":73.85535},{"city":"Jaipur","state":"Rajasthan","population":3046163,"lat":26.91962,"lng":75.78781},{"city":"Kanpur","state":"Uttar Pradesh","population":2823249,"lat":26.46523,"lng":80.34975},{"city":"Navi Mumbai","state":"Maharashtra","population":2600000,"lat":19.03681,"lng":73.01582},{"city":"Lucknow","state":"Uttar Pradesh","population":2472011,"lat":26.83928,"lng":80.92313},{"city":"Nagpur","state":"Maharashtra","population":2405665,"lat":21.14631,"lng":79.08491},{"city":"Coimbatore","state":"Tamil Nadu","population":2136916,"lat":11.00555,"lng":76.96612},{"city":"Indore","state":"Madhya Pradesh","population":1994397,"lat":22.71792,"lng":75.8333},{"city":"Thāne","state":"Maharashtra","population":1841488,"lat":19.19704,"lng":72.96355},{"city":"Vadodara","state":"Gujarat","population":1822221,"lat":22.29941,"lng":73.20812},{"city":"Bhopal","state":"Madhya Pradesh","population":1798218,"lat":23.25469,"lng":77.40289},{"city":"Rasapūdipalem","state":"Andhra Pradesh","population":1728128,"lat":17.73308,"lng":83.31622},{"city":"Pimpri-Chinchwad","state":"Maharashtra","population":1727692,"lat":18.61867,"lng":73.80375},{"city":"Patna","state":"Bihar","population":1684297,"lat":25.59408,"lng":85.13563},{"city":"Kallakurichi","state":"Tamil Nadu","population":1682687,"lat":11.73379,"lng":78.95925},{"city":"Ludhiana","state":"Punjab","population":1618879,"lat":30.91204,"lng":75.85379},{"city":"Nashik","state":"Maharashtra","population":1486053,"lat":19.99727,"lng":73.79096},{"city":"Madurai","state":"Tamil Nadu","population":1465625,"lat":9.919,"lng":78.11953},{"city":"Tirunelveli","state":"Tamil Nadu","population":1435844,"lat":8.72742,"lng":77.6838},{"city":"Agra","state":"Uttar Pradesh","population":1430055,"lat":27.18333,"lng":78.01667},{"city":"Faridabad","state":"Haryana","population":1414050,"lat":28.41124,"lng":77.31316},{"city":"Rājkot","state":"Gujarat","population":1390640,"lat":22.29161,"lng":70.79322},{"city":"Najafgarh","state":"Delhi","population":1365000,"lat":28.60922,"lng":76.97982},{"city":"Jamshedpur","state":"Jharkhand","population":1339438,"lat":22.80278,"lng":86.18545},{"city":"Gorakhpur","state":"Haryana","population":1324570,"lat":29.44768,"lng":75.67206},{"city":"Pimpri","state":"Maharashtra","population":1284606,"lat":18.62292,"lng":73.80696},{"city":"Kalyān","state":"Maharashtra","population":1262255,"lat":19.2437,"lng":73.13554},{"city":"Dombivali","state":"Maharashtra","population":1247327,"lat":19.21667,"lng":73.08333},{"city":"Meerut","state":"Uttar Pradesh","population":1223184,"lat":28.98002,"lng":77.70636},{"city":"Virār","state":"Maharashtra","population":1222390,"lat":19.45591,"lng":72.81136},{"city":"Nowrangapur","state":"Odisha","population":1220946,"lat":19.23114,"lng":82.54826},{"city":"Srinagar","state":"Jammu and Kashmir","population":1206419,"lat":34.08565,"lng":74.80555},{"city":"Ghāziābād","state":"Uttar Pradesh","population":1199191,"lat":28.66535,"lng":77.43915},{"city":"Dhanbad","state":"Jharkhand","population":1196214,"lat":23.79759,"lng":86.42992},{"city":"Aurangabad","state":"Maharashtra","population":1175116,"lat":19.87757,"lng":75.34226},{"city":"Varanasi","state":"Uttar Pradesh","population":1164404,"lat":25.31668,"lng":83.01041},{"city":"Amritsar","state":"Punjab","population":1159227,"lat":31.62234,"lng":74.87534},{"city":"Vijayawada","state":"Andhra Pradesh","population":1143232,"lat":16.50745,"lng":80.6466},{"city":"Ranchi","state":"Jharkhand","population":1120374,"lat":23.34316,"lng":85.3094},{"city":"Jabalpur","state":"Madhya Pradesh","population":1081677,"lat":23.16697,"lng":79.95006},{"city":"Prayagraj","state":"Uttar Pradesh","population":1073438,"lat":25.44478,"lng":81.84322},{"city":"Visakhapatnam","state":"Andhra Pradesh","population":1063178,"lat":17.68009,"lng":83.20161},{"city":"Jodhpur","state":"Rajasthan","population":1056191,"lat":26.26841,"lng":73.00594},{"city":"Gwalior","state":"Madhya Pradesh","population":1054420,"lat":26.22983,"lng":78.17337},{"city":"Teni","state":"Tamil Nadu","population":1034724,"lat":10.01115,"lng":77.47772},{"city":"Howrah","state":"West Bengal","population":1027672,"lat":22.57688,"lng":88.31857},{"city":"Raipur","state":"Chhattisgarh","population":1027264,"lat":21.23333,"lng":81.63333},{"city":"Tiruchirappalli","state":"Tamil Nadu","population":1022518,"lat":10.8155,"lng":78.69651},{"city":"Kota","state":"Rajasthan","population":1001694,"lat":25.18254,"lng":75.83907},{"city":"Shivaji Nagar","state":"Maharashtra","population":1000000,"lat":18.53017,"lng":73.85263},{"city":"Sholapur","state":"Maharashtra","population":997281,"lat":17.67152,"lng":75.91044},{"city":"Chandigarh","state":"Chandigarh","population":970602,"lat":30.73629,"lng":76.7884},{"city":"Tiruppur","state":"Tamil Nadu","population":963173,"lat":11.11541,"lng":77.35456},{"city":"Guwahati","state":"Assam","population":962334,"lat":26.1844,"lng":91.7458},{"city":"Hubballi","state":"Karnataka","population":943788,"lat":15.34776,"lng":75.13378},{"city":"Mysuru","state":"Karnataka","population":920550,"lat":12.29791,"lng":76.63925},{"city":"Salem","state":"Tamil Nadu","population":917414,"lat":11.65376,"lng":78.15538},{"city":"Gurugram","state":"Haryana","population":886519,"lat":28.4601,"lng":77.02635},{"city":"Bhubaneswar","state":"Odisha","population":885363,"lat":20.27241,"lng":85.83385},{"city":"Bhiwandi","state":"Maharashtra","population":874032,"lat":19.30023,"lng":73.05881},{"city":"Jalandhar","state":"Punjab","population":868929,"lat":31.32556,"lng":75.57917},{"city":"Rohini","state":"Delhi","population":860000,"lat":28.74322,"lng":77.06778},{"city":"Kanayannur","state":"Kerala","population":851406,"lat":9.96667,"lng":76.26667},{"city":"Bhayandar","state":"Maharashtra","population":809378,"lat":19.30157,"lng":72.85107},{"city":"Narela","state":"Delhi","population":800000,"lat":28.85267,"lng":77.09288},{"city":"Thiruvananthapuram","state":"Kerala","population":788271,"lat":8.4855,"lng":76.94924},{"city":"Alīgarh","state":"Uttar Pradesh","population":753207,"lat":27.88145,"lng":78.07464},{"city":"Bareilly","state":"Uttar Pradesh","population":745435,"lat":28.36678,"lng":79.43167},{"city":"Morādābād","state":"Uttar Pradesh","population":721139,"lat":28.83893,"lng":78.77684},{"city":"Warangal","state":"Telangana","population":704570,"lat":18.0,"lng":79.58333},{"city":"Gorakhpur","state":"Uttar Pradesh","population":674246,"lat":26.76628,"lng":83.36889},{"city":"Guntur","state":"Andhra Pradesh","population":670073,"lat":16.29974,"lng":80.45729},{"city":"Puducherry","state":"Puducherry","population":657209,"lat":11.93381,"lng":79.82979},{"city":"Amravati","state":"Maharashtra","population":647057,"lat":20.93333,"lng":77.75},{"city":"Bikaner","state":"Rajasthan","population":644406,"lat":28.01762,"lng":73.31495},{"city":"Kochi","state":"Kerala","population":633553,"lat":9.93988,"lng":76.26022},{"city":"Bhilai","state":"Chhattisgarh","population":627734,"lat":21.20919,"lng":81.4285},{"city":"Cuttack","state":"Odisha","population":610189,"lat":20.46497,"lng":85.87927},{"city":"Borivli","state":"Maharashtra","population":609617,"lat":19.23496,"lng":72.85976},{"city":"Bhavnagar","state":"Gujarat","population":605882,"lat":21.76287,"lng":72.15331},{"city":"Sāngli","state":"Maharashtra","population":601214,"lat":16.85438,"lng":74.56417},{"city":"Jamnagar","state":"Gujarat","population":600943,"lat":22.47292,"lng":70.06673},{"city":"Jammu","state":"Jammu and Kashmir","population":576198,"lat":32.73528,"lng":74.86167},{"city":"Bokāro","state":"Jharkhand","population":564319,"lat":23.66934,"lng":86.15161},{"city":"Nanded","state":"Maharashtra","population":550564,"lat":19.16023,"lng":77.31497},{"city":"Kozhikode","state":"Kerala","population":550440,"lat":11.24802,"lng":75.7804},{"city":"Kolhāpur","state":"Maharashtra","population":549236,"lat":16.69563,"lng":74.23167},{"city":"Nellore","state":"Andhra Pradesh","population":547621,"lat":14.44992,"lng":79.98697},{"city":"Kalaburagi","state":"Karnataka","population":543147,"lat":17.33583,"lng":76.83757},{"city":"Ajmer","state":"Rajasthan","population":542321,"lat":26.4521,"lng":74.63867},{"city":"Dehra Dūn","state":"Uttarakhand","population":522081,"lat":30.32443,"lng":78.03392},{"city":"Erode","state":"Tamil Nadu","population":521891,"lat":11.3428,"lng":77.72741},{"city":"Durgapur","state":"West Bengal","population":518872,"lat":23.51583,"lng":87.30801},{"city":"Ulhasnagar","state":"Maharashtra","population":516584,"lat":19.21667,"lng":73.15},{"city":"Loni","state":"Uttar Pradesh","population":516082,"lat":28.75143,"lng":77.29023},{"city":"Siliguri","state":"West Bengal","population":515574,"lat":26.71004,"lng":88.42851},{"city":"Ujjain","state":"Madhya Pradesh","population":515215,"lat":23.18239,"lng":75.77643},{"city":"Bilimora","state":"Gujarat","population":510879,"lat":20.76957,"lng":72.96134},{"city":"Karol Bāgh","state":"Delhi","population":505241,"lat":28.65136,"lng":77.19072},{"city":"Āsansol","state":"West Bengal","population":504271,"lat":23.68333,"lng":86.98333},{"city":"Mangaluru","state":"Karnataka","population":499487,"lat":12.91723,"lng":74.85603},{"city":"Belagavi","state":"Karnataka","population":490045,"lat":15.85212,"lng":74.50447},{"city":"Sahāranpur","state":"Uttar Pradesh","population":484873,"lat":29.9679,"lng":77.54522},{"city":"Vellore","state":"Tamil Nadu","population":484690,"lat":12.9184,"lng":79.13255},{"city":"Bhātpāra","state":"West Bengal","population":483129,"lat":22.86643,"lng":88.40113},{"city":"Malegaon","state":"Maharashtra","population":481228,"lat":20.54966,"lng":74.53462},{"city":"Gaya","state":"Bihar","population":474093,"lat":24.79686,"lng":85.00385},{"city":"Ambattur","state":"Tamil Nadu","population":466205,"lat":13.09818,"lng":80.16152},{"city":"Jalgaon","state":"Maharashtra","population":460228,"lat":21.00292,"lng":75.56602},{"city":"Kurnool","state":"Andhra Pradesh","population":460184,"lat":15.82887,"lng":78.03602},{"city":"Rāmgundam","state":"Telangana","population":452261,"lat":18.80084,"lng":79.45206},{"city":"Udaipur","state":"Rajasthan","population":451100,"lat":24.58584,"lng":73.71346},{"city":"Maheshtala","state":"West Bengal","population":448317,"lat":22.50862,"lng":88.25322},{"city":"Patiāla","state":"Punjab","population":446246,"lat":30.33625,"lng":76.3922},{"city":"Shyamnagar","state":"West Bengal","population":441956,"lat":22.83333,"lng":88.36667},{"city":"Davangere","state":"Karnataka","population":435128,"lat":14.46693,"lng":75.92694},{"city":"Akola","state":"Maharashtra","population":428857,"lat":20.70957,"lng":76.9981},{"city":"Rajpur Sonarpur","state":"West Bengal","population":424368,"lat":22.4382,"lng":88.43205},{"city":"Korba","state":"Chhattisgarh","population":419146,"lat":22.3458,"lng":82.69633},{"city":"Jhānsi","state":"Uttar Pradesh","population":412927,"lat":25.45887,"lng":78.57994},{"city":"Thoothukudi","state":"Tamil Nadu","population":410760,"lat":8.76735,"lng":78.13425},{"city":"Ballari","state":"Karnataka","population":410445,"lat":15.14205,"lng":76.92398},{"city":"Bhāgalpur","state":"Bihar","population":400146,"lat":25.24446,"lng":86.97183},{"city":"Agartala","state":"Tripura","population":400004,"lat":23.83605,"lng":91.27939},{"city":"Kākināda","state":"Andhra Pradesh","population":384182,"lat":16.96036,"lng":82.23809},{"city":"Latur","state":"Maharashtra","population":382940,"lat":18.39721,"lng":76.56784},{"city":"Pānihāti","state":"West Bengal","population":378705,"lat":22.69089,"lng":88.37404},{"city":"Rajamahendravaram","state":"Andhra Pradesh","population":376333,"lat":17.00517,"lng":81.77784},{"city":"Dhule","state":"Maharashtra","population":375559,"lat":20.9013,"lng":74.77737},{"city":"Rohtak","state":"Haryana","population":374292,"lat":28.89447,"lng":76.58917},{"city":"Ahilyanagar","state":"Maharashtra","population":367140,"lat":19.09457,"lng":74.73843},{"city":"Kollam","state":"Kerala","population":367107,"lat":8.88113,"lng":76.58469},{"city":"Bilāspur","state":"Chhattisgarh","population":365579,"lat":22.08005,"lng":82.15543},{"city":"Bhilwara","state":"Rajasthan","population":359483,"lat":25.34707,"lng":74.64081},{"city":"Brahmapur","state":"Odisha","population":356598,"lat":19.31151,"lng":84.7929},{"city":"Muzaffarpur","state":"Bihar","population":354462,"lat":26.12259,"lng":85.39055},{"city":"Punāsa","state":"Madhya Pradesh","population":350000,"lat":22.23507,"lng":76.39335},{"city":"Muzaffarnagar","state":"Uttar Pradesh","population":349706,"lat":29.47091,"lng":77.70332},{"city":"Avadi","state":"Tamil Nadu","population":345996,"lat":13.1147,"lng":80.10981},{"city":"Kadapa","state":"Andhra Pradesh","population":344893,"lat":14.47995,"lng":78.82346},{"city":"Kukatpally","state":"Telangana","population":341709,"lat":17.48486,"lng":78.41376},{"city":"Kāmārhāti","state":"West Bengal","population":332965,"lat":22.67111,"lng":88.37472},{"city":"Mathura","state":"Uttar Pradesh","population":330511,"lat":27.5035,"lng":77.67215},{"city":"Chānda","state":"Maharashtra","population":328351,"lat":19.95076,"lng":79.29523},{"city":"Vijayapura","state":"Karnataka","population":327427,"lat":16.82442,"lng":75.71537},{"city":"Shivamogga","state":"Karnataka","population":322650,"lat":13.93157,"lng":75.56791},{"city":"Alwar","state":"Rajasthan","population":322568,"lat":27.56246,"lng":76.625},{"city":"Shāhjānpur","state":"Uttar Pradesh","population":320434,"lat":27.88165,"lng":79.90918},{"city":"Jūnāgadh","state":"Gujarat","population":319462,"lat":21.51966,"lng":70.45981},{"city":"New Delhi","state":"Delhi","population":317797,"lat":28.62137,"lng":77.2148},{"city":"Thrissur","state":"Kerala","population":315957,"lat":10.51667,"lng":76.21667},{"city":"Nizāmābād","state":"Telangana","population":311152,"lat":18.67154,"lng":78.0988},{"city":"Tumkūr","state":"Karnataka","population":307359,"lat":13.34136,"lng":77.1022},{"city":"Parbhani","state":"Maharashtra","population":307170,"lat":19.26855,"lng":76.77081},{"city":"Hisar","state":"Haryana","population":307024,"lat":29.15394,"lng":75.72294},{"city":"Fīrozābād","state":"Uttar Pradesh","population":306409,"lat":27.15092,"lng":78.39781},{"city":"Kulti","state":"West Bengal","population":305405,"lat":23.73166,"lng":86.84372},{"city":"Karnāl","state":"Haryana","population":302140,"lat":29.69197,"lng":76.98448},{"city":"Barddhamān","state":"West Bengal","population":301725,"lat":23.25572,"lng":87.85691},{"city":"Gundupālaiyam","state":"Puducherry","population":300104,"lat":11.94096,"lng":79.80294},{"city":"Bārāsat","state":"West Bengal","population":298127,"lat":22.72154,"lng":88.48198},{"city":"Mulugu","state":"Telangana","population":297671,"lat":18.191,"lng":79.943},{"city":"Bihār Sharīf","state":"Bihar","population":297268,"lat":25.20084,"lng":85.52389},{"city":"Bāli","state":"West Bengal","population":296973,"lat":22.64859,"lng":88.34115},{"city":"Rāmpur","state":"Uttar Pradesh","population":296418,"lat":28.81014,"lng":79.02699},{"city":"Darbhanga","state":"Bihar","population":296039,"lat":26.15216,"lng":85.89707},{"city":"Panipat","state":"Haryana","population":295970,"lat":29.38747,"lng":76.96825},{"city":"Tirupati","state":"Andhra Pradesh","population":295323,"lat":13.63551,"lng":79.41989},{"city":"Greater Noida","state":"Uttar Pradesh","population":293908,"lat":28.49615,"lng":77.53601},{"city":"Noida","state":"Uttar Pradesh","population":293908,"lat":28.58,"lng":77.33},{"city":"Aizawl","state":"Mizoram","population":293416,"lat":23.72894,"lng":92.71791},{"city":"Gandhinagar","state":"Gujarat","population":292797,"lat":23.21667,"lng":72.68333},{"city":"Dindigul","state":"Tamil Nadu","population":292512,"lat":10.36896,"lng":77.98036},{"city":"Thanjavur","state":"Tamil Nadu","population":291067,"lat":10.78523,"lng":79.13909},{"city":"Karīmnagar","state":"Telangana","population":289821,"lat":18.43915,"lng":79.12856},{"city":"Dewas","state":"Madhya Pradesh","population":289550,"lat":22.96585,"lng":76.05526},{"city":"Sonīpat","state":"Haryana","population":289333,"lat":28.99478,"lng":77.01937},{"city":"Ichalkaranji","state":"Maharashtra","population":287353,"lat":16.69117,"lng":74.46054},{"city":"Bathinda","state":"Punjab","population":285788,"lat":30.20747,"lng":74.93893},{"city":"Jālna","state":"Maharashtra","population":285577,"lat":19.84102,"lng":75.88636},{"city":"Kirāri Sulemānnagar","state":"Delhi","population":283211,"lat":28.69736,"lng":77.0648},{"city":"Satna","state":"Madhya Pradesh","population":282977,"lat":24.57726,"lng":80.82719},{"city":"Purnia","state":"Bihar","population":282248,"lat":25.77895,"lng":87.47422},{"city":"Imphal","state":"Manipur","population":277196,"lat":24.80805,"lng":93.9442},{"city":"Saugor","state":"Madhya Pradesh","population":274556,"lat":23.83877,"lng":78.73874},{"city":"Kushinagar","state":"Uttar Pradesh","population":274403,"lat":26.74134,"lng":83.88689},{"city":"Rourkela","state":"Odisha","population":273317,"lat":22.22496,"lng":84.86414},{"city":"Durg","state":"Chhattisgarh","population":268806,"lat":21.19147,"lng":81.27619},{"city":"Anantapur","state":"Andhra Pradesh","population":267161,"lat":14.67784,"lng":77.60813},{"city":"Ratlām","state":"Madhya Pradesh","population":264914,"lat":23.33033,"lng":75.04032},{"city":"Rānipet","state":"Tamil Nadu","population":264330,"lat":12.92471,"lng":79.33331},{"city":"Lal Bahadur Nagar","state":"Telangana","population":261987,"lat":17.34769,"lng":78.55757},{"city":"Arrah","state":"Bihar","population":261430,"lat":25.55629,"lng":84.66335},{"city":"Baranagar","state":"West Bengal","population":260072,"lat":22.64132,"lng":88.37727},{"city":"Gajuwaka","state":"Andhra Pradesh","population":258944,"lat":17.7,"lng":83.21667},{"city":"Etāwah","state":"Uttar Pradesh","population":257448,"lat":26.77615,"lng":79.02133},{"city":"Ambarnath","state":"Maharashtra","population":253475,"lat":19.2,"lng":73.16667},{"city":"Naihāti","state":"West Bengal","population":253221,"lat":22.89396,"lng":88.41521},{"city":"Bharatpur","state":"Rajasthan","population":252838,"lat":27.21731,"lng":77.49009},{"city":"Begusarai","state":"Bihar","population":252008,"lat":25.41853,"lng":86.13389},{"city":"Tiruvottiyūr","state":"Tamil Nadu","population":249446,"lat":13.15823,"lng":80.30181},{"city":"Gāndhīdhām","state":"Gujarat","population":247992,"lat":23.08333,"lng":70.13333},{"city":"Mau","state":"Uttar Pradesh","population":246050,"lat":25.94167,"lng":83.56111},{"city":"Sīkar","state":"Rajasthan","population":244497,"lat":27.61206,"lng":75.13996},{"city":"Ramagundam","state":"Telangana","population":242979,"lat":18.755,"lng":79.474},{"city":"Hāpur","state":"Uttar Pradesh","population":242920,"lat":28.72985,"lng":77.78068},{"city":"Farrukhābād","state":"Uttar Pradesh","population":241152,"lat":27.39134,"lng":79.5793},{"city":"Alappuzha","state":"Kerala","population":240991,"lat":9.49004,"lng":76.3264},{"city":"Katihar","state":"Bihar","population":240838,"lat":25.53852,"lng":87.57044},{"city":"Sri Ganganagar","state":"Rajasthan","population":237780,"lat":29.92009,"lng":73.87496},{"city":"Rewa","state":"Madhya Pradesh","population":235654,"lat":24.53256,"lng":81.29234},{"city":"Uluberiya","state":"West Bengal","population":235345,"lat":22.4756,"lng":88.09898},{"city":"Sivakasi","state":"Tamil Nadu","population":234704,"lat":9.44999,"lng":77.79797},{"city":"Karur","state":"Tamil Nadu","population":234191,"lat":10.95771,"lng":78.08095},{"city":"Rāichūr","state":"Karnataka","population":234073,"lat":16.20546,"lng":77.35567},{"city":"Pallāvaram","state":"Tamil Nadu","population":233984,"lat":12.96796,"lng":80.15025},{"city":"Ooty","state":"Tamil Nadu","population":233426,"lat":11.4134,"lng":76.69521},{"city":"Pāli","state":"Rajasthan","population":230075,"lat":25.77276,"lng":73.32335},{"city":"Hosūr","state":"Tamil Nadu","population":229528,"lat":12.73647,"lng":77.83264},{"city":"Vizianagaram","state":"Andhra Pradesh","population":228720,"lat":18.11692,"lng":83.41148},{"city":"Shrīrāmpur","state":"West Bengal","population":226317,"lat":22.75278,"lng":88.34222},{"city":"Quthbullapur","state":"Telangana","population":225816,"lat":17.50107,"lng":78.45818},{"city":"Nadiād","state":"Gujarat","population":225071,"lat":22.69385,"lng":72.86157},{"city":"Nāgercoil","state":"Tamil Nadu","population":224849,"lat":8.17899,"lng":77.43227},{"city":"Karāwalnagar","state":"Delhi","population":224281,"lat":28.72712,"lng":77.27047},{"city":"Mango","state":"Jharkhand","population":223805,"lat":22.8275,"lng":86.21639},{"city":"Gosāba","state":"West Bengal","population":222764,"lat":22.16547,"lng":88.8007},{"city":"Murwāra","state":"Madhya Pradesh","population":221883,"lat":23.83776,"lng":80.39405},{"city":"Kanchipuram","state":"Tamil Nadu","population":221715,"lat":12.83515,"lng":79.70006},{"city":"Singrauli","state":"Madhya Pradesh","population":220257,"lat":24.19973,"lng":82.67535},{"city":"Mirzāpur","state":"Uttar Pradesh","population":220029,"lat":25.1449,"lng":82.56534},{"city":"Kharagpur","state":"West Bengal","population":219665,"lat":22.33971,"lng":87.32501},{"city":"Eluru","state":"Andhra Pradesh","population":218020,"lat":16.71311,"lng":81.10437},{"city":"Rāniganj","state":"Telangana","population":217910,"lat":17.42841,"lng":78.49361},{"city":"Yamuna Nagar","state":"Haryana","population":217071,"lat":30.12796,"lng":77.28371},{"city":"Raurkela Industrial Township","state":"Odisha","population":216410,"lat":22.19994,"lng":84.86176},{"city":"Bidar","state":"Karnataka","population":216020,"lat":17.90802,"lng":77.51524},{"city":"Munger","state":"Bihar","population":213303,"lat":25.37459,"lng":86.47455},{"city":"Nandyāl","state":"Andhra Pradesh","population":211424,"lat":15.47799,"lng":78.4836},{"city":"Panchkula","state":"Haryana","population":211355,"lat":30.69461,"lng":76.8504},{"city":"Burhānpur","state":"Madhya Pradesh","population":210886,"lat":21.30868,"lng":76.23026},{"city":"Morvi","state":"Gujarat","population":210451,"lat":22.81731,"lng":70.8377},{"city":"Anand","state":"Gujarat","population":209410,"lat":22.55251,"lng":72.9552},{"city":"Ongole","state":"Andhra Pradesh","population":208344,"lat":15.50357,"lng":80.04454},{"city":"Hosapete","state":"Karnataka","population":206167,"lat":15.26954,"lng":76.3871},{"city":"Nāngloi Jāt","state":"Delhi","population":205596,"lat":28.67957,"lng":77.06799},{"city":"Secunderabad","state":"Telangana","population":204182,"lat":17.50427,"lng":78.54263},{"city":"Deoghar","state":"Jharkhand","population":203123,"lat":24.48983,"lng":86.69902},{"city":"Chāpra","state":"Bihar","population":202352,"lat":25.78031,"lng":84.74709},{"city":"Khandwa","state":"Madhya Pradesh","population":200738,"lat":21.82427,"lng":76.35086},{"city":"Puri","state":"Odisha","population":200564,"lat":19.79825,"lng":85.82494},{"city":"Morena","state":"Madhya Pradesh","population":200482,"lat":26.49892,"lng":77.99534},{"city":"Gyānpur","state":"Uttar Pradesh","population":200000,"lat":25.33268,"lng":82.46637},{"city":"Bulandshahr","state":"Uttar Pradesh","population":198612,"lat":28.40392,"lng":77.85773},{"city":"Bhind","state":"Madhya Pradesh","population":197585,"lat":26.56671,"lng":78.78728},{"city":"Bhālswa Jahangirpur","state":"Delhi","population":197148,"lat":28.73558,"lng":77.16682},{"city":"Khammam","state":"Telangana","population":196283,"lat":17.24767,"lng":80.14368},{"city":"Sambhal","state":"Uttar Pradesh","population":196109,"lat":28.58498,"lng":78.56959},{"city":"Bhiwāni","state":"Haryana","population":196057,"lat":28.79304,"lng":76.13968},{"city":"Panvel","state":"Maharashtra","population":195373,"lat":18.98878,"lng":73.11013},{"city":"Ambāla","state":"Haryana","population":195153,"lat":30.36099,"lng":76.79782},{"city":"Kumarapalayam","state":"Tamil Nadu","population":195071,"lat":11.44495,"lng":77.71102},{"city":"Machilīpatnam","state":"Andhra Pradesh","population":192827,"lat":16.18747,"lng":81.13888},{"city":"Mahesāna","state":"Gujarat","population":190753,"lat":23.59864,"lng":72.38472},{"city":"Mahbūbnagar","state":"Telangana","population":190400,"lat":16.74385,"lng":77.98597},{"city":"Sambalpur","state":"Odisha","population":189366,"lat":21.46527,"lng":83.97573},{"city":"Bhusawal","state":"Maharashtra","population":187421,"lat":21.04365,"lng":75.78506},{"city":"Raebareli","state":"Uttar Pradesh","population":186433,"lat":26.2309,"lng":81.23315},{"city":"Haridwar","state":"Uttarakhand","population":186079,"lat":29.94791,"lng":78.16025},{"city":"Phusro","state":"Jharkhand","population":185555,"lat":23.75644,"lng":86.0051},{"city":"Adoni","state":"Andhra Pradesh","population":184625,"lat":15.62788,"lng":77.27495},{"city":"Sūjāngarh","state":"Rajasthan","population":183808,"lat":27.7,"lng":74.46667},{"city":"Sirsa","state":"Haryana","population":182534,"lat":29.53489,"lng":75.02898},{"city":"Dinapur Nizamat","state":"Bihar","population":182429,"lat":25.63847,"lng":85.05118},{"city":"Bahraigh","state":"Uttar Pradesh","population":182218,"lat":27.57429,"lng":81.59474},{"city":"Kāraikkudi","state":"Tamil Nadu","population":181851,"lat":10.06615,"lng":78.76784},{"city":"Sultan Pur Majra","state":"Delhi","population":181554,"lat":28.68966,"lng":77.07648},{"city":"Guna","state":"Madhya Pradesh","population":180935,"lat":24.64691,"lng":77.3113},{"city":"Chandannagar","state":"West Bengal","population":180623,"lat":22.86225,"lng":88.36796},{"city":"Baharampur","state":"West Bengal","population":180547,"lat":24.10473,"lng":88.25155},{"city":"Shahuwadi","state":"Maharashtra","population":180322,"lat":16.90993,"lng":73.94654},{"city":"Madanapalle","state":"Andhra Pradesh","population":180180,"lat":13.5503,"lng":78.50288},{"city":"Shivpuri","state":"Madhya Pradesh","population":179977,"lat":25.42378,"lng":77.66223},{"city":"Surendranagar","state":"Gujarat","population":179628,"lat":22.72706,"lng":71.64856},{"city":"Neyveli","state":"Tamil Nadu","population":179150,"lat":11.60877,"lng":79.4994},{"city":"Silchar","state":"Assam","population":178865,"lat":24.82733,"lng":92.79787},{"city":"Proddatūr","state":"Andhra Pradesh","population":177797,"lat":14.7502,"lng":78.54813},{"city":"Hugli","state":"West Bengal","population":177005,"lat":22.90877,"lng":88.39674},{"city":"Hashtsāl","state":"Delhi","population":176877,"lat":28.63406,"lng":77.05771},{"city":"Amroha","state":"Uttar Pradesh","population":176253,"lat":28.90314,"lng":78.46984},{"city":"Chhindwāra","state":"Madhya Pradesh","population":175052,"lat":22.05697,"lng":78.93958},{"city":"Tambaram","state":"Tamil Nadu","population":174787,"lat":12.9246,"lng":80.12707},{"city":"Bhetia","state":"Jharkhand","population":174355,"lat":22.79321,"lng":86.14098},{"city":"Pathānkot","state":"Punjab","population":174306,"lat":32.27484,"lng":75.65287},{"city":"Badlapur","state":"Maharashtra","population":174226,"lat":19.15516,"lng":73.26553},{"city":"Cuddalore","state":"Tamil Nadu","population":173636,"lat":11.75617,"lng":79.76693},{"city":"Shimla","state":"Himachal Pradesh","population":173503,"lat":31.10442,"lng":77.16662},{"city":"Gadag-Betageri","state":"Karnataka","population":172813,"lat":15.4167,"lng":75.6167},{"city":"Gadag","state":"Karnataka","population":172612,"lat":15.42977,"lng":75.62971},{"city":"Verāval","state":"Gujarat","population":171121,"lat":20.9077,"lng":70.36786},{"city":"Navsari","state":"Gujarat","population":171109,"lat":20.94237,"lng":72.92467},{"city":"Bahadurgarh","state":"Haryana","population":170767,"lat":28.69287,"lng":76.93555},{"city":"Haldia","state":"West Bengal","population":170695,"lat":22.06046,"lng":88.10975},{"city":"Rāiganj","state":"West Bengal","population":170252,"lat":25.61281,"lng":88.12449},{"city":"Malda","state":"West Bengal","population":170039,"lat":25.00447,"lng":88.14573},{"city":"Jaunpur","state":"Uttar Pradesh","population":169572,"lat":25.75356,"lng":82.68689},{"city":"Deoli","state":"Delhi","population":169122,"lat":28.50254,"lng":77.23117},{"city":"Bharūch","state":"Gujarat","population":169007,"lat":21.69482,"lng":72.9805},{"city":"Hoshiārpur","state":"Punjab","population":168653,"lat":31.53723,"lng":75.91269},{"city":"Jīnd","state":"Haryana","population":167592,"lat":29.31577,"lng":76.31502},{"city":"Kumbakonam","state":"Tamil Nadu","population":167155,"lat":10.96209,"lng":79.39124},{"city":"Mohali","state":"Punjab","population":166864,"lat":30.67995,"lng":76.72211},{"city":"Fatehpur","state":"Uttar Pradesh","population":166480,"lat":25.92774,"lng":80.81266},{"city":"Tonk","state":"Rajasthan","population":165294,"lat":26.16638,"lng":75.78824},{"city":"Udupi","state":"Karnataka","population":165000,"lat":13.33467,"lng":74.74617},{"city":"Thenali","state":"Andhra Pradesh","population":164937,"lat":16.24253,"lng":80.63982},{"city":"Sītāpur","state":"Uttar Pradesh","population":164435,"lat":27.56192,"lng":80.68265},{"city":"Alandur","state":"Tamil Nadu","population":164430,"lat":13.0025,"lng":80.20611},{"city":"Bhadrāvati","state":"Karnataka","population":163903,"lat":13.84846,"lng":75.70502},{"city":"Vapi","state":"Gujarat","population":163630,"lat":20.37175,"lng":72.90493},{"city":"Moga","state":"Punjab","population":163397,"lat":30.81383,"lng":75.16878},{"city":"Rāj-Nāndgaon","state":"Chhattisgarh","population":163114,"lat":21.09687,"lng":81.0289},{"city":"Robertsonpet","state":"Karnataka","population":162230,"lat":12.95629,"lng":78.27539},{"city":"Unnāo","state":"Uttar Pradesh","population":161671,"lat":26.54706,"lng":80.48781},{"city":"Budaun","state":"Uttar Pradesh","population":161555,"lat":28.03811,"lng":79.12668},{"city":"Madhyamgram","state":"West Bengal","population":161126,"lat":22.68944,"lng":88.44594},{"city":"Chittoor","state":"Andhra Pradesh","population":160722,"lat":13.21055,"lng":79.0956},{"city":"Jāmuria","state":"West Bengal","population":160242,"lat":23.70468,"lng":87.07872},{"city":"Jaigaon","state":"West Bengal","population":158664,"lat":26.84766,"lng":89.37558},{"city":"Batāla","state":"Punjab","population":158621,"lat":31.80921,"lng":75.20294},{"city":"Orai","state":"Uttar Pradesh","population":158265,"lat":25.99023,"lng":79.45334},{"city":"Saharsa","state":"Bihar","population":156540,"lat":25.87498,"lng":86.59611},{"city":"Vidisha","state":"Madhya Pradesh","population":155951,"lat":23.52604,"lng":77.81092},{"city":"Hanumāngarh","state":"Rajasthan","population":155687,"lat":29.58182,"lng":74.32938},{"city":"Thānesar","state":"Haryana","population":155152,"lat":29.97323,"lng":76.83214},{"city":"Hassan","state":"Karnataka","population":155006,"lat":13.00715,"lng":76.0962},{"city":"Kishangarh","state":"Rajasthan","population":154886,"lat":26.59006,"lng":74.85397},{"city":"Dalūpura","state":"Delhi","population":154791,"lat":28.6057,"lng":77.31901},{"city":"Rudrapur","state":"Uttarakhand","population":154554,"lat":28.98,"lng":79.4},{"city":"Nalgonda","state":"Telangana","population":154326,"lat":17.05439,"lng":79.26707},{"city":"Hazāribāgh","state":"Jharkhand","population":153595,"lat":23.99241,"lng":85.36162},{"city":"Medinīpur","state":"West Bengal","population":153349,"lat":22.42114,"lng":87.32257},{"city":"Bālurghāt","state":"West Bengal","population":153279,"lat":25.22099,"lng":88.77732},{"city":"Fyzābād","state":"Uttar Pradesh","population":153047,"lat":26.77549,"lng":82.15018},{"city":"Dinapore","state":"Bihar","population":152940,"lat":25.63705,"lng":85.04794},{"city":"Porbandar","state":"Gujarat","population":152760,"lat":21.64219,"lng":69.60929},{"city":"Bānda","state":"Uttar Pradesh","population":152218,"lat":25.47758,"lng":80.33491},{"city":"Hindupur","state":"Andhra Pradesh","population":151677,"lat":13.82807,"lng":77.49143},{"city":"Beāwar","state":"Rajasthan","population":151152,"lat":26.10119,"lng":74.32028},{"city":"Anantnag","state":"Jammu and Kashmir","population":150592,"lat":33.73068,"lng":75.15418},{"city":"Serilingampalle","state":"Telangana","population":150525,"lat":17.49313,"lng":78.30196},{"city":"Raigarh","state":"Chhattisgarh","population":150019,"lat":21.89764,"lng":83.3966},{"city":"Malkajgiri","state":"Telangana","population":150000,"lat":17.44781,"lng":78.52633},{"city":"Shāntipur","state":"West Bengal","population":149983,"lat":23.24723,"lng":88.43302},{"city":"Bhuj","state":"Gujarat","population":148834,"lat":23.25397,"lng":69.66928},{"city":"Bārākpur","state":"West Bengal","population":148174,"lat":22.76602,"lng":88.36336},{"city":"Hājīpur","state":"Bihar","population":147688,"lat":25.68544,"lng":85.20981},{"city":"Sasarām","state":"Bihar","population":147408,"lat":24.94942,"lng":84.01645},{"city":"Bhimavaram","state":"Andhra Pradesh","population":146961,"lat":16.54078,"lng":81.52322},{"city":"Beed","state":"Maharashtra","population":146709,"lat":18.98921,"lng":75.75634},{"city":"Burāri","state":"Delhi","population":146190,"lat":28.7557,"lng":77.19941},{"city":"Krishnanagar","state":"West Bengal","population":145926,"lat":23.40576,"lng":88.49073},{"city":"Chitradurga","state":"Karnataka","population":145853,"lat":14.22262,"lng":76.40038},{"city":"Dibrugarh","state":"Assam","population":145488,"lat":27.47989,"lng":94.90837},{"city":"Abohar","state":"Punjab","population":145302,"lat":30.14453,"lng":74.19552},{"city":"Tiruvannamalai","state":"Tamil Nadu","population":145278,"lat":12.22662,"lng":79.07461},{"city":"Kaithal","state":"Haryana","population":144915,"lat":29.80153,"lng":76.39959},{"city":"Balasore","state":"Odisha","population":144373,"lat":21.49266,"lng":86.93348},{"city":"Godhra","state":"Gujarat","population":143644,"lat":22.77547,"lng":73.61488},{"city":"Shillong","state":"Meghalaya","population":143229,"lat":25.56892,"lng":91.88313},{"city":"Rewāri","state":"Haryana","population":143021,"lat":28.199,"lng":76.6183},{"city":"Chhatarpur","state":"Madhya Pradesh","population":142128,"lat":24.9177,"lng":79.58871},{"city":"Mandsaur","state":"Madhya Pradesh","population":141667,"lat":24.07184,"lng":75.06986},{"city":"Chas","state":"Jharkhand","population":141640,"lat":23.63556,"lng":86.16712},{"city":"Pālanpur","state":"Gujarat","population":141592,"lat":24.17128,"lng":72.43827},{"city":"Lakhīmpur","state":"Uttar Pradesh","population":140223,"lat":27.94822,"lng":80.77935},{"city":"Valsād","state":"Gujarat","population":139764,"lat":20.61013,"lng":72.93428},{"city":"Damoh","state":"Madhya Pradesh","population":139561,"lat":23.83312,"lng":79.4419},{"city":"Haldwani","state":"Uttarakhand","population":139497,"lat":29.22254,"lng":79.5286},{"city":"Hābra","state":"West Bengal","population":139297,"lat":22.84202,"lng":88.65606},{"city":"Kolār","state":"Karnataka","population":138462,"lat":13.13768,"lng":78.12999},{"city":"Srikakulam","state":"Andhra Pradesh","population":137944,"lat":18.2989,"lng":83.89751},{"city":"Mandya","state":"Karnataka","population":137358,"lat":12.5223,"lng":76.89746},{"city":"Madhurampur Dehri","state":"Bihar","population":137231,"lat":24.96899,"lng":84.1964},{"city":"Kānchrāpāra","state":"West Bengal","population":136954,"lat":22.95998,"lng":88.42849},{"city":"Dimāpur","state":"Nagaland","population":135860,"lat":25.91174,"lng":93.7217},{"city":"Māler Kotla","state":"Punjab","population":135424,"lat":30.5309,"lng":75.87949},{"city":"Siwān","state":"Bihar","population":135066,"lat":26.22096,"lng":84.35609},{"city":"Kalol","state":"Gujarat","population":134426,"lat":23.24656,"lng":72.49508},{"city":"Bānkura","state":"West Bengal","population":133966,"lat":23.23241,"lng":87.0716},{"city":"Pātan","state":"Gujarat","population":133737,"lat":23.8507,"lng":72.12963},{"city":"Gondā City","state":"Uttar Pradesh","population":133583,"lat":27.13181,"lng":81.95332},{"city":"Dhaulpur","state":"Rajasthan","population":133075,"lat":26.69286,"lng":77.87968},{"city":"Gondiā","state":"Maharashtra","population":132813,"lat":21.46026,"lng":80.19205},{"city":"Palakkad","state":"Kerala","population":132728,"lat":10.77319,"lng":76.65366},{"city":"Bettiah","state":"Bihar","population":132209,"lat":26.80229,"lng":84.50311},{"city":"Palwal","state":"Haryana","population":131926,"lat":28.14469,"lng":77.32546},{"city":"Rānīganj","state":"West Bengal","population":131261,"lat":23.6164,"lng":87.13061},{"city":"Pīlibhīt","state":"Uttar Pradesh","population":131008,"lat":28.63124,"lng":79.80436},{"city":"Rajapalayam","state":"Tamil Nadu","population":130442,"lat":9.45296,"lng":77.55335},{"city":"Botad","state":"Gujarat","population":130327,"lat":22.16917,"lng":71.66671},{"city":"Deoria","state":"Uttar Pradesh","population":129570,"lat":26.50167,"lng":83.77936},{"city":"Nimach","state":"Rajasthan","population":128561,"lat":24.45949,"lng":74.86625},{"city":"Khardah","state":"West Bengal","population":128346,"lat":22.71861,"lng":88.37806},{"city":"Yavatmāl","state":"Maharashtra","population":128175,"lat":20.39324,"lng":78.13201},{"city":"Hālīsahar","state":"West Bengal","population":128172,"lat":22.93218,"lng":88.41859},{"city":"Khanna","state":"Punjab","population":128137,"lat":30.70547,"lng":76.22196},{"city":"Titāgarh","state":"West Bengal","population":127751,"lat":22.74252,"lng":88.37326},{"city":"Mustafābād","state":"Delhi","population":127167,"lat":28.71974,"lng":77.26781},{"city":"Hāthras","state":"Uttar Pradesh","population":126882,"lat":27.59551,"lng":78.05201},{"city":"Jorhat","state":"Assam","population":126736,"lat":26.75751,"lng":94.20306},{"city":"Lalitpur","state":"Uttar Pradesh","population":126475,"lat":24.69007,"lng":78.41915},{"city":"Guntakal","state":"Andhra Pradesh","population":126270,"lat":15.17112,"lng":77.36244},{"city":"Pithampur","state":"Madhya Pradesh","population":126200,"lat":22.60197,"lng":75.69649},{"city":"Mothīhāri","state":"Bihar","population":126158,"lat":26.64862,"lng":84.91656},{"city":"Kanhangad","state":"Kerala","population":125564,"lat":12.30814,"lng":75.10632},{"city":"Jagdalpur","state":"Chhattisgarh","population":125463,"lat":19.08136,"lng":82.02131},{"city":"Jagādhri","state":"Haryana","population":124894,"lat":30.16719,"lng":77.30367},{"city":"Dārjiling","state":"West Bengal","population":123797,"lat":27.03333,"lng":88.26667},{"city":"Kurichchi","state":"Tamil Nadu","population":123667,"lat":10.96085,"lng":76.97379},{"city":"Dam Dam","state":"West Bengal","population":122719,"lat":22.63341,"lng":88.42286},{"city":"Hardoī","state":"Uttar Pradesh","population":122635,"lat":27.39491,"lng":80.13165},{"city":"Puruliya","state":"West Bengal","population":122533,"lat":23.33062,"lng":86.36303},{"city":"Dharmavaram","state":"Andhra Pradesh","population":121874,"lat":14.41435,"lng":77.72035},{"city":"Gokalpur","state":"Delhi","population":121870,"lat":28.7029,"lng":77.28961},{"city":"Bhadreswar","state":"West Bengal","population":121662,"lat":22.82449,"lng":88.33841},{"city":"Nagaon","state":"Assam","population":121628,"lat":26.35,"lng":92.66667},{"city":"Vejalpur","state":"Gujarat","population":121610,"lat":22.69021,"lng":73.56299},{"city":"Chikmagalūr","state":"Karnataka","population":121484,"lat":13.32231,"lng":75.774},{"city":"Bhadrak","state":"Odisha","population":121338,"lat":21.05447,"lng":86.5156},{"city":"Sawai Madhopur","state":"Rajasthan","population":121106,"lat":26.02301,"lng":76.34408},{"city":"Ambikāpur","state":"Chhattisgarh","population":121071,"lat":23.11892,"lng":83.19537},{"city":"Mandoli","state":"Delhi","population":120417,"lat":28.70275,"lng":77.30995},{"city":"Satara","state":"Maharashtra","population":120195,"lat":17.68589,"lng":73.99333},{"city":"Chūru","state":"Rajasthan","population":120157,"lat":28.30415,"lng":74.96718},{"city":"Gangāpur","state":"Rajasthan","population":120115,"lat":26.47249,"lng":76.71744},{"city":"Madhavaram","state":"Tamil Nadu","population":119105,"lat":13.14819,"lng":80.2314},{"city":"Dohad","state":"Gujarat","population":118846,"lat":22.83283,"lng":74.25986},{"city":"Barshi","state":"Maharashtra","population":118722,"lat":18.23454,"lng":75.69275},{"city":"Ādilābād","state":"Telangana","population":118526,"lat":19.67203,"lng":78.5359},{"city":"Jhunjhunūn","state":"Rajasthan","population":118473,"lat":28.12559,"lng":75.39797},{"city":"Jetpur","state":"Gujarat","population":118302,"lat":21.75482,"lng":70.62347},{"city":"Uppal Kalan","state":"Telangana","population":118259,"lat":17.40577,"lng":78.55911},{"city":"Gudivāda","state":"Andhra Pradesh","population":118167,"lat":16.43547,"lng":80.99555},{"city":"Bārān","state":"Rajasthan","population":117992,"lat":25.1,"lng":76.51667},{"city":"Narmadapuram","state":"Madhya Pradesh","population":117988,"lat":22.74747,"lng":77.72736},{"city":"Amreli","state":"Gujarat","population":117967,"lat":21.59983,"lng":71.21169},{"city":"Pudukkottai","state":"Tamil Nadu","population":117630,"lat":10.38128,"lng":78.82141},{"city":"Narasaraopet","state":"Andhra Pradesh","population":117489,"lat":16.23488,"lng":80.04927},{"city":"Rishra","state":"West Bengal","population":117014,"lat":22.72394,"lng":88.34563},{"city":"Baripāda","state":"Odisha","population":116849,"lat":21.93458,"lng":86.72852},{"city":"Muktsar","state":"Punjab","population":116747,"lat":30.47426,"lng":74.5166},{"city":"Azamgarh","state":"Uttar Pradesh","population":116644,"lat":26.06832,"lng":83.18358},{"city":"Barnāla","state":"Punjab","population":116449,"lat":30.37451,"lng":75.5487},{"city":"Yelahanka","state":"Karnataka","population":116447,"lat":13.10073,"lng":77.59632},{"city":"Chittorgarh","state":"Rajasthan","population":116406,"lat":24.88963,"lng":74.62403},{"city":"Tinsukia","state":"Assam","population":116322,"lat":27.48905,"lng":95.35992},{"city":"Khargone","state":"Madhya Pradesh","population":116150,"lat":21.82292,"lng":75.61394},{"city":"Baidyabāti","state":"West Bengal","population":115504,"lat":22.78498,"lng":88.32586},{"city":"Bastī","state":"Uttar Pradesh","population":115115,"lat":26.78817,"lng":82.71617},{"city":"Gangavati","state":"Karnataka","population":114642,"lat":15.4313,"lng":76.52933},{"city":"Ambur","state":"Tamil Nadu","population":114608,"lat":12.79163,"lng":78.71644},{"city":"Giridih","state":"Jharkhand","population":114533,"lat":24.18622,"lng":86.30875},{"city":"Wardha","state":"Maharashtra","population":113759,"lat":20.73933,"lng":78.59784},{"city":"Tadepalligudem","state":"Andhra Pradesh","population":112655,"lat":16.81467,"lng":81.52717},{"city":"Chanduasi","state":"Uttar Pradesh","population":112635,"lat":28.45178,"lng":78.78277},{"city":"Bagaha","state":"Bihar","population":112634,"lat":27.09918,"lng":84.09003},{"city":"Achalpur","state":"Maharashtra","population":112311,"lat":21.25665,"lng":77.51006},{"city":"Gondal","state":"Gujarat","population":112197,"lat":21.96074,"lng":70.80255},{"city":"Dharashiv","state":"Maharashtra","population":112085,"lat":18.18158,"lng":76.03889},{"city":"Port Blair","state":"Andaman and Nicobar","population":112050,"lat":11.66613,"lng":92.74635},{"city":"Bagalkot","state":"Karnataka","population":111933,"lat":16.18673,"lng":75.69614},{"city":"Suriāpet","state":"Telangana","population":111729,"lat":17.14054,"lng":79.62045},{"city":"Bangaon","state":"West Bengal","population":111693,"lat":23.04553,"lng":88.83084},{"city":"Ashoknagar Kalyangarh","state":"West Bengal","population":111475,"lat":22.86416,"lng":88.63701},{"city":"Deesa","state":"Gujarat","population":111160,"lat":24.25612,"lng":72.17928},{"city":"Navadwīp","state":"West Bengal","population":111123,"lat":23.4067,"lng":88.36861},{"city":"Nandurbar","state":"Maharashtra","population":111037,"lat":21.36671,"lng":74.24051},{"city":"Sultānpur","state":"Uttar Pradesh","population":110368,"lat":26.25788,"lng":82.07269},{"city":"Delhi Cantonment","state":"Delhi","population":110351,"lat":28.6,"lng":77.13333},{"city":"Firozpur","state":"Punjab","population":110313,"lat":30.92574,"lng":74.61311},{"city":"Sehore","state":"Madhya Pradesh","population":109118,"lat":23.2,"lng":77.08333},{"city":"Bānsbāria","state":"West Bengal","population":108474,"lat":22.95387,"lng":88.40098},{"city":"Tadpatri","state":"Andhra Pradesh","population":108171,"lat":14.90832,"lng":78.01031},{"city":"Jalpāiguri","state":"West Bengal","population":107832,"lat":26.51667,"lng":88.73333},{"city":"Mangalagiri","state":"Andhra Pradesh","population":107197,"lat":16.43083,"lng":80.56815},{"city":"Ranebennur","state":"Karnataka","population":106406,"lat":14.62239,"lng":75.62951},{"city":"Khurja","state":"Uttar Pradesh","population":105909,"lat":28.25382,"lng":77.85535},{"city":"Kishanganj","state":"Bihar","population":105782,"lat":26.10224,"lng":87.95534},{"city":"Ponnāni","state":"Kerala","population":105512,"lat":10.76695,"lng":75.92523},{"city":"Hindaun","state":"Rajasthan","population":105452,"lat":26.73411,"lng":77.03519},{"city":"Jamālpur","state":"Bihar","population":105434,"lat":25.31258,"lng":86.48888},{"city":"Nāgaur","state":"Rajasthan","population":105218,"lat":27.20201,"lng":73.73394},{"city":"Ambala Sadar","state":"Haryana","population":104974,"lat":30.33544,"lng":76.86265},{"city":"Bhiwadi","state":"Rajasthan","population":104921,"lat":28.21024,"lng":76.86056},{"city":"Būndi","state":"Rajasthan","population":104919,"lat":25.43855,"lng":75.63735},{"city":"Miryalaguda","state":"Telangana","population":104918,"lat":16.8722,"lng":79.56247},{"city":"Soyībug","state":"Jammu and Kashmir","population":104000,"lat":34.07677,"lng":74.7057},{"city":"Jagtiāl","state":"Telangana","population":103930,"lat":18.79473,"lng":78.91661},{"city":"Roorkee","state":"Uttarakhand","population":103894,"lat":29.86632,"lng":77.89118},{"city":"Udgīr","state":"Maharashtra","population":103550,"lat":18.39258,"lng":77.11756},{"city":"Nagda","state":"Madhya Pradesh","population":103501,"lat":23.45834,"lng":75.41759},{"city":"Betūl","state":"Madhya Pradesh","population":103330,"lat":21.90056,"lng":77.90229},{"city":"Jahānābād","state":"Bihar","population":103202,"lat":25.21368,"lng":84.9871},{"city":"Kashipur","state":"Uttarakhand","population":103138,"lat":29.21399,"lng":78.95693},{"city":"Ghazīpur","state":"Uttar Pradesh","population":103095,"lat":25.58333,"lng":83.58526},{"city":"Amaravati","state":"Andhra Pradesh","population":103000,"lat":16.514,"lng":80.516},{"city":"Nagapattinam","state":"Tamil Nadu","population":102905,"lat":10.76377,"lng":79.84313},{"city":"Buxar","state":"Bihar","population":102861,"lat":25.57548,"lng":83.98043},{"city":"Mormugao","state":"Goa","population":102345,"lat":15.38914,"lng":73.81491},{"city":"Seoni","state":"Madhya Pradesh","population":102343,"lat":22.08503,"lng":79.55037},{"city":"Aurangābād","state":"Bihar","population":102244,"lat":24.75204,"lng":84.3742},{"city":"Hinganghāt","state":"Maharashtra","population":101805,"lat":20.54875,"lng":78.83978},{"city":"Dhamtari","state":"Chhattisgarh","population":101677,"lat":20.70718,"lng":81.54874},{"city":"Chilakalūrupet","state":"Andhra Pradesh","population":101398,"lat":16.08987,"lng":80.16705},{"city":"Malappuram","state":"Kerala","population":101386,"lat":11.04199,"lng":76.08154},{"city":"Bānswāra","state":"Rajasthan","population":101017,"lat":23.54109,"lng":74.4425},{"city":"Chirmiri","state":"Chhattisgarh","population":100800,"lat":23.19073,"lng":82.35314},{"city":"Itārsi","state":"Madhya Pradesh","population":100574,"lat":22.61477,"lng":77.76222},{"city":"Vasco da Gama","state":"Goa","population":100485,"lat":15.39585,"lng":73.81568},{"city":"Gangtok","state":"Sikkim","population":100286,"lat":27.32574,"lng":88.61216},{"city":"Datia","state":"Madhya Pradesh","population":100284,"lat":25.67312,"lng":78.45908},{"city":"Phagwāra","state":"Punjab","population":100146,"lat":31.22452,"lng":75.77387},{"city":"Airoli","state":"Maharashtra","population":100000,"lat":19.15096,"lng":72.99625},{"city":"Luckeesarai","state":"Bihar","population":99979,"lat":25.1765,"lng":86.0947},{"city":"Shikohābād","state":"Uttar Pradesh","population":99678,"lat":27.108,"lng":78.58661},{"city":"Kāsganj","state":"Uttar Pradesh","population":99462,"lat":27.80882,"lng":78.64579},{"city":"Khambhāt","state":"Gujarat","population":99164,"lat":22.31744,"lng":72.61916},{"city":"Kohima","state":"Nagaland","population":99039,"lat":25.67467,"lng":94.11099},{"city":"Pandharpur","state":"Maharashtra","population":98923,"lat":17.67924,"lng":75.33098},{"city":"Kapurthala Town","state":"Punjab","population":98916,"lat":31.38011,"lng":75.38105},{"city":"Mahuva","state":"Gujarat","population":98519,"lat":21.09007,"lng":71.76904},{"city":"Silvassa","state":"Dadra and Nagar Haveli and Daman and Diu","population":98265,"lat":20.27386,"lng":72.99673},{"city":"Balāngīr","state":"Odisha","population":98238,"lat":20.70419,"lng":83.49029},{"city":"Mughal Sarāi","state":"Uttar Pradesh","population":98043,"lat":25.28307,"lng":83.11968},{"city":"Nawāda","state":"Bihar","population":98029,"lat":24.8867,"lng":85.54364},{"city":"Bhilai Charoda","state":"Chhattisgarh","population":98008,"lat":21.22305,"lng":81.45609},{"city":"Shāmli","state":"Uttar Pradesh","population":97966,"lat":29.4497,"lng":77.30959},{"city":"Jharsuguda","state":"Odisha","population":97730,"lat":21.85531,"lng":84.00698},{"city":"Sādatpur Gujran","state":"Delhi","population":97641,"lat":28.72834,"lng":77.24817},{"city":"Chalisgaon","state":"Maharashtra","population":97551,"lat":20.45781,"lng":75.01596},{"city":"Villupuram","state":"Tamil Nadu","population":97380,"lat":11.93975,"lng":79.49244},{"city":"Amalner","state":"Maharashtra","population":97369,"lat":21.03983,"lng":75.05887},{"city":"Tellicherry","state":"Kerala","population":97201,"lat":11.74811,"lng":75.4929},{"city":"Manjeri","state":"Kerala","population":97102,"lat":11.12018,"lng":76.11996},{"city":"Birgaon","state":"Chhattisgarh","population":96294,"lat":21.30758,"lng":81.62793},{"city":"Bārmer","state":"Rajasthan","population":96225,"lat":25.74572,"lng":71.39211},{"city":"Pūth Kalān","state":"Delhi","population":96002,"lat":28.7116,"lng":77.07887},{"city":"Kuniyamuttūr","state":"Tamil Nadu","population":95924,"lat":10.96376,"lng":76.95254},{"city":"Sardārshahr","state":"Rajasthan","population":95911,"lat":28.44062,"lng":74.491},{"city":"Sānand","state":"Gujarat","population":95890,"lat":22.99227,"lng":72.38177},{"city":"Sāhibganj","state":"Jharkhand","population":95890,"lat":25.24425,"lng":87.63481},{"city":"Paramagudi","state":"Tamil Nadu","population":95579,"lat":9.54633,"lng":78.5907},{"city":"Zerakpur","state":"Punjab","population":95553,"lat":30.65622,"lng":76.82093},{"city":"Tiruchengode","state":"Tamil Nadu","population":95335,"lat":11.38016,"lng":77.89444},{"city":"Closepet","state":"Karnataka","population":95167,"lat":12.72181,"lng":77.28149},{"city":"Emmiganūr","state":"Andhra Pradesh","population":95149,"lat":15.77203,"lng":77.48345},{"city":"Vaniyambadi","state":"Tamil Nadu","population":95061,"lat":12.68162,"lng":78.62014},{"city":"Kovilpatti","state":"Tamil Nadu","population":95057,"lat":9.17167,"lng":77.86989},{"city":"Parli Vaijnāth","state":"Maharashtra","population":94863,"lat":18.85057,"lng":76.53163},{"city":"Mainpuri","state":"Uttar Pradesh","population":94619,"lat":27.22857,"lng":79.02882},{"city":"Khāmgaon","state":"Maharashtra","population":94604,"lat":20.70738,"lng":76.56827},{"city":"Makrāna","state":"Rajasthan","population":94487,"lat":27.04361,"lng":74.72445},{"city":"Allinagaram","state":"Tamil Nadu","population":94453,"lat":10.02737,"lng":77.47815},{"city":"Gudiyatham","state":"Tamil Nadu","population":93973,"lat":12.94601,"lng":78.87377},{"city":"Dhār","state":"Madhya Pradesh","population":93917,"lat":22.59373,"lng":75.29774},{"city":"Baraut","state":"Uttar Pradesh","population":93544,"lat":29.10199,"lng":77.26334},{"city":"Kalyani","state":"West Bengal","population":93184,"lat":22.9757,"lng":88.4337},{"city":"Doddaballapura","state":"Karnataka","population":93105,"lat":13.29452,"lng":77.53777},{"city":"Chīrāla","state":"Andhra Pradesh","population":92942,"lat":15.82385,"lng":80.35219},{"city":"Akot","state":"Maharashtra","population":92637,"lat":21.0963,"lng":77.0588},{"city":"Fatehpur","state":"Rajasthan","population":92595,"lat":27.99486,"lng":74.95628},{"city":"Gharroli","state":"Delhi","population":92540,"lat":28.6167,"lng":77.33207},{"city":"Rajpura","state":"Punjab","population":92301,"lat":30.47856,"lng":76.59284},{"city":"Ballarpur","state":"Maharashtra","population":92146,"lat":19.84696,"lng":79.34578},{"city":"Kot Kapūra","state":"Punjab","population":91979,"lat":30.58061,"lng":74.82609},{"city":"Bhandāra","state":"Maharashtra","population":91845,"lat":21.16817,"lng":79.64885},{"city":"Molārband","state":"Delhi","population":91402,"lat":28.50295,"lng":77.31442},{"city":"Bagaha","state":"Bihar","population":91383,"lat":24.52898,"lng":85.06019},{"city":"Rayachoti","state":"Andhra Pradesh","population":91234,"lat":14.05723,"lng":78.75056},{"city":"Kadayanallur","state":"Tamil Nadu","population":90364,"lat":9.07277,"lng":77.34152},{"city":"Valparai","state":"Tamil Nadu","population":90353,"lat":10.32691,"lng":76.95116},{"city":"Pollachi","state":"Tamil Nadu","population":90180,"lat":10.65825,"lng":77.0085},{"city":"Kāvali","state":"Andhra Pradesh","population":90099,"lat":14.9163,"lng":79.99449},{"city":"Roha","state":"Maharashtra","population":90000,"lat":18.43687,"lng":73.11964},{"city":"Mancherial","state":"Telangana","population":89935,"lat":18.87074,"lng":79.42863},{"city":"Avaniyāpuram","state":"Tamil Nadu","population":89635,"lat":9.88179,"lng":78.11255},{"city":"Murādnagar","state":"Uttar Pradesh","population":89482,"lat":28.78069,"lng":77.49865},{"city":"Ankleshwar","state":"Gujarat","population":89457,"lat":21.63236,"lng":72.99001},{"city":"Kadiri","state":"Andhra Pradesh","population":89429,"lat":14.11168,"lng":78.15982},{"city":"Shahdol","state":"Madhya Pradesh","population":89289,"lat":23.29356,"lng":81.3619},{"city":"Shrirampur","state":"Maharashtra","population":89282,"lat":19.62201,"lng":74.65699},{"city":"Mahobā","state":"Uttar Pradesh","population":89170,"lat":25.2905,"lng":79.87533},{"city":"Rāmgarh","state":"Jharkhand","population":88781,"lat":23.6303,"lng":85.52156},{"city":"Contai","state":"West Bengal","population":88702,"lat":21.77985,"lng":87.74892},{"city":"Sangrūr","state":"Punjab","population":88615,"lat":30.24506,"lng":75.84488},{"city":"Nirmal","state":"Telangana","population":88433,"lat":19.09685,"lng":78.34407},{"city":"Deoband","state":"Uttar Pradesh","population":88171,"lat":29.69505,"lng":77.67964},{"city":"Neyyāttinkara","state":"Kerala","population":88104,"lat":8.39854,"lng":77.08586},{"city":"Tāndā","state":"Uttar Pradesh","population":88073,"lat":26.54953,"lng":82.65841},{"city":"Kolar","state":"Madhya Pradesh","population":87882,"lat":23.16478,"lng":77.41893},{"city":"Jhumri Telaiya","state":"Jharkhand","population":87867,"lat":24.4349,"lng":85.52951},{"city":"Aruppukkottai","state":"Tamil Nadu","population":87722,"lat":9.5096,"lng":78.09588},{"city":"Farīdkot","state":"Punjab","population":87695,"lat":30.67399,"lng":74.75579},{"city":"Madgaon","state":"Goa","population":87650,"lat":15.27501,"lng":73.95786},{"city":"Velampālaiyam","state":"Tamil Nadu","population":87427,"lat":11.13764,"lng":77.31064},{"city":"Jamūī","state":"Bihar","population":87357,"lat":24.92606,"lng":86.22531},{"city":"Anjār","state":"Gujarat","population":87183,"lat":23.11316,"lng":70.02671},{"city":"Paralakhemundi","state":"Odisha","population":87152,"lat":18.77619,"lng":84.09504},{"city":"Jharia","state":"Jharkhand","population":86938,"lat":23.74079,"lng":86.41456},{"city":"Kāraikāl","state":"Puducherry","population":86838,"lat":10.91667,"lng":79.83333},{"city":"Kāmthi","state":"Maharashtra","population":86793,"lat":21.21615,"lng":79.1973},{"city":"Hānsi","state":"Haryana","population":86770,"lat":29.10239,"lng":75.96253},{"city":"Mayiladuthurai","state":"Tamil Nadu","population":86660,"lat":11.10354,"lng":79.655},{"city":"Anakapalle","state":"Andhra Pradesh","population":86519,"lat":17.69134,"lng":83.00395},{"city":"Maduravoyal","state":"Tamil Nadu","population":86195,"lat":13.0675,"lng":80.1632},{"city":"Sārni","state":"Madhya Pradesh","population":86141,"lat":22.10317,"lng":78.17159},{"city":"Dausa","state":"Rajasthan","population":85960,"lat":26.89,"lng":76.33584},{"city":"Parādīp Garh","state":"Odisha","population":85868,"lat":20.31641,"lng":86.6085},{"city":"Hingoli","state":"Maharashtra","population":85103,"lat":19.71464,"lng":77.14238},{"city":"Bāruni","state":"Bihar","population":84888,"lat":25.47509,"lng":85.96813},{"city":"Jeypore","state":"Odisha","population":84830,"lat":18.8563,"lng":82.5716},{"city":"Bijnor","state":"Uttar Pradesh","population":84593,"lat":29.373,"lng":78.13636},{"city":"Dhoraji","state":"Gujarat","population":84545,"lat":21.73359,"lng":70.45004},{"city":"Vīrappanchathiram","state":"Tamil Nadu","population":84453,"lat":11.35314,"lng":77.71253},{"city":"Bālāghāt","state":"Madhya Pradesh","population":84261,"lat":21.8156,"lng":80.18845},{"city":"Udhampur","state":"Jammu and Kashmir","population":84015,"lat":32.92431,"lng":75.13573},{"city":"Najībābād","state":"Uttar Pradesh","population":84006,"lat":29.61194,"lng":78.34274},{"city":"Idaiyarpālaiyam","state":"Tamil Nadu","population":83908,"lat":11.03937,"lng":76.92369},{"city":"Harihar","state":"Karnataka","population":83219,"lat":14.51288,"lng":75.80716},{"city":"Chilla Soroda Bāngar","state":"Delhi","population":83217,"lat":28.59572,"lng":77.30189},{"city":"Sirsilla","state":"Telangana","population":83186,"lat":18.38865,"lng":78.81048},{"city":"Karauli","state":"Rajasthan","population":82960,"lat":26.49831,"lng":77.02755},{"city":"Mānsa","state":"Punjab","population":82956,"lat":29.98844,"lng":75.40167},{"city":"Jangipur","state":"West Bengal","population":82548,"lat":24.47001,"lng":88.07659},{"city":"Gobindgarh","state":"Punjab","population":82266,"lat":30.67089,"lng":76.30192},{"city":"Saunda","state":"Jharkhand","population":81915,"lat":23.66453,"lng":85.32694},{"city":"Maraimalainagar","state":"Tamil Nadu","population":81872,"lat":12.79782,"lng":80.02502},{"city":"Ashoknagar","state":"Madhya Pradesh","population":81828,"lat":24.57578,"lng":77.73123},{"city":"Phulwari Sharif","state":"Bihar","population":81740,"lat":25.57765,"lng":85.07246},{"city":"Mhow","state":"Madhya Pradesh","population":81702,"lat":22.5589,"lng":75.76543},{"city":"Malout","state":"Punjab","population":81406,"lat":30.21121,"lng":74.4818},{"city":"Kadi","state":"Gujarat","population":81404,"lat":23.29908,"lng":72.33362},{"city":"Vijalpor","state":"Gujarat","population":81245,"lat":20.92212,"lng":72.90945},{"city":"Palakollu","state":"Andhra Pradesh","population":81199,"lat":16.5167,"lng":81.73},{"city":"Himatnagar","state":"Gujarat","population":81137,"lat":23.59893,"lng":72.96602},{"city":"Dholka","state":"Gujarat","population":80945,"lat":22.72732,"lng":72.44128},{"city":"Kotkapura","state":"Punjab","population":80741,"lat":30.5819,"lng":74.83298},{"city":"Bargarh","state":"Odisha","population":80625,"lat":21.33348,"lng":83.61905},{"city":"Kharghar","state":"Maharashtra","population":80612,"lat":19.04979,"lng":73.07024},{"city":"Kairāna","state":"Uttar Pradesh","population":80432,"lat":29.39541,"lng":77.2054},{"city":"Brajarajnagar","state":"Odisha","population":80403,"lat":21.81667,"lng":83.91667},{"city":"Kāmāreddi","state":"Telangana","population":80315,"lat":18.32001,"lng":78.34177},{"city":"Palwancha","state":"Telangana","population":80199,"lat":17.58152,"lng":80.67651},{"city":"Manmād","state":"Maharashtra","population":80058,"lat":20.25334,"lng":74.43755},{"city":"Srikalahasti","state":"Andhra Pradesh","population":80056,"lat":13.75514,"lng":79.70143},{"city":"Kottagūdem","state":"Telangana","population":79819,"lat":17.55106,"lng":80.61779},{"city":"Nawābganj","state":"Uttar Pradesh","population":79246,"lat":26.93129,"lng":81.19841},{"city":"Gokak","state":"Karnataka","population":79121,"lat":16.16901,"lng":74.82393},{"city":"Tīkamgarh","state":"Madhya Pradesh","population":79106,"lat":24.74327,"lng":78.83061},{"city":"Arakkonam","state":"Tamil Nadu","population":79080,"lat":13.08449,"lng":79.67053},{"city":"Arāria","state":"Bihar","population":79021,"lat":26.14934,"lng":87.51323},{"city":"Koch Bihār","state":"West Bengal","population":78737,"lat":26.32539,"lng":89.44508},{"city":"Kharakvasla","state":"Maharashtra","population":78684,"lat":18.43997,"lng":73.77545},{"city":"Bhadohi","state":"Uttar Pradesh","population":78568,"lat":25.39526,"lng":82.5703},{"city":"Kātoya","state":"West Bengal","population":78408,"lat":23.64558,"lng":88.13258},{"city":"Medininagar","state":"Jharkhand","population":78396,"lat":24.03971,"lng":84.0658},{"city":"Wāshīm","state":"Maharashtra","population":78387,"lat":20.11128,"lng":77.133},{"city":"Bagbera","state":"Jharkhand","population":78356,"lat":22.75948,"lng":86.19049},{"city":"Savarkundla","state":"Gujarat","population":78354,"lat":21.33726,"lng":71.3035},{"city":"Basoda","state":"Madhya Pradesh","population":78289,"lat":23.85153,"lng":77.93652},{"city":"Tanuku","state":"Andhra Pradesh","population":77962,"lat":16.75438,"lng":81.68143},{"city":"Gurdaspur","state":"Punjab","population":77928,"lat":32.03933,"lng":75.40318},{"city":"Edattala","state":"Kerala","population":77811,"lat":10.05639,"lng":76.38451},{"city":"Bodhan","state":"Telangana","population":77573,"lat":18.66208,"lng":77.88581},{"city":"Balrāmpur","state":"Uttar Pradesh","population":77396,"lat":27.42949,"lng":82.18545},{"city":"Bāramūla","state":"Jammu and Kashmir","population":77276,"lat":34.209,"lng":74.34285},{"city":"Karwar","state":"Karnataka","population":77139,"lat":14.81361,"lng":74.12972},{"city":"Dhuliān","state":"West Bengal","population":77070,"lat":24.68127,"lng":87.9535},{"city":"Rabkavi-Banhatti","state":"Karnataka","population":77004,"lat":16.47,"lng":75.12},{"city":"Mawāna","state":"Uttar Pradesh","population":76973,"lat":29.10288,"lng":77.92199},{"city":"Shirpur","state":"Maharashtra","population":76905,"lat":21.34821,"lng":74.88035},{"city":"Budge Budge","state":"West Bengal","population":76837,"lat":22.48275,"lng":88.18176},{"city":"Kundla","state":"Gujarat","population":76809,"lat":21.34222,"lng":71.30633},{"city":"Visnagar","state":"Gujarat","population":76753,"lat":23.69855,"lng":72.5521},{"city":"Kannauj","state":"Uttar Pradesh","population":76714,"lat":27.05524,"lng":79.9188},{"city":"Khajoori Khas","state":"Delhi","population":76640,"lat":28.70958,"lng":77.2587},{"city":"Neelankarai","state":"Tamil Nadu","population":76600,"lat":12.9495,"lng":80.2592},{"city":"Nagīna","state":"Uttar Pradesh","population":76593,"lat":29.44433,"lng":78.43646},{"city":"Badagara","state":"Kerala","population":76493,"lat":11.59776,"lng":75.58142},{"city":"Fazilka","state":"Punjab","population":76492,"lat":30.40207,"lng":74.02836},{"city":"Electronic City Phase I","state":"Karnataka","population":76348,"lat":12.85492,"lng":77.6633},{"city":"Ratnagiri","state":"Maharashtra","population":76229,"lat":16.99154,"lng":73.31022},{"city":"Keshod","state":"Gujarat","population":76193,"lat":21.30328,"lng":70.24861},{"city":"Konnagar","state":"West Bengal","population":76082,"lat":22.70508,"lng":88.34446},{"city":"Chintamani","state":"Karnataka","population":76068,"lat":13.40051,"lng":78.05172},{"city":"Pammal","state":"Tamil Nadu","population":75870,"lat":12.975,"lng":80.13472},{"city":"Sindhnūr","state":"Karnataka","population":75837,"lat":15.76983,"lng":76.75581},{"city":"Madhubani","state":"Bihar","population":75736,"lat":26.35367,"lng":86.07169},{"city":"Bodināyakkanūr","state":"Tamil Nadu","population":75680,"lat":10.01171,"lng":77.34976},{"city":"Khadki","state":"Maharashtra","population":75654,"lat":18.5635,"lng":73.85205},{"city":"Dhrāngadhra","state":"Gujarat","population":75578,"lat":22.99167,"lng":71.46793},{"city":"Tezpur","state":"Assam","population":75540,"lat":26.63333,"lng":92.8},{"city":"Srivilliputhur","state":"Tamil Nadu","population":75396,"lat":9.51272,"lng":77.63369},{"city":"Benipur","state":"Bihar","population":75317,"lat":26.05509,"lng":86.14557},{"city":"Pāloncha","state":"Telangana","population":75224,"lat":17.60184,"lng":80.70509},{"city":"Jaora","state":"Madhya Pradesh","population":74907,"lat":23.63783,"lng":75.12711},{"city":"Tura","state":"Meghalaya","population":74858,"lat":25.51421,"lng":90.20239},{"city":"Gūdūr","state":"Andhra Pradesh","population":74851,"lat":14.15093,"lng":79.8521},{"city":"Narnaul","state":"Haryana","population":74581,"lat":28.04444,"lng":76.10833},{"city":"Balotra","state":"Rajasthan","population":74496,"lat":25.83242,"lng":72.24},{"city":"Kharar","state":"Punjab","population":74460,"lat":30.74632,"lng":76.64689},{"city":"Yadgir","state":"Karnataka","population":74294,"lat":16.77007,"lng":77.13755},{"city":"Harda","state":"Madhya Pradesh","population":74268,"lat":22.34414,"lng":77.09536},{"city":"Pilkhua","state":"Uttar Pradesh","population":74212,"lat":28.71271,"lng":77.656},{"city":"Ambājogāi","state":"Maharashtra","population":74114,"lat":18.73312,"lng":76.38616},{"city":"Kāpas Herd","state":"Delhi","population":74073,"lat":28.52614,"lng":77.08396},{"city":"Bela","state":"Uttar Pradesh","population":73992,"lat":25.92058,"lng":81.99629},{"city":"Rabkavi","state":"Karnataka","population":73835,"lat":16.47567,"lng":75.1106},{"city":"Bawāna","state":"Delhi","population":73680,"lat":28.7982,"lng":77.03431},{"city":"Shāhābād","state":"Uttar Pradesh","population":73606,"lat":27.6431,"lng":79.9402},{"city":"Virudhachalam","state":"Tamil Nadu","population":73585,"lat":11.51497,"lng":79.32824},{"city":"Chāndpur","state":"Uttar Pradesh","population":73555,"lat":29.13489,"lng":78.27187},{"city":"Kāsipālaiyam","state":"Tamil Nadu","population":73425,"lat":11.31984,"lng":77.70971},{"city":"Sikandarābād","state":"Uttar Pradesh","population":73379,"lat":28.45226,"lng":77.70004},{"city":"Virudunagar","state":"Tamil Nadu","population":73273,"lat":9.58509,"lng":77.95787},{"city":"Pattukkottai","state":"Tamil Nadu","population":73135,"lat":10.42358,"lng":79.31949},{"city":"Pusad","state":"Maharashtra","population":73046,"lat":19.91274,"lng":77.57838},{"city":"Tindivanam","state":"Tamil Nadu","population":72796,"lat":12.234,"lng":79.65551},{"city":"Chopda","state":"Maharashtra","population":72783,"lat":21.24578,"lng":75.29946},{"city":"Taliparamba","state":"Kerala","population":72465,"lat":12.04161,"lng":75.35927},{"city":"Sangāreddi","state":"Telangana","population":72344,"lat":17.62477,"lng":78.08669},{"city":"Pālghar","state":"Maharashtra","population":72335,"lat":19.69693,"lng":72.76543},{"city":"Dharapuram","state":"Tamil Nadu","population":72291,"lat":10.73828,"lng":77.53223},{"city":"Payyanur","state":"Kerala","population":72111,"lat":12.0935,"lng":75.20249},{"city":"Sheopur","state":"Madhya Pradesh","population":71951,"lat":25.66472,"lng":76.69616},{"city":"Channapatna","state":"Karnataka","population":71942,"lat":12.65143,"lng":77.20672},{"city":"Koyilandy","state":"Kerala","population":71873,"lat":11.4381,"lng":75.69306},{"city":"Farīdpur","state":"Uttar Pradesh","population":71783,"lat":28.20997,"lng":79.54149},{"city":"Barauni","state":"Bihar","population":71660,"lat":25.4709,"lng":85.976},{"city":"Krishnagiri","state":"Tamil Nadu","population":71323,"lat":12.51921,"lng":78.21382},{"city":"Sopur","state":"Jammu and Kashmir","population":71292,"lat":34.28671,"lng":74.47228},{"city":"Rāyagada","state":"Odisha","population":71208,"lat":19.17132,"lng":83.41428},{"city":"Zahirābād","state":"Telangana","population":71166,"lat":17.68138,"lng":77.60743},{"city":"Khopoli","state":"Maharashtra","population":71141,"lat":18.78562,"lng":73.34589},{"city":"Ratangarh","state":"Rajasthan","population":71124,"lat":28.08137,"lng":74.61854},{"city":"Mārkāpur","state":"Andhra Pradesh","population":71092,"lat":15.73534,"lng":79.26848},{"city":"Kalamassery","state":"Kerala","population":71038,"lat":10.0614,"lng":76.32631},{"city":"Bolpur","state":"West Bengal","population":70998,"lat":23.66278,"lng":87.69695},{"city":"Panjim","state":"Goa","population":70991,"lat":15.49574,"lng":73.82624},{"city":"Rānāghāt","state":"West Bengal","population":70984,"lat":23.17623,"lng":88.56667},{"city":"Fatehābād","state":"Haryana","population":70777,"lat":29.51525,"lng":75.45554},{"city":"Bāpatla","state":"Andhra Pradesh","population":70777,"lat":15.90422,"lng":80.46743},{"city":"Beypore","state":"Kerala","population":70751,"lat":11.17151,"lng":75.80611},{"city":"Koppal","state":"Karnataka","population":70698,"lat":15.34522,"lng":76.15478},{"city":"Badvel","state":"Andhra Pradesh","population":70626,"lat":14.7451,"lng":79.06288},{"city":"Dādri","state":"Uttar Pradesh","population":70609,"lat":28.55257,"lng":77.55403},{"city":"Thenkasi","state":"Tamil Nadu","population":70545,"lat":8.96003,"lng":77.31525},{"city":"Suratgarh","state":"Rajasthan","population":70536,"lat":29.3215,"lng":73.89979},{"city":"Auraiya","state":"Uttar Pradesh","population":70508,"lat":26.46517,"lng":79.50918},{"city":"Palani","state":"Tamil Nadu","population":70467,"lat":10.45034,"lng":77.5209},{"city":"Nallūr","state":"Tamil Nadu","population":70115,"lat":11.1003,"lng":77.39136},{"city":"Chamrajnagar","state":"Karnataka","population":69875,"lat":11.92312,"lng":76.93949},{"city":"Mīthepur","state":"Delhi","population":69837,"lat":28.4974,"lng":77.31856},{"city":"Māngrol","state":"Gujarat","population":69779,"lat":21.12268,"lng":70.11484},{"city":"Basavakalyan","state":"Karnataka","population":69717,"lat":17.87445,"lng":76.94972},{"city":"Pul Pehlad","state":"Delhi","population":69657,"lat":28.49938,"lng":77.29104},{"city":"Chāībāsa","state":"Jharkhand","population":69565,"lat":22.55038,"lng":85.80249},{"city":"Tripunittura","state":"Kerala","population":69390,"lat":9.94283,"lng":76.33331},{"city":"Shājāpur","state":"Madhya Pradesh","population":69263,"lat":23.42637,"lng":76.27775},{"city":"Mettupalayam","state":"Tamil Nadu","population":69213,"lat":11.29971,"lng":76.93485},{"city":"Sunām","state":"Punjab","population":69069,"lat":30.12883,"lng":75.79943},{"city":"Bhawānipatna","state":"Odisha","population":69045,"lat":19.90717,"lng":83.16697},{"city":"Ziauddin Pur","state":"Delhi","population":68993,"lat":28.70873,"lng":77.27654},{"city":"Jamkhandi","state":"Karnataka","population":68938,"lat":16.50461,"lng":75.29146},{"city":"Basmat","state":"Maharashtra","population":68846,"lat":19.32872,"lng":77.15746},{"city":"Taj Pul","state":"Delhi","population":68796,"lat":28.49482,"lng":77.30587},{"city":"Kayamkulam","state":"Kerala","population":68634,"lat":9.18173,"lng":76.50093},{"city":"Dharmapuri","state":"Tamil Nadu","population":68619,"lat":12.1277,"lng":78.15794},{"city":"Bīsalpur","state":"Uttar Pradesh","population":68355,"lat":28.29253,"lng":79.80472},{"city":"Attili","state":"Andhra Pradesh","population":68196,"lat":16.7,"lng":81.6},{"city":"Cumbum","state":"Tamil Nadu","population":68090,"lat":9.73647,"lng":77.2847},{"city":"Munnar","state":"Kerala","population":68000,"lat":10.08818,"lng":77.06239},{"city":"Panipat Taraf Makhdum Zadgan","state":"Haryana","population":67998,"lat":29.41607,"lng":76.98831},{"city":"Nābha","state":"Punjab","population":67972,"lat":30.37577,"lng":76.15292},{"city":"Bihāt","state":"Bihar","population":67952,"lat":25.42534,"lng":86.02083},{"city":"Samāstipur","state":"Bihar","population":67925,"lat":25.86222,"lng":85.77953},{"city":"Kāranja","state":"Maharashtra","population":67907,"lat":20.48273,"lng":77.48857},{"city":"Sītāmarhi","state":"Bihar","population":67818,"lat":26.59357,"lng":85.4906},{"city":"Rājsamand","state":"Rajasthan","population":67798,"lat":25.07145,"lng":73.8798},{"city":"Malkāpur","state":"Maharashtra","population":67740,"lat":20.88555,"lng":76.19932},{"city":"Modāsa","state":"Gujarat","population":67648,"lat":23.46253,"lng":73.29857},{"city":"Jaisalmer","state":"Rajasthan","population":67604,"lat":26.91763,"lng":70.90387},{"city":"Buldāna","state":"Maharashtra","population":67431,"lat":20.52933,"lng":76.18457},{"city":"Dhenkānāl","state":"Odisha","population":67414,"lat":20.65744,"lng":85.59693},{"city":"Urun-Islāmpur","state":"Maharashtra","population":67391,"lat":17.05,"lng":74.26667},{"city":"Gopālganj","state":"Bihar","population":67339,"lat":26.46734,"lng":84.44041},{"city":"Bongaigaon","state":"Assam","population":67322,"lat":26.47703,"lng":90.55815},{"city":"Sangamner","state":"Maharashtra","population":67309,"lat":19.56784,"lng":74.21154},{"city":"Hāveri","state":"Karnataka","population":67102,"lat":14.79354,"lng":75.40448},{"city":"Mannargudi","state":"Tamil Nadu","population":66999,"lat":10.66626,"lng":79.45064},{"city":"Jhālāwār","state":"Rajasthan","population":66919,"lat":24.59633,"lng":76.16499},{"city":"Tarn Taran","state":"Punjab","population":66847,"lat":31.45191,"lng":74.92777},{"city":"Siddipet","state":"Telangana","population":66737,"lat":18.10483,"lng":78.84858},{"city":"Bellampalli","state":"Telangana","population":66660,"lat":19.05577,"lng":79.493},{"city":"Barbil","state":"Odisha","population":66540,"lat":22.10194,"lng":85.37752},{"city":"Koratla","state":"Telangana","population":66504,"lat":18.82154,"lng":78.71186},{"city":"Rishīkesh","state":"Uttarakhand","population":66390,"lat":30.10778,"lng":78.29255},{"city":"Goyerkāta","state":"West Bengal","population":66358,"lat":26.69984,"lng":89.02565},{"city":"Mandamarri","state":"Telangana","population":66176,"lat":18.96506,"lng":79.47475},{"city":"Puliyankudi","state":"Tamil Nadu","population":66034,"lat":9.17489,"lng":77.39799},{"city":"Palāsa","state":"Andhra Pradesh","population":65833,"lat":18.77257,"lng":84.41012},{"city":"Gohāna","state":"Haryana","population":65708,"lat":29.13777,"lng":76.70247},{"city":"Pulivendla","state":"Andhra Pradesh","population":65706,"lat":14.42139,"lng":78.22502},{"city":"Chengalpattu","state":"Tamil Nadu","population":65689,"lat":12.69184,"lng":79.97661},{"city":"Wadgaon Kolhati","state":"Maharashtra","population":65620,"lat":19.84307,"lng":75.236},{"city":"Lādnūn","state":"Rajasthan","population":65575,"lat":27.65312,"lng":74.39993},{"city":"Supaul","state":"Bihar","population":65437,"lat":26.11527,"lng":86.59509},{"city":"Gangārāmpur","state":"West Bengal","population":65316,"lat":25.40138,"lng":88.52978},{"city":"Ramanathapuram","state":"Tamil Nadu","population":65314,"lat":9.37158,"lng":78.83077},{"city":"Jagraon","state":"Punjab","population":65305,"lat":30.78783,"lng":75.47391},{"city":"Sinnar","state":"Maharashtra","population":65299,"lat":19.84505,"lng":73.99866},{"city":"Kopargaon","state":"Maharashtra","population":65273,"lat":19.88239,"lng":74.47605},{"city":"Alīpur Duār","state":"West Bengal","population":65232,"lat":26.4835,"lng":89.52286},{"city":"Tandur","state":"Telangana","population":65115,"lat":17.24849,"lng":77.57698},{"city":"Khatauli","state":"Uttar Pradesh","population":64731,"lat":29.27844,"lng":77.73302},{"city":"Vīrarāghavapuram","state":"Tamil Nadu","population":64698,"lat":13.07306,"lng":80.10778},{"city":"Siuri","state":"West Bengal","population":64659,"lat":23.90806,"lng":87.52773},{"city":"Bīna","state":"Madhya Pradesh","population":64529,"lat":24.17161,"lng":78.18755},{"city":"Pālitāna","state":"Gujarat","population":64497,"lat":21.52519,"lng":71.82309},{"city":"Chaumu","state":"Rajasthan","population":64417,"lat":27.16955,"lng":75.72226},{"city":"Hālol","state":"Gujarat","population":64265,"lat":22.50321,"lng":73.47242},{"city":"Kodār","state":"Telangana","population":64234,"lat":16.9985,"lng":79.9656},{"city":"Bāngarda Chhota","state":"Madhya Pradesh","population":64213,"lat":22.74354,"lng":75.81448},{"city":"Tādepalle","state":"Andhra Pradesh","population":64149,"lat":16.48333,"lng":80.6},{"city":"Tirupattur","state":"Tamil Nadu","population":64125,"lat":12.49239,"lng":78.56804},{"city":"Chinnachowk","state":"Andhra Pradesh","population":64053,"lat":14.47516,"lng":78.8354},{"city":"Bishnupur","state":"West Bengal","population":64041,"lat":23.0738,"lng":87.31991},{"city":"Āmūr","state":"Telangana","population":64023,"lat":18.79284,"lng":78.27666},{"city":"Baheri","state":"Uttar Pradesh","population":63953,"lat":28.77416,"lng":79.4974},{"city":"Nawalgarh","state":"Rajasthan","population":63948,"lat":27.85161,"lng":75.27384},{"city":"Ānaiyūr","state":"Tamil Nadu","population":63917,"lat":9.96152,"lng":78.1118},{"city":"Kunnamkulam","state":"Kerala","population":63903,"lat":10.64667,"lng":76.06695},{"city":"Rāghogarh","state":"Madhya Pradesh","population":63873,"lat":24.44318,"lng":77.19768},{"city":"Tohāna","state":"Haryana","population":63871,"lat":29.71332,"lng":75.90441},{"city":"Jatani","state":"Odisha","population":63697,"lat":20.15975,"lng":85.70742},{"city":"Arni","state":"Tamil Nadu","population":63671,"lat":12.66771,"lng":79.28529},{"city":"Chik Ballāpur","state":"Karnataka","population":63652,"lat":13.43512,"lng":77.72787},{"city":"Dhubri","state":"Assam","population":63388,"lat":26.01856,"lng":89.98564},{"city":"Borsad","state":"Gujarat","population":63377,"lat":22.40788,"lng":72.89817},{"city":"Gadwāl","state":"Telangana","population":63177,"lat":16.23504,"lng":77.79556},{"city":"Pidugurālla","state":"Andhra Pradesh","population":63103,"lat":16.47926,"lng":79.88632},{"city":"Sheikhpura","state":"Bihar","population":62927,"lat":25.13994,"lng":85.84096},{"city":"Sirsi","state":"Karnataka","population":62882,"lat":14.62072,"lng":74.83554},{"city":"Nipāni","state":"Maharashtra","population":62865,"lat":16.399,"lng":74.38285},{"city":"Kannur","state":"Kerala","population":62836,"lat":11.86752,"lng":75.35763},{"city":"Bāri","state":"Rajasthan","population":62721,"lat":26.64661,"lng":77.61634},{"city":"Nokha","state":"Rajasthan","population":62699,"lat":27.56155,"lng":73.47141},{"city":"Vinukonda","state":"Andhra Pradesh","population":62550,"lat":16.0531,"lng":79.73964},{"city":"Renukūt","state":"Uttar Pradesh","population":62413,"lat":24.21641,"lng":83.0358},{"city":"Nagari","state":"Andhra Pradesh","population":62253,"lat":13.32139,"lng":79.58557},{"city":"Chidambaram","state":"Tamil Nadu","population":62153,"lat":11.39933,"lng":79.69144},{"city":"Dabwāli","state":"Haryana","population":62113,"lat":29.94906,"lng":74.73832},{"city":"Sibsāgar","state":"Assam","population":62104,"lat":26.98427,"lng":94.63784},{"city":"Narwāna","state":"Haryana","population":62090,"lat":29.59903,"lng":76.11927},{"city":"Okha","state":"Gujarat","population":62052,"lat":22.46756,"lng":69.07002},{"city":"Kuchāman","state":"Rajasthan","population":61969,"lat":27.14745,"lng":74.85655},{"city":"Nīmbāhera","state":"Rajasthan","population":61949,"lat":24.62166,"lng":74.67999},{"city":"Siddhapur","state":"Gujarat","population":61867,"lat":23.91783,"lng":72.37212},{"city":"Diphu","state":"Assam","population":61797,"lat":25.84341,"lng":93.43116},{"city":"Attur","state":"Tamil Nadu","population":61793,"lat":11.59414,"lng":78.60143},{"city":"Rāyadrug","state":"Andhra Pradesh","population":61749,"lat":14.69971,"lng":76.85241},{"city":"Rāth","state":"Uttar Pradesh","population":61728,"lat":25.59474,"lng":79.5666},{"city":"Cheruvannur","state":"Kerala","population":61614,"lat":11.19033,"lng":75.82833},{"city":"Vriddhāchalam","state":"Tamil Nadu","population":61498,"lat":11.5183,"lng":79.32411},{"city":"Bārh","state":"Bihar","population":61470,"lat":25.48339,"lng":85.70928},{"city":"Shāhāda","state":"Maharashtra","population":61376,"lat":21.54538,"lng":74.47106},{"city":"Dabra","state":"Madhya Pradesh","population":61277,"lat":25.88572,"lng":78.33221},{"city":"Udumalaippettai","state":"Tamil Nadu","population":61133,"lat":10.58806,"lng":77.24779},{"city":"Tiptūr","state":"Karnataka","population":60957,"lat":13.2563,"lng":76.47768},{"city":"Sahaswān","state":"Uttar Pradesh","population":60953,"lat":28.07227,"lng":78.75082},{"city":"Wanparti","state":"Telangana","population":60949,"lat":16.36738,"lng":78.06889},{"city":"Sirhind","state":"Punjab","population":60847,"lat":30.64321,"lng":76.38421},{"city":"Bārdoli","state":"Gujarat","population":60821,"lat":21.12297,"lng":73.11151},{"city":"Mokameh","state":"Bihar","population":60678,"lat":25.39662,"lng":85.9219},{"city":"Arāmbāgh","state":"West Bengal","population":60639,"lat":22.88333,"lng":87.78333},{"city":"Poonamalle","state":"Tamil Nadu","population":60607,"lat":13.04888,"lng":80.11488},{"city":"Keonjhargarh","state":"Odisha","population":60590,"lat":21.6318,"lng":85.59686},{"city":"Bhadravati","state":"Maharashtra","population":60565,"lat":20.1001,"lng":79.11442},{"city":"Panruti","state":"Tamil Nadu","population":60323,"lat":11.77662,"lng":79.55269},{"city":"Ilkal","state":"Karnataka","population":60242,"lat":15.95923,"lng":76.11351},{"city":"Kīratpur","state":"Uttar Pradesh","population":60223,"lat":29.50671,"lng":78.20613},{"city":"Vrindāvan","state":"Uttar Pradesh","population":60195,"lat":27.58105,"lng":77.69662},{"city":"Kodungallūr","state":"Kerala","population":60190,"lat":10.23263,"lng":76.19513},{"city":"Nedumangād","state":"Kerala","population":60161,"lat":8.60267,"lng":77.00139},{"city":"Bangaon","state":"Bihar","population":60000,"lat":25.86728,"lng":86.51152},{"city":"Narsimhapur","state":"Madhya Pradesh","population":59966,"lat":22.94936,"lng":79.18357},{"city":"Ponnur","state":"Andhra Pradesh","population":59913,"lat":16.07114,"lng":80.54944},{"city":"Kathua","state":"Jammu and Kashmir","population":59866,"lat":32.36941,"lng":75.52539},{"city":"North Lakhimpur","state":"Assam","population":59841,"lat":27.23517,"lng":94.10357},{"city":"Masaurhi Buzurg","state":"Bihar","population":59803,"lat":25.35417,"lng":85.03195},{"city":"Nerkunram","state":"Tamil Nadu","population":59790,"lat":13.06194,"lng":80.20944},{"city":"Shegaon","state":"Maharashtra","population":59672,"lat":20.7932,"lng":76.69921},{"city":"Mandideep","state":"Madhya Pradesh","population":59654,"lat":23.08166,"lng":77.53328},{"city":"Pāchora","state":"Maharashtra","population":59609,"lat":20.66727,"lng":75.35305},{"city":"Gobichettipalayam","state":"Tamil Nadu","population":59523,"lat":11.45496,"lng":77.4422},{"city":"Gangoh","state":"Uttar Pradesh","population":59519,"lat":29.78004,"lng":77.26346},{"city":"Itanagar","state":"Arunachal Pradesh","population":59490,"lat":27.08694,"lng":93.60987},{"city":"Jaitpur","state":"Haryana","population":59330,"lat":28.50647,"lng":77.32976},{"city":"Narasapur","state":"Andhra Pradesh","population":59306,"lat":16.43425,"lng":81.69845},{"city":"Dhone","state":"Andhra Pradesh","population":59272,"lat":15.3952,"lng":77.8715},{"city":"Rājgarh","state":"Rajasthan","population":59193,"lat":28.64201,"lng":75.38612},{"city":"Ullal","state":"Karnataka","population":59116,"lat":12.80569,"lng":74.86058},{"city":"Panna","state":"Madhya Pradesh","population":59091,"lat":24.72094,"lng":80.18772},{"city":"Gola Gokarannāth","state":"Uttar Pradesh","population":58986,"lat":28.07837,"lng":80.47054},{"city":"Gohad","state":"Madhya Pradesh","population":58939,"lat":26.43278,"lng":78.44205},{"city":"Wani","state":"Maharashtra","population":58840,"lat":20.05507,"lng":78.95313},{"city":"Thiruvarur","state":"Tamil Nadu","population":58777,"lat":10.77269,"lng":79.6368},{"city":"Upleta","state":"Gujarat","population":58775,"lat":21.74015,"lng":70.28256},{"city":"Nūzvīd","state":"Andhra Pradesh","population":58590,"lat":16.78854,"lng":80.84593},{"city":"Lonavla","state":"Maharashtra","population":58562,"lat":18.75275,"lng":73.40575},{"city":"Una","state":"Gujarat","population":58528,"lat":20.82318,"lng":71.03795},{"city":"Sillod","state":"Maharashtra","population":58230,"lat":20.30303,"lng":75.65284},{"city":"Sīra","state":"Karnataka","population":57928,"lat":13.74155,"lng":76.9043},{"city":"Chikhli","state":"Maharashtra","population":57889,"lat":20.35046,"lng":76.25774},{"city":"Jhārgrām","state":"West Bengal","population":57796,"lat":22.45384,"lng":86.99497},{"city":"Kagaznāgār","state":"Telangana","population":57583,"lat":19.33159,"lng":79.46605},{"city":"Bhātāpāra","state":"Chhattisgarh","population":57537,"lat":21.735,"lng":81.94711},{"city":"Kāsībugga","state":"Andhra Pradesh","population":57507,"lat":18.75927,"lng":84.41613},{"city":"Hasanpur","state":"Uttar Pradesh","population":57481,"lat":28.72249,"lng":78.28436},{"city":"Lohārdagā","state":"Jharkhand","population":57411,"lat":23.43305,"lng":84.67992},{"city":"Jahāngīrābād","state":"Uttar Pradesh","population":57363,"lat":28.40549,"lng":78.10588},{"city":"Sherkot","state":"Uttar Pradesh","population":57361,"lat":29.32704,"lng":78.57429},{"city":"Kātrās","state":"Jharkhand","population":57349,"lat":23.79752,"lng":86.29834},{"city":"Mācherla","state":"Andhra Pradesh","population":57290,"lat":16.47635,"lng":79.43533},{"city":"Naksalbāri","state":"West Bengal","population":57283,"lat":26.6827,"lng":88.22001},{"city":"Sankarankovil","state":"Tamil Nadu","population":57277,"lat":9.17048,"lng":77.54107},{"city":"Mulbāgal","state":"Karnataka","population":57276,"lat":13.16352,"lng":78.39346},{"city":"Kandukūr","state":"Andhra Pradesh","population":57246,"lat":15.21542,"lng":79.9039},{"city":"Tiruvalla","state":"Kerala","population":57223,"lat":9.3816,"lng":76.57489},{"city":"Roshanpura","state":"Delhi","population":57217,"lat":28.60057,"lng":76.98918},{"city":"Ponnūru","state":"Andhra Pradesh","population":57170,"lat":16.06547,"lng":80.55203},{"city":"Kollegāl","state":"Karnataka","population":57149,"lat":12.15449,"lng":77.11051},{"city":"Mukandpur","state":"Delhi","population":57135,"lat":28.73944,"lng":77.18315},{"city":"Unjha","state":"Gujarat","population":57108,"lat":23.80366,"lng":72.39101},{"city":"Chhibrāmau","state":"Uttar Pradesh","population":57071,"lat":27.14872,"lng":79.50078},{"city":"Tilhar","state":"Uttar Pradesh","population":57043,"lat":27.96282,"lng":79.73827},{"city":"Lunglei","state":"Mizoram","population":57011,"lat":22.89247,"lng":92.74218},{"city":"Hoskote","state":"Karnataka","population":56980,"lat":13.0707,"lng":77.79814},{"city":"Byasanagar","state":"Odisha","population":56946,"lat":20.95569,"lng":86.12643},{"city":"Bada Barabīl","state":"Odisha","population":56870,"lat":22.11186,"lng":85.38684},{"city":"Sāmalkot","state":"Andhra Pradesh","population":56864,"lat":17.05675,"lng":82.17639},{"city":"Karīmganj","state":"Assam","population":56854,"lat":24.86919,"lng":92.35543},{"city":"Bobbili","state":"Andhra Pradesh","population":56819,"lat":18.57366,"lng":83.35925},{"city":"Mettur","state":"Tamil Nadu","population":56743,"lat":11.78796,"lng":77.8008},{"city":"Sattenapalle","state":"Andhra Pradesh","population":56721,"lat":16.39381,"lng":80.15221},{"city":"Tirūrangādi","state":"Kerala","population":56632,"lat":11.04316,"lng":75.92337},{"city":"Tennala","state":"Kerala","population":56546,"lat":10.99342,"lng":75.93504},{"city":"Chakradharpur","state":"Jharkhand","population":56531,"lat":22.67611,"lng":85.62892},{"city":"Sendhwa","state":"Madhya Pradesh","population":56485,"lat":21.68562,"lng":75.09622},{"city":"Talegaon Dābhāde","state":"Maharashtra","population":56435,"lat":18.73502,"lng":73.67561},{"city":"Hiriyūr","state":"Karnataka","population":56416,"lat":13.94455,"lng":76.61723},{"city":"Anjangaon","state":"Maharashtra","population":56380,"lat":21.16516,"lng":77.3091},{"city":"Charkhi Dādri","state":"Haryana","population":56337,"lat":28.59166,"lng":76.27161},{"city":"Ujhāni","state":"Uttar Pradesh","population":56309,"lat":28.00311,"lng":79.00821},{"city":"Bankra","state":"West Bengal","population":56273,"lat":22.60291,"lng":88.27751},{"city":"Dabhoi","state":"Gujarat","population":56253,"lat":22.18333,"lng":73.43333},{"city":"Teghra","state":"Bihar","population":56234,"lat":25.49043,"lng":85.94001},{"city":"Obra","state":"Uttar Pradesh","population":56110,"lat":24.41863,"lng":82.98797},{"city":"Tiruvallur","state":"Tamil Nadu","population":56074,"lat":13.14376,"lng":79.90889},{"city":"Mandapeta","state":"Andhra Pradesh","population":56063,"lat":16.86254,"lng":81.92921},{"city":"Tirur","state":"Kerala","population":56058,"lat":10.91368,"lng":75.92118},{"city":"Ropar","state":"Punjab","population":56038,"lat":30.96896,"lng":76.52695},{"city":"Nāmakkal","state":"Tamil Nadu","population":55997,"lat":11.22126,"lng":78.16524},{"city":"Arcot","state":"Tamil Nadu","population":55955,"lat":12.90569,"lng":79.31897},{"city":"Lāharpur","state":"Uttar Pradesh","population":55911,"lat":27.70827,"lng":80.90256},{"city":"Viramgām","state":"Gujarat","population":55821,"lat":23.12564,"lng":72.05014},{"city":"Islāmpur","state":"West Bengal","population":55691,"lat":26.26541,"lng":88.18982},{"city":"Karād","state":"Maharashtra","population":55663,"lat":17.28937,"lng":74.18183},{"city":"Yanam","state":"Andhra Pradesh","population":55626,"lat":16.73308,"lng":82.21364},{"city":"Ābu Road","state":"Rajasthan","population":55599,"lat":24.48012,"lng":72.78186},{"city":"Raxaul","state":"Bihar","population":55536,"lat":26.97982,"lng":84.85065},{"city":"Moonniyur","state":"Kerala","population":55535,"lat":11.05972,"lng":75.90311},{"city":"Barwāni","state":"Madhya Pradesh","population":55504,"lat":22.03232,"lng":74.89982},{"city":"Kottayam","state":"Kerala","population":55374,"lat":9.58692,"lng":76.52132},{"city":"Tiruttangal","state":"Tamil Nadu","population":55362,"lat":9.48333,"lng":77.83333},{"city":"Petlād","state":"Gujarat","population":55330,"lat":22.47681,"lng":72.79995},{"city":"Jālaun","state":"Uttar Pradesh","population":55299,"lat":26.1451,"lng":79.3366},{"city":"Periya Semūr","state":"Tamil Nadu","population":55282,"lat":11.36088,"lng":77.68952},{"city":"Madhupur","state":"Jharkhand","population":55238,"lat":24.27419,"lng":86.63929},{"city":"Dhūri","state":"Punjab","population":55225,"lat":30.36846,"lng":75.86791},{"city":"Challakere","state":"Karnataka","population":55194,"lat":14.318,"lng":76.65165},{"city":"Etāwa","state":"Madhya Pradesh","population":55185,"lat":24.18351,"lng":78.20289},{"city":"Chiplūn","state":"Maharashtra","population":55139,"lat":17.53339,"lng":73.50935},{"city":"Mandlā","state":"Madhya Pradesh","population":55133,"lat":22.59879,"lng":80.37115},{"city":"Bhīmunipatnam","state":"Andhra Pradesh","population":55082,"lat":17.89017,"lng":83.45203},{"city":"Mawlai-Mawïong","state":"Meghalaya","population":55012,"lat":25.62322,"lng":91.88175},{"city":"Kavanur","state":"Tamil Nadu","population":54986,"lat":12.99623,"lng":80.07514},{"city":"Pithāpuram","state":"Andhra Pradesh","population":54859,"lat":17.1168,"lng":82.25284},{"city":"Kāndi","state":"West Bengal","population":54848,"lat":23.95946,"lng":88.04018},{"city":"Idappadi","state":"Tamil Nadu","population":54823,"lat":11.58624,"lng":77.83891},{"city":"Sāhibābād Daulotpur","state":"Delhi","population":54773,"lat":28.74705,"lng":77.11465},{"city":"Punganūru","state":"Andhra Pradesh","population":54746,"lat":13.36672,"lng":78.57186},{"city":"Ghātāl","state":"West Bengal","population":54658,"lat":22.66244,"lng":87.73399},{"city":"Jāfarābād","state":"Delhi","population":54601,"lat":28.67873,"lng":77.27116},{"city":"Sāgar","state":"Karnataka","population":54550,"lat":14.16498,"lng":75.02901},{"city":"Sihor","state":"Gujarat","population":54547,"lat":21.71134,"lng":71.96179},{"city":"Mūndka","state":"Delhi","population":54541,"lat":28.68012,"lng":77.02975},{"city":"Deglur","state":"Maharashtra","population":54493,"lat":18.54829,"lng":77.57695},{"city":"Madhepura","state":"Bihar","population":54472,"lat":25.92127,"lng":86.79271},{"city":"Bārāmati","state":"Maharashtra","population":54415,"lat":18.15174,"lng":74.57767},{"city":"Mahāsamund","state":"Chhattisgarh","population":54413,"lat":21.10743,"lng":82.0948},{"city":"Sidhi","state":"Madhya Pradesh","population":54331,"lat":24.4038,"lng":81.87954},{"city":"Kāsaragod","state":"Kerala","population":54172,"lat":12.49838,"lng":74.98959},{"city":"Garhchiroli","state":"Maharashtra","population":54152,"lat":20.18061,"lng":80.00522},{"city":"Puttūr","state":"Andhra Pradesh","population":54092,"lat":13.44189,"lng":79.55314},{"city":"Jalor","state":"Rajasthan","population":54081,"lat":25.34558,"lng":72.61559},{"city":"Samāna","state":"Punjab","population":54072,"lat":30.15395,"lng":76.19851},{"city":"Rāzampeta","state":"Andhra Pradesh","population":54050,"lat":14.19544,"lng":79.15896},{"city":"Wāri","state":"Maharashtra","population":54048,"lat":21.15313,"lng":79.0076},{"city":"Palmaner","state":"Andhra Pradesh","population":54035,"lat":13.2,"lng":78.74725},{"city":"Deolāli","state":"Maharashtra","population":54027,"lat":19.94404,"lng":73.83441},{"city":"Kanakapura","state":"Karnataka","population":54014,"lat":12.54654,"lng":77.42005},{"city":"Wokha","state":"Nagaland","population":54010,"lat":26.09717,"lng":94.25817},{"city":"Umred","state":"Maharashtra","population":53971,"lat":20.85396,"lng":79.32466},{"city":"Kālna","state":"West Bengal","population":53964,"lat":23.21944,"lng":88.36295},{"city":"Pallichal","state":"Kerala","population":53861,"lat":8.44976,"lng":77.02573},{"city":"Tāndoni","state":"Tamil Nadu","population":53854,"lat":10.92611,"lng":78.0941},{"city":"Pārvatipuram","state":"Andhra Pradesh","population":53844,"lat":18.78392,"lng":83.42569},{"city":"Kotharia","state":"Gujarat","population":53794,"lat":22.23436,"lng":70.81903},{"city":"Ottapalam","state":"Kerala","population":53792,"lat":10.7735,"lng":76.37758},{"city":"Dīdwāna","state":"Rajasthan","population":53749,"lat":27.40096,"lng":74.57537},{"city":"Begampur","state":"Delhi","population":53682,"lat":28.72655,"lng":77.06689},{"city":"Gaddi Annaram","state":"Telangana","population":53622,"lat":17.36687,"lng":78.5242},{"city":"Dumraon","state":"Bihar","population":53618,"lat":25.55265,"lng":84.15149},{"city":"Nerupperichchal","state":"Tamil Nadu","population":53579,"lat":11.16105,"lng":77.37398},{"city":"Jaggaiahpet","state":"Andhra Pradesh","population":53530,"lat":16.89155,"lng":80.09551},{"city":"Rampur Hat","state":"West Bengal","population":53468,"lat":24.17737,"lng":87.78275},{"city":"Khanapuram Haveli","state":"Telangana","population":53442,"lat":17.26239,"lng":80.16809},{"city":"Goālpāra","state":"Assam","population":53430,"lat":26.17668,"lng":90.62634},{"city":"Tuni","state":"Andhra Pradesh","population":53425,"lat":17.35905,"lng":82.54607},{"city":"Laxmangarh","state":"Rajasthan","population":53392,"lat":27.82294,"lng":75.02754},{"city":"Shāhpur","state":"Karnataka","population":53366,"lat":16.69605,"lng":76.8422},{"city":"Bhongīr","state":"Telangana","population":53339,"lat":17.51544,"lng":78.88563},{"city":"Puttūr","state":"Karnataka","population":53331,"lat":12.75975,"lng":75.20169},{"city":"Ullagaram","state":"Tamil Nadu","population":53322,"lat":12.979,"lng":80.19703},{"city":"Sri Dūngargarh","state":"Rajasthan","population":53294,"lat":28.09617,"lng":74.00868},{"city":"Ayodhya","state":"Uttar Pradesh","population":53293,"lat":26.79909,"lng":82.2047},{"city":"Mubarakpur","state":"Uttar Pradesh","population":53263,"lat":26.08866,"lng":83.29088},{"city":"Amalāpuram","state":"Andhra Pradesh","population":53231,"lat":16.57868,"lng":82.00609},{"city":"Arsikere","state":"Karnataka","population":53216,"lat":13.31446,"lng":76.25704},{"city":"Phaltan","state":"Maharashtra","population":53202,"lat":17.99113,"lng":74.43177},{"city":"Ashta","state":"Madhya Pradesh","population":53184,"lat":23.01754,"lng":76.72208},{"city":"Sandīla","state":"Uttar Pradesh","population":53182,"lat":27.06989,"lng":80.51497},{"city":"Vikārābād","state":"Telangana","population":53143,"lat":17.3381,"lng":77.90441},{"city":"Baruipur","state":"West Bengal","population":53128,"lat":22.36544,"lng":88.4325},{"city":"Choudwar","state":"Odisha","population":52999,"lat":20.53917,"lng":85.91512},{"city":"Shāhābād","state":"Karnataka","population":52952,"lat":17.1307,"lng":76.94361},{"city":"Sultānganj","state":"Bihar","population":52892,"lat":25.23831,"lng":86.73559},{"city":"Mandi Dabwāli","state":"Haryana","population":52873,"lat":29.96633,"lng":74.70025},{"city":"Konch","state":"Uttar Pradesh","population":52773,"lat":25.99451,"lng":79.15127},{"city":"Bāprola","state":"Delhi","population":52744,"lat":28.64133,"lng":77.01415},{"city":"Venkatagiri","state":"Andhra Pradesh","population":52688,"lat":13.96005,"lng":79.58032},{"city":"Dabhel","state":"Dadra and Nagar Haveli and Daman and Diu","population":52578,"lat":20.40953,"lng":72.88339},{"city":"Biswān","state":"Uttar Pradesh","population":52516,"lat":27.49581,"lng":80.99618},{"city":"Siruguppa","state":"Karnataka","population":52492,"lat":15.63,"lng":76.89217},{"city":"Kosi","state":"Uttar Pradesh","population":52492,"lat":27.79449,"lng":77.4368},{"city":"Sironj","state":"Madhya Pradesh","population":52460,"lat":24.10313,"lng":77.69055},{"city":"Jangaon","state":"Telangana","population":52394,"lat":17.72602,"lng":79.15236},{"city":"Daudnagar","state":"Bihar","population":52364,"lat":25.03473,"lng":84.40095},{"city":"Dandeli","state":"Karnataka","population":52295,"lat":15.26667,"lng":74.61667},{"city":"Ramapuram","state":"Tamil Nadu","population":52295,"lat":13.03179,"lng":80.18243},{"city":"Mudhol","state":"Karnataka","population":52199,"lat":16.33354,"lng":75.28305},{"city":"Thodupuzha","state":"Kerala","population":52045,"lat":9.89394,"lng":76.72216},{"city":"Devakottai","state":"Tamil Nadu","population":51865,"lat":9.94704,"lng":78.8233},{"city":"Arwal","state":"Bihar","population":51849,"lat":25.24281,"lng":84.66571},{"city":"Kāliyāganj","state":"West Bengal","population":51748,"lat":25.63442,"lng":88.32665},{"city":"Nasīrābād","state":"Rajasthan","population":51747,"lat":26.30473,"lng":74.73364},{"city":"Khagaul","state":"Bihar","population":51577,"lat":25.57898,"lng":85.04564},{"city":"Changanācheri","state":"Kerala","population":51430,"lat":9.44203,"lng":76.53604},{"city":"Shorāpur","state":"Karnataka","population":51398,"lat":16.521,"lng":76.75738},{"city":"Māndvi","state":"Gujarat","population":51376,"lat":22.83282,"lng":69.35237},{"city":"Rajgangpur","state":"Odisha","population":51362,"lat":22.2,"lng":84.583},{"city":"Ozar","state":"Maharashtra","population":51297,"lat":20.09473,"lng":73.92816},{"city":"Peranāmpattu","state":"Tamil Nadu","population":51271,"lat":12.9343,"lng":78.7189},{"city":"Gumlā","state":"Jharkhand","population":51264,"lat":23.04268,"lng":84.54429},{"city":"Rāmnagar","state":"Uttarakhand","population":51244,"lat":29.3925,"lng":79.1283},{"city":"Vazhakkala","state":"Kerala","population":51242,"lat":10.01239,"lng":76.32633},{"city":"Shujālpur","state":"Madhya Pradesh","population":51225,"lat":23.40673,"lng":76.7098},{"city":"Tirumangalam","state":"Tamil Nadu","population":51194,"lat":9.82307,"lng":77.98381},{"city":"Sidlaghatta","state":"Karnataka","population":51159,"lat":13.38896,"lng":77.86444},{"city":"Khurai","state":"Madhya Pradesh","population":51108,"lat":24.04372,"lng":78.33014},{"city":"Hilsa","state":"Bihar","population":51052,"lat":25.31642,"lng":85.28234},{"city":"Rampura Phul","state":"Punjab","population":51023,"lat":30.27563,"lng":75.24253},{"city":"Fatwa","state":"Bihar","population":50961,"lat":25.50958,"lng":85.30504},{"city":"Tūndla","state":"Uttar Pradesh","population":50939,"lat":27.2146,"lng":78.23683},{"city":"Mannārakkāt","state":"Kerala","population":50921,"lat":10.99223,"lng":76.46418},{"city":"Metpalle","state":"Telangana","population":50902,"lat":18.84724,"lng":78.62563},{"city":"Naya Gaon","state":"Punjab","population":50869,"lat":30.77515,"lng":76.79308},{"city":"Repalle","state":"Andhra Pradesh","population":50866,"lat":16.0184,"lng":80.82958},