{"timezone":"Asia/Muscat","countries":{"Oman":[{"city":"Muscat","state":"Muscat","population":797000,"lat":23.58413,"lng":58.40778},{"city":"Seeb","state":"Muscat","population":470878,"lat":23.67027,"lng":58.18911},{"city":"Bawshar","state":"Muscat","population":383257,"lat":23.57769,"lng":58.39982},{"city":"‘Ibrī","state":"Ad Dhahirah","population":163473,"lat":23.22573,"lng":56.51572},{"city":"Şalālah","state":"Dhofar","population":163140,"lat":17.01505,"lng":54.09237},{"city":"Şaḩam","state":"Al Batinah North","population":140000,"lat":24.17222,"lng":56.88861},{"city":"Rustaq","state":"Al Batinah South","population":120000,"lat":23.39083,"lng":57.42444},{"city":"Sohar","state":"Al Batinah North","population":108274,"lat":24.34745,"lng":56.70937},{"city":"As Suwayq","state":"Al Batinah North","population":107143,"lat":23.84944,"lng":57.43861},{"city":"Barkā’","state":"Al Batinah South","population":81647,"lat":23.67872,"lng":57.88605},{"city":"Samā’il","state":"Ad Dakhiliyah","population":80538,"lat":23.29838,"lng":57.9531},{"city":"Al Buraymī","state":"Al Buraimi","population":73670,"lat":24.25088,"lng":55.79312},{"city":"Nizwá","state":"Ad Dakhiliyah","population":72076,"lat":22.93333,"lng":57.53333},{"city":"Sur","state":"Southeastern Governorate","population":71152,"lat":22.56667,"lng":59.52889},{"city":"Qurayyāt","state":"Muscat","population":63133,"lat":23.26298,"lng":58.92014},{"city":"Bahlā’","state":"Ad Dakhiliyah","population":54338,"lat":22.97886,"lng":57.3047},{"city":"Al Khābūrah","state":"Al Batinah North","population":50223,"lat":23.97144,"lng":57.09313},{"city":"Shināş","state":"Al Batinah North","population":48009,"lat":24.7426,"lng":56.46698},{"city":"Sufālat Samā’il","state":"Ad Dakhiliyah","population":47718,"lat":23.31667,"lng":58.01667},{"city":"Izkī","state":"Ad Dakhiliyah","population":36203,"lat":22.93333,"lng":57.76667},{"city":"Liwá","state":"Al Batinah North","population":26372,"lat":24.53077,"lng":56.563},{"city":"Ibrā’","state":"Northeastern Governorate","population":25265,"lat":22.69057,"lng":58.53337},{"city":"Bidbid","state":"Ad Dakhiliyah","population":21188,"lat":23.40787,"lng":58.1283},{"city":"Badīyah","state":"Northeastern Governorate","population":18479,"lat":22.45,"lng":58.8},{"city":"Khasab","state":"Musandam Governorate","population":17904,"lat":26.17993,"lng":56.24774},{"city":"Adam","state":"Ad Dakhiliyah","population":17283,"lat":22.37934,"lng":57.52718},{"city":"Yanqul","state":"Ad Dhahirah","population":16599,"lat":23.58645,"lng":56.53969},{"city":"Al Qābil","state":"Northeastern Governorate","population":14008,"lat":22.571,"lng":58.69472},{"city":"Bayt al ‘Awābī","state":"Al Batinah South","population":10711,"lat":23.30324,"lng":57.52459},{"city":"Dib Dibba","state":"Musandam Governorate","population":5000,"lat":26.19778,"lng":56.25778},{"city":"Madḩā’ al Jadīdah","state":"Musandam Governorate","population":2260,"lat":25.28345,"lng":56.3328},{"city":"Al Māzim","state":"Ad Dhahirah","population":1318,"lat":23.40194,"lng":56.28306},{"city":"Haymā’","state":"Al Wusta Governorate","population":1294,"lat":19.95931,"lng":56.27575},{"city":"Al Mazyūnah","state":"Dhofar","population":0,"lat":17.83836,"lng":52.66042}]}}