{"timezone":"Asia/Pyongyang","countries":{"North Korea":[{"city":"Pyongyang","state":"Pyongyang","population":3222000,"lat":39.03385,"lng":125.75432},{"city":"Hamhŭng","state":"South Hamgyong","population":559056,"lat":39.91833,"lng":127.53639},{"city":"Namp’o","state":"Nampo","population":455000,"lat":38.7375,"lng":125.40778},{"city":"Sunch’ŏn","state":"South Pyongan","population":437000,"lat":39.43167,"lng":125.93278},{"city":"Hŭngnam","state":"South Hamgyong","population":346082,"lat":39.84198,"lng":127.63206},{"city":"Kaesŏng","state":"Kaesong","population":338155,"lat":37.97083,"lng":126.55444},{"city":"Wŏnsan","state":"Kangwŏn-do","population":329207,"lat":39.15278,"lng":127.44361},{"city":"Chongjin","state":"North Hamgyong","population":327000,"lat":41.79556,"lng":129.77583},{"city":"Man’gyŏngdae-ri","state":"Pyongyang","population":321690,"lat":38.99182,"lng":125.65871},{"city":"Kaech’ŏn","state":"South Pyongan","population":319554,"lat":39.70056,"lng":125.89333},{"city":"Sariwŏn-si","state":"North Hwanghae","population":310100,"lat":38.50722,"lng":125.75583},{"city":"Sinŭiju","state":"P'yŏngan-bukto","population":288112,"lat":40.10056,"lng":124.39806},{"city":"Tŏkch’ŏn","state":"South Pyongan","population":237133,"lat":39.75261,"lng":126.25798},{"city":"Haeju","state":"South Hwanghae","population":222396,"lat":38.04056,"lng":125.71472},{"city":"Kanggye","state":"Chagang","population":209530,"lat":40.96946,"lng":126.58523},{"city":"Changam-ch’on","state":"South Hamgyong","population":207299,"lat":40.60611,"lng":128.78194},{"city":"Hyesan","state":"Yanggang-do","population":192680,"lat":41.40167,"lng":128.17778},{"city":"Paech’ŏn-ŭp","state":"South Hwanghae","population":159825,"lat":37.99306,"lng":126.30139},{"city":"Sinp’o","state":"South Hamgyong","population":152759,"lat":40.03971,"lng":128.1943},{"city":"Songnim-ni","state":"North Hwanghae","population":152425,"lat":38.76349,"lng":125.64096},{"city":"Ch’ŏngdan-ŭp","state":"South Hwanghae","population":142607,"lat":37.97028,"lng":125.9375},{"city":"Sinch’ŏn-ŭp","state":"South Hwanghae","population":141407,"lat":38.35323,"lng":125.48423},{"city":"Paek'ak","state":"South Pyongan","population":125924,"lat":39.46275,"lng":125.60594},{"city":"Chaeryŏng-ni","state":"South Pyongan","population":125631,"lat":38.73583,"lng":125.23083},{"city":"Manp’o","state":"Chagang","population":116760,"lat":41.15472,"lng":126.28944},{"city":"Ŭllyul","state":"South Hwanghae","population":107997,"lat":38.51389,"lng":125.18972},{"city":"Kangnyŏng","state":"South Hwanghae","population":106827,"lat":37.9075,"lng":125.51},{"city":"P’yŏngsŏng","state":"South Pyongan","population":100000,"lat":39.24639,"lng":125.87194},{"city":"Hwasŏng","state":"North Hamgyong","population":99557,"lat":41.25556,"lng":129.49278},{"city":"Myŏnggan-dong","state":"North Hamgyong","population":99557,"lat":41.13722,"lng":129.49472},{"city":"Hyesan-dong","state":"Yanggang-do","population":97794,"lat":41.3953,"lng":128.18727},{"city":"Ŭnch’ŏn-ŭp","state":"South Hwanghae","population":95597,"lat":38.56556,"lng":125.42722},{"city":"Kwail-ŭp","state":"South Hwanghae","population":89895,"lat":38.44611,"lng":125.01861},{"city":"Ŭndŏk","state":"North Hamgyong","population":89244,"lat":42.51878,"lng":130.33479},{"city":"Ŏrang","state":"North Hamgyong","population":87757,"lat":41.44778,"lng":129.65556},{"city":"Samch’ŏn","state":"South Hwanghae","population":86042,"lat":38.35944,"lng":125.32586},{"city":"Sinwŏn-ŭp","state":"South Hwanghae","population":83161,"lat":38.23532,"lng":125.76244},{"city":"Pongch’ŏn-ŭp","state":"South Hwanghae","population":79740,"lat":38.12389,"lng":126.20472},{"city":"Yuktae-dong","state":"South Hamgyong","population":76427,"lat":40.02472,"lng":128.15972},{"city":"Hongwŏn","state":"South Hamgyong","population":70923,"lat":40.02528,"lng":127.95583},{"city":"Hwadae","state":"North Hamgyong","population":67677,"lat":40.83806,"lng":129.49694},{"city":"Rajin","state":"Rason","population":66224,"lat":42.25559,"lng":130.28308},{"city":"Myŏngch’ŏn","state":"North Hamgyong","population":65797,"lat":41.07056,"lng":129.42917},{"city":"T’aet’an-ŭp","state":"South Hwanghae","population":64258,"lat":38.08822,"lng":125.2983},{"city":"Ongjin","state":"South Hwanghae","population":64247,"lat":37.93472,"lng":125.36194},{"city":"Kilju","state":"North Hamgyong","population":63652,"lat":40.96417,"lng":129.32778},{"city":"Chaeryŏng-ŭp","state":"South Hwanghae","population":53330,"lat":38.39917,"lng":125.61556},{"city":"Anju","state":"South Pyongan","population":50196,"lat":39.61778,"lng":125.66472},{"city":"Uiju","state":"P'yŏngan-bukto","population":50081,"lat":40.19944,"lng":124.53167},{"city":"Puryŏng-ŭp","state":"North Hamgyong","population":48958,"lat":42.06224,"lng":129.70457},{"city":"Yŏch’im-dong","state":"Chagang","population":47460,"lat":40.36174,"lng":126.65852},{"city":"Songhwa","state":"South Hwanghae","population":44274,"lat":38.36028,"lng":125.13722},{"city":"Hoeryŏng","state":"North Hamgyong","population":43831,"lat":42.44113,"lng":129.74601},{"city":"Ch’ŏsal-li","state":"South Pyongan","population":43614,"lat":39.40333,"lng":125.50889},{"city":"Sijung","state":"Chagang","population":41842,"lat":41.07889,"lng":126.375},{"city":"Chunggang","state":"Chagang","population":41022,"lat":41.77722,"lng":126.87361},{"city":"Sŭngho 1-tong","state":"Pyongyang","population":39841,"lat":38.99139,"lng":125.97778},{"city":"Changyŏn","state":"South Hwanghae","population":39368,"lat":38.25083,"lng":125.09611},{"city":"Songwŏn","state":"Chagang","population":38051,"lat":40.37704,"lng":125.87867},{"city":"Songwŏn-ŭp","state":"Chagang","population":38051,"lat":40.37278,"lng":126.30833},{"city":"Yŏnsa-ŭp","state":"North Hamgyong","population":37876,"lat":41.90806,"lng":129.01111},{"city":"Sunan","state":"Pyongyang","population":36671,"lat":39.20323,"lng":125.69312},{"city":"Hwangju-ŭp","state":"North Hwanghae","population":35641,"lat":38.67028,"lng":125.77611},{"city":"Kyŏngsŏng","state":"North Hamgyong","population":35604,"lat":41.58778,"lng":129.60611},{"city":"Aoji-ri","state":"North Hamgyong","population":34248,"lat":42.52182,"lng":130.39572},{"city":"Ranam","state":"North Hamgyong","population":34055,"lat":41.71361,"lng":129.68444},{"city":"Anbyŏn-ŭp","state":"Kangwŏn-do","population":31845,"lat":39.0425,"lng":127.52389},{"city":"Kop’ung","state":"Chagang","population":31572,"lat":40.60389,"lng":125.94667},{"city":"Samjiyŏn-ŭp","state":"Yanggang-do","population":31471,"lat":41.80356,"lng":128.31886},{"city":"Kusŏng-si","state":"P'yŏngan-bukto","population":30902,"lat":39.97969,"lng":125.2529},{"city":"Chŏngju","state":"P'yŏngan-bukto","population":29065,"lat":39.69333,"lng":125.21028},{"city":"Kangdong-ŭp","state":"Pyongyang","population":28922,"lat":39.1425,"lng":126.09611},{"city":"Sŏnbong","state":"Rason","population":27331,"lat":42.35118,"lng":130.38307},{"city":"Unggi","state":"Rason","population":27331,"lat":42.34166,"lng":130.41081},{"city":"Iwŏn-ŭp","state":"South Hamgyong","population":26364,"lat":40.32306,"lng":128.65528},{"city":"Hŭkkyo-ri","state":"North Hwanghae","population":25437,"lat":38.79861,"lng":125.79194},{"city":"Kosan","state":"Kangwŏn-do","population":24822,"lat":38.85583,"lng":127.41806},{"city":"Yŏnan-ŭp","state":"South Hwanghae","population":22665,"lat":37.90889,"lng":126.16111},{"city":"Namyang","state":"North Hamgyong","population":22218,"lat":42.95044,"lng":129.85571},{"city":"Yŏnggwang-ŭp","state":"South Hamgyong","population":21882,"lat":40.01833,"lng":127.45472},{"city":"Musan-ŭp","state":"North Hamgyong","population":21739,"lat":42.22609,"lng":129.20776},{"city":"Kowŏn-ŭp","state":"South Hamgyong","population":21490,"lat":39.43806,"lng":127.24306},{"city":"Hoeyang","state":"Kangwŏn-do","population":21111,"lat":38.71028,"lng":127.59833},{"city":"T’ongch’ŏn-ŭp","state":"Kangwŏn-do","population":20575,"lat":38.95389,"lng":127.89167},{"city":"Kapsan-ŭp","state":"Yanggang-do","population":20406,"lat":41.09028,"lng":128.29333},{"city":"Anak","state":"North Hwanghae","population":19995,"lat":38.51083,"lng":125.49417},{"city":"Onsŏng","state":"North Hamgyong","population":19806,"lat":42.95722,"lng":129.99333},{"city":"Kujang-ŭp","state":"P'yŏngan-bukto","population":19522,"lat":39.86722,"lng":126.03028},{"city":"Sil-li","state":"South Pyongan","population":19463,"lat":39.49472,"lng":125.47361},{"city":"Chunghwa","state":"Pyongyang","population":19346,"lat":38.86389,"lng":125.8},{"city":"Samho-rodongjagu","state":"South Hamgyong","population":19025,"lat":39.9475,"lng":127.87111},{"city":"Sinmak","state":"North Hwanghae","population":18669,"lat":38.41667,"lng":126.23333},{"city":"Sakchu-ŭp","state":"P'yŏngan-bukto","population":18001,"lat":40.38944,"lng":125.04667},{"city":"Ayang-ni","state":"South Hwanghae","population":16104,"lat":38.24719,"lng":125.79476},{"city":"Sinanju","state":"South Pyongan","population":15693,"lat":39.59806,"lng":125.60972},{"city":"Sinsang-ni","state":"South Hamgyong","population":14960,"lat":39.64989,"lng":127.40729},{"city":"Pukchil-lodongjagu","state":"P'yŏngan-bukto","population":14129,"lat":40.20194,"lng":125.74833},{"city":"Hau-ri","state":"North Hamgyong","population":13581,"lat":41.20056,"lng":129.47028},{"city":"Ryonggang-ŭp","state":"Nampo","population":13440,"lat":38.85611,"lng":125.42444},{"city":"Twimoraet’ŏ","state":"Pyongyang","population":13050,"lat":38.99567,"lng":125.69026},{"city":"Pyŏksŏng-ŭp","state":"South Hwanghae","population":12937,"lat":38.0475,"lng":125.55667},{"city":"Koksan-ŭp","state":"North Hwanghae","population":12923,"lat":38.78194,"lng":126.66639},{"city":"Chasŏng","state":"Chagang","population":12736,"lat":41.46083,"lng":126.64139},{"city":"Sŏngnae-ri","state":"North Hamgyong","population":12650,"lat":42.81243,"lng":130.15401},{"city":"Komusan Il-tong","state":"North Hamgyong","population":12242,"lat":42.11015,"lng":129.69919},{"city":"Sindo","state":"P'yŏngan-bukto","population":11810,"lat":39.80639,"lng":124.23417},{"city":"Sŭngjibaegam","state":"Yanggang-do","population":11786,"lat":41.24278,"lng":128.79889},{"city":"Hoemul-li","state":"North Hamgyong","population":11681,"lat":41.43389,"lng":129.67},{"city":"Sŭngam-nodongjagu","state":"North Hamgyong","population":11406,"lat":41.66972,"lng":129.66889},{"city":"Panghyŏn-dong","state":"P'yŏngan-bukto","population":11026,"lat":39.88722,"lng":125.24139},{"city":"Kwaksan","state":"P'yŏngan-bukto","population":10478,"lat":39.6875,"lng":125.08278},{"city":"Sangsŏng-ni","state":"South Pyongan","population":9888,"lat":39.16944,"lng":126.88556},{"city":"Yŏngbyŏn","state":"P'yŏngan-bukto","population":9584,"lat":39.81333,"lng":125.80417},{"city":"Yŏmju-ŭp","state":"P'yŏngan-bukto","population":9437,"lat":39.89333,"lng":124.59806},{"city":"Ungsang-nodongjagu","state":"Rason","population":8410,"lat":42.35778,"lng":130.46222},{"city":"Satan","state":"North Hamgyong","population":5961,"lat":42.48208,"lng":130.14303},{"city":"Ŭijin-dong","state":"Chagang","population":0,"lat":40.97518,"lng":126.49584},{"city":"Hŭngju-dong","state":"Chagang","population":0,"lat":40.99629,"lng":126.54756},{"city":"Hahoe-dong","state":"North Hamgyong","population":0,"lat":42.50417,"lng":130.49522},{"city":"Kogŏnwon","state":"North Hamgyong","population":0,"lat":42.66309,"lng":130.20179},{"city":"Sambong","state":"North Hamgyong","population":0,"lat":42.68867,"lng":129.79459},{"city":"Kwirak","state":"North Hamgyong","population":0,"lat":42.49324,"lng":130.32051},{"city":"Ungsang","state":"Rason","population":0,"lat":42.35146,"lng":130.48817},{"city":"Namsan","state":"North Hamgyong","population":0,"lat":42.22753,"lng":129.25408},{"city":"P’ungin","state":"North Hamgyong","population":0,"lat":42.93067,"lng":130.04994}]}}