{"timezone":"Asia/Tashkent","countries":{"Uzbekistan":[{"city":"Tashkent","state":"Tashkent","population":1978028,"lat":41.26465,"lng":69.21627},{"city":"Andijon","state":"Andijan Region","population":747800,"lat":40.78338,"lng":72.35067},{"city":"Namangan","state":"Namangan","population":713220,"lat":40.9983,"lng":71.67257},{"city":"Yunusobod","state":"Tashkent","population":352000,"lat":41.37139,"lng":69.27944},{"city":"Fergana","state":"Fergana","population":299200,"lat":40.38421,"lng":71.78432},{"city":"Chilanzar","state":"Tashkent","population":260700,"lat":41.28194,"lng":69.18111},{"city":"Qo‘qon","state":"Fergana","population":259700,"lat":40.52861,"lng":70.9425},{"city":"Marg‘ilon","state":"Fergana","population":253500,"lat":40.47237,"lng":71.72463},{"city":"Angren","state":"Tashkent Region","population":191300,"lat":41.01667,"lng":70.14361},{"city":"Chirchiq","state":"Tashkent Region","population":162800,"lat":41.46889,"lng":69.58222},{"city":"Olmaliq","state":"Tashkent Region","population":133400,"lat":40.84472,"lng":69.59833},{"city":"Sergeli","state":"Tashkent","population":105700,"lat":41.19833,"lng":69.22222},{"city":"Chust","state":"Namangan","population":100200,"lat":41.00329,"lng":71.23791},{"city":"Beshariq","state":"Fergana","population":96900,"lat":40.43583,"lng":70.61028},{"city":"Bekobod","state":"Tashkent Region","population":96900,"lat":40.22083,"lng":69.26972},{"city":"Guliston","state":"Sirdaryo Region","population":90398,"lat":40.49536,"lng":68.77542},{"city":"Shahrixon","state":"Andijan Region","population":71400,"lat":40.71331,"lng":72.05706},{"city":"Asaka","state":"Andijan Region","population":62200,"lat":40.64153,"lng":72.23868},{"city":"Yangiyŭl","state":"Tashkent Region","population":61700,"lat":41.11202,"lng":69.0471},{"city":"Parkent","state":"Tashkent Region","population":60200,"lat":41.29444,"lng":69.67639},{"city":"Chortoq","state":"Namangan","population":53400,"lat":41.06924,"lng":71.82372},{"city":"Tŭytepa","state":"Tashkent Region","population":51400,"lat":41.0321,"lng":69.36253},{"city":"Kosonsoy","state":"Namangan","population":50900,"lat":41.24944,"lng":71.54738},{"city":"Quva","state":"Fergana","population":46400,"lat":40.52204,"lng":72.07292},{"city":"Yangiyer","state":"Sirdaryo Region","population":44200,"lat":40.275,"lng":68.8225},{"city":"Xonobod","state":"Andijan Region","population":44000,"lat":40.8026,"lng":72.97499},{"city":"Uchqŭrghon Shahri","state":"Namangan","population":40000,"lat":41.11371,"lng":72.07915},{"city":"Ohangaron","state":"Tashkent Region","population":37784,"lat":40.90639,"lng":69.63833},{"city":"Dashtobod","state":"Jizzakh Region","population":36500,"lat":40.12694,"lng":68.49444},{"city":"Piskent","state":"Tashkent Region","population":34900,"lat":40.89722,"lng":69.35056},{"city":"Rishton","state":"Fergana","population":34800,"lat":40.35667,"lng":71.28472},{"city":"Qorasuv","state":"Andijan Region","population":33000,"lat":40.72782,"lng":72.88577},{"city":"Oyim","state":"Andijan Region","population":32750,"lat":40.81955,"lng":72.74234},{"city":"Bektemir","state":"Tashkent","population":31400,"lat":41.20972,"lng":69.33417},{"city":"To‘rqao‘rg‘on","state":"Namangan","population":30300,"lat":40.99984,"lng":71.51162},{"city":"Uychi","state":"Namangan","population":29683,"lat":41.08073,"lng":71.92331},{"city":"Sirdaryo","state":"Sirdaryo Region","population":28800,"lat":40.84361,"lng":68.66167},{"city":"Toshbuloq","state":"Namangan","population":28562,"lat":40.91617,"lng":71.57819},{"city":"Yangiqo‘rg‘on","state":"Namangan","population":28422,"lat":41.19474,"lng":71.72385},{"city":"Pop","state":"Namangan","population":28000,"lat":40.87361,"lng":71.10889},{"city":"Qibray","state":"Tashkent Region","population":27750,"lat":41.38972,"lng":69.465},{"city":"Iskandar","state":"Tashkent Region","population":27636,"lat":41.55389,"lng":69.70083},{"city":"Salor","state":"Tashkent Region","population":26494,"lat":41.37222,"lng":69.38167},{"city":"Haqqulobod","state":"Namangan","population":26257,"lat":40.91667,"lng":72.11667},{"city":"Dardoq","state":"Andijan Region","population":26055,"lat":40.81583,"lng":72.83166},{"city":"Qo‘rg‘ontepa","state":"Andijan Region","population":25861,"lat":40.73192,"lng":72.76177},{"city":"Oltiariq","state":"Fergana","population":25543,"lat":40.39194,"lng":71.47417},{"city":"Yaypan","state":"Fergana","population":24900,"lat":40.37583,"lng":70.81556},{"city":"Yangiobod","state":"Tashkent Region","population":24900,"lat":41.11919,"lng":70.09406},{"city":"Zafar","state":"Tashkent Region","population":24781,"lat":40.98333,"lng":68.9},{"city":"Jalolquduq","state":"Andijan Region","population":24000,"lat":40.68918,"lng":72.60931},{"city":"Chinoz","state":"Tashkent Region","population":23700,"lat":40.93633,"lng":68.76128},{"city":"G‘azalkent","state":"Tashkent Region","population":21600,"lat":41.55806,"lng":69.77083},{"city":"Kirguli","state":"Fergana","population":20459,"lat":40.43553,"lng":71.76721},{"city":"Xo‘jaobod","state":"Andijan Region","population":20200,"lat":40.66886,"lng":72.56002},{"city":"Sultonobod","state":"Andijan Region","population":20000,"lat":40.76461,"lng":72.97647},{"city":"Bo‘ka","state":"Tashkent Region","population":19642,"lat":40.81108,"lng":69.19417},{"city":"Toshloq","state":"Fergana","population":18600,"lat":40.47722,"lng":71.76778},{"city":"Marhamat","state":"Andijan Region","population":14646,"lat":40.48048,"lng":72.31388},{"city":"Yangi Marg‘ilon","state":"Fergana","population":14114,"lat":40.42722,"lng":71.71889},{"city":"Ŭrtaowul","state":"Tashkent Region","population":14047,"lat":41.18667,"lng":69.14528},{"city":"Hamza","state":"Fergana","population":13470,"lat":40.42762,"lng":71.50534},{"city":"Tinchlik","state":"Fergana","population":13470,"lat":40.47591,"lng":71.55089},{"city":"Marhamat","state":"Andijan Region","population":12345,"lat":40.50236,"lng":72.32646},{"city":"Oqqo‘rg‘on","state":"Tashkent Region","population":11900,"lat":40.8775,"lng":69.04583},{"city":"Eskiarab","state":"Fergana","population":8781,"lat":40.36972,"lng":71.41861},{"city":"Izboskan","state":"Andijan Region","population":6800,"lat":41.03766,"lng":72.33659},{"city":"Hazratishoh","state":"Namangan","population":5900,"lat":41.39465,"lng":71.78903},{"city":"Navbahor","state":"Fergana","population":4500,"lat":40.48104,"lng":70.77093},{"city":"Burchmulla","state":"Tashkent Region","population":4000,"lat":41.61667,"lng":70.08333},{"city":"Kyzyldzhar","state":"Tashkent Region","population":3000,"lat":41.56667,"lng":70.01667},{"city":"Sho‘rsuv","state":"Fergana","population":2400,"lat":40.28431,"lng":70.79972},{"city":"Sŭqoq","state":"Tashkent Region","population":1000,"lat":41.24861,"lng":69.79667},{"city":"Ravon","state":"Fergana","population":0,"lat":39.97724,"lng":71.13467},{"city":"Yozyovon","state":"Fergana","population":0,"lat":40.66139,"lng":71.74361},{"city":"Ibrat","state":"Fergana","population":0,"lat":40.55389,"lng":71.14667},{"city":"Vodil","state":"Fergana","population":0,"lat":40.17424,"lng":71.73013},{"city":"Uchko‘prik","state":"Fergana","population":0,"lat":40.54222,"lng":71.06083},{"city":"Poytug‘","state":"Andijan Region","population":0,"lat":40.8977,"lng":72.2449},{"city":"Paxtaobod","state":"Andijan Region","population":0,"lat":40.92936,"lng":72.49687},{"city":"Kuyganyor","state":"Andijan Region","population":0,"lat":40.85444,"lng":72.30734},{"city":"Amir Timur","state":"Tashkent Region","population":0,"lat":41.01944,"lng":68.94083},{"city":"Dang‘ara","state":"Fergana","population":0,"lat":40.58389,"lng":70.91444},{"city":"Buloqboshi","state":"Andijan Region","population":0,"lat":40.62907,"lng":72.50212},{"city":"Baliqchi","state":"Andijan Region","population":0,"lat":40.90499,"lng":71.84737},{"city":"Bag‘dod","state":"Fergana","population":0,"lat":40.46306,"lng":71.21222},{"city":"Oltinko‘l","state":"Andijan Region","population":0,"lat":40.80104,"lng":72.17306},{"city":"Oxunboboyev","state":"Andijan Region","population":0,"lat":40.71984,"lng":72.64282},{"city":"Oqoltin","state":"Andijan Region","population":0,"lat":40.74649,"lng":71.70031},{"city":"Kosonsoy Shahri","state":"Namangan","population":0,"lat":41.26327,"lng":71.54239},{"city":"Chortoq Shahri","state":"Namangan","population":0,"lat":41.07703,"lng":71.81772},{"city":"Pop Shahri","state":"Namangan","population":0,"lat":40.87642,"lng":71.1022},{"city":"Tŭragŭrghon Shahri","state":"Namangan","population":0,"lat":41.00334,"lng":71.51056},{"city":"Langar","state":"Fergana","population":0,"lat":40.5205,"lng":71.66015}]}}