{"timezone":"Asia/Manila","countries":{"Philippines":[{"city":"Quezon City","state":"National Capital Region","population":3084270,"lat":14.6488,"lng":121.0509},{"city":"Davao","state":"Davao Region","population":1848947,"lat":7.07306,"lng":125.61278},{"city":"Caloocan","state":"National Capital Region","population":1712945,"lat":14.64953,"lng":120.96788},{"city":"Manila","state":"National Capital Region","population":1600000,"lat":14.6042,"lng":120.9822},{"city":"Taguig","state":"National Capital Region","population":1308085,"lat":14.5243,"lng":121.0792},{"city":"Budta","state":"Autonomous Region in Muslim Mindanao","population":1273715,"lat":7.20417,"lng":124.43972},{"city":"Malingao","state":"Soccsksargen","population":1121974,"lat":7.16083,"lng":124.475},{"city":"Zamboanga","state":"Zamboanga Peninsula","population":1018849,"lat":6.91028,"lng":122.07389},{"city":"Cebu City","state":"Central Visayas","population":965332,"lat":10.31672,"lng":123.89071},{"city":"Antipolo","state":"Calabarzon","population":913712,"lat":14.62578,"lng":121.12251},{"city":"Pasig City","state":"National Capital Region","population":853050,"lat":14.58691,"lng":121.0614},{"city":"Cagayan de Oro","state":"Northern Mindanao","population":741617,"lat":8.48222,"lng":124.64722},{"city":"Valenzuela","state":"National Capital Region","population":725173,"lat":14.7,"lng":120.9667},{"city":"General Santos","state":"Soccsksargen","population":722059,"lat":6.11278,"lng":125.17167},{"city":"Paranaque City","state":"National Capital Region","population":703245,"lat":14.48156,"lng":121.01749},{"city":"Las Piñas","state":"National Capital Region","population":615549,"lat":14.45056,"lng":120.98278},{"city":"Calamba","state":"Calabarzon","population":575046,"lat":14.21167,"lng":121.16528},{"city":"Makati City","state":"National Capital Region","population":510383,"lat":14.55027,"lng":121.03269},{"city":"Lapu-Lapu City","state":"Central Visayas","population":497813,"lat":10.31028,"lng":123.94944},{"city":"Angeles City","state":"Central Luzon","population":483452,"lat":15.15,"lng":120.58333},{"city":"Imus","state":"Calabarzon","population":481949,"lat":14.42972,"lng":120.93667},{"city":"Iloilo","state":"Western Visayas","population":473728,"lat":10.69694,"lng":122.56444},{"city":"Marikina City","state":"National Capital Region","population":471323,"lat":14.6481,"lng":121.1133},{"city":"Mandaluyong City","state":"National Capital Region","population":465902,"lat":14.5832,"lng":121.0409},{"city":"Bacolod City","state":"Western Visayas","population":454898,"lat":10.66667,"lng":122.95},{"city":"Mansilingan","state":"Western Visayas","population":454150,"lat":10.63111,"lng":122.97889},{"city":"Dasmariñas","state":"Calabarzon","population":441876,"lat":14.32944,"lng":120.93667},{"city":"Mandaluyong","state":"National Capital Region","population":425000,"lat":14.57837,"lng":121.03522},{"city":"Pasay","state":"National Capital Region","population":416522,"lat":14.53748,"lng":121.00144},{"city":"Tarlac City","state":"Central Luzon","population":401892,"lat":15.48017,"lng":120.59794},{"city":"Cotabato","state":"Autonomous Region in Muslim Mindanao","population":383383,"lat":7.22361,"lng":124.24639},{"city":"Malabon","state":"National Capital Region","population":365525,"lat":14.67333,"lng":120.93972},{"city":"San Jose del Monte","state":"Central Luzon","population":357828,"lat":14.81389,"lng":121.04528},{"city":"Bacoor","state":"Calabarzon","population":356974,"lat":14.45896,"lng":120.93851},{"city":"San Pedro","state":"Calabarzon","population":348968,"lat":14.3595,"lng":121.0473},{"city":"Cabanatuan City","state":"Central Luzon","population":343672,"lat":15.48586,"lng":120.96648},{"city":"Iligan","state":"Northern Mindanao","population":342618,"lat":8.2289,"lng":124.24344},{"city":"Mandaue City","state":"Central Visayas","population":331320,"lat":10.32361,"lng":123.92222},{"city":"Iligan City","state":"Soccsksargen","population":312323,"lat":8.25,"lng":124.4},{"city":"Butuan","state":"Caraga","population":309709,"lat":8.94917,"lng":125.54361},{"city":"Cabuyao","state":"Calabarzon","population":308745,"lat":14.2726,"lng":121.1262},{"city":"San Pablo","state":"Calabarzon","population":300166,"lat":14.0683,"lng":121.3256},{"city":"Biñan","state":"Calabarzon","population":300000,"lat":14.34267,"lng":121.08071},{"city":"Santol","state":"Central Luzon","population":298976,"lat":15.16222,"lng":120.5675},{"city":"Cainta","state":"Calabarzon","population":283172,"lat":14.5786,"lng":121.1222},{"city":"Baguio","state":"Cordillera","population":272714,"lat":16.41639,"lng":120.59306},{"city":"Malolos","state":"Central Luzon","population":269809,"lat":14.8443,"lng":120.81039},{"city":"Mantampay","state":"Northern Mindanao","population":265032,"lat":8.16667,"lng":124.21667},{"city":"Bagong Silang","state":"National Capital Region","population":261729,"lat":14.7783,"lng":121.04487},{"city":"Marawi City","state":"Autonomous Region in Muslim Mindanao","population":259993,"lat":8.0034,"lng":124.28395},{"city":"Tacloban","state":"Eastern Visayas","population":259353,"lat":11.24333,"lng":125.00472},{"city":"San Fernando","state":"Central Luzon","population":251248,"lat":15.03425,"lng":120.68445},{"city":"Libertad","state":"Caraga","population":250353,"lat":8.94417,"lng":125.50194},{"city":"Navotas","state":"National Capital Region","population":249463,"lat":14.66667,"lng":120.95},{"city":"Ormoc","state":"Eastern Visayas","population":238545,"lat":11.00639,"lng":124.6075},{"city":"Batangas","state":"Calabarzon","population":237370,"lat":13.7567,"lng":121.0584},{"city":"Magugpo Poblacion","state":"Davao Region","population":233254,"lat":7.4475,"lng":125.8046},{"city":"Taytay","state":"Calabarzon","population":231460,"lat":14.55883,"lng":121.13285},{"city":"Lucena","state":"Calabarzon","population":228758,"lat":13.93139,"lng":121.61722},{"city":"Meycauayan","state":"Central Luzon","population":228023,"lat":14.73694,"lng":120.96083},{"city":"NIA Valencia","state":"Northern Mindanao","population":223620,"lat":7.90639,"lng":125.09417},{"city":"Puerto Princesa","state":"Mimaropa","population":222673,"lat":9.73917,"lng":118.73528},{"city":"Olongapo","state":"Central Luzon","population":221178,"lat":14.82917,"lng":120.28278},{"city":"Binangonan","state":"Calabarzon","population":219204,"lat":14.4646,"lng":121.1929},{"city":"Santa Rosa","state":"Calabarzon","population":216650,"lat":14.31222,"lng":121.11139},{"city":"Commonwealth","state":"National Capital Region","population":215034,"lat":14.6969,"lng":121.08006},{"city":"Lipa City","state":"Calabarzon","population":212287,"lat":13.9411,"lng":121.1631},{"city":"Panabo","state":"Davao Region","population":211242,"lat":7.30806,"lng":125.68417},{"city":"Kabankalan","state":"Western Visayas","population":210893,"lat":9.9839,"lng":122.81423},{"city":"Toledo","state":"Central Visayas","population":206692,"lat":10.3773,"lng":123.6386},{"city":"Pagadian","state":"Zamboanga Peninsula","population":206483,"lat":7.8257,"lng":123.437},{"city":"Koronadal","state":"Soccsksargen","population":201844,"lat":6.50306,"lng":124.84694},{"city":"Bago City","state":"Western Visayas","population":192993,"lat":10.53333,"lng":122.83333},{"city":"Panalanoy","state":"Eastern Visayas","population":189090,"lat":11.25111,"lng":125.00639},{"city":"Mabalacat City","state":"Central Luzon","population":188050,"lat":15.22303,"lng":120.57117},{"city":"Sorsogon","state":"Bicol Region","population":187670,"lat":12.97389,"lng":123.99333},{"city":"Roxas City","state":"Western Visayas","population":185236,"lat":11.58528,"lng":122.75111},{"city":"Legaspi","state":"Bicol Region","population":179481,"lat":13.14125,"lng":123.74073},{"city":"Concepcion","state":"Central Luzon","population":178549,"lat":15.32546,"lng":120.65723},{"city":"Naga","state":"Bicol Region","population":174931,"lat":13.61917,"lng":123.18139},{"city":"Dagupan","state":"Ilocos","population":171271,"lat":16.04313,"lng":120.33325},{"city":"Tuguegarao","state":"Cagayan Valley","population":167297,"lat":17.61577,"lng":121.72285},{"city":"Ilagan","state":"Cagayan Valley","population":164020,"lat":17.14854,"lng":121.88924},{"city":"Pandi","state":"Central Luzon","population":162725,"lat":14.865,"lng":120.95722},{"city":"Capas","state":"Central Luzon","population":162724,"lat":15.33117,"lng":120.5898},{"city":"Mariveles","state":"Central Luzon","population":156200,"lat":14.43385,"lng":120.48569},{"city":"Guyong","state":"Central Luzon","population":155391,"lat":14.8361,"lng":120.97844},{"city":"Urdaneta","state":"Ilocos","population":145935,"lat":15.97611,"lng":120.57111},{"city":"San Jose","state":"Mimaropa","population":143495,"lat":12.35275,"lng":121.06761},{"city":"La Trinidad","state":"Cordillera","population":142925,"lat":16.455,"lng":120.5875},{"city":"Norzagaray","state":"Central Luzon","population":140697,"lat":14.9109,"lng":121.0493},{"city":"Gingoog","state":"Northern Mindanao","population":138895,"lat":8.82778,"lng":125.09972},{"city":"Naga","state":"Central Visayas","population":138727,"lat":10.20898,"lng":123.758},{"city":"Candelaria","state":"Calabarzon","population":137933,"lat":13.93111,"lng":121.42333},{"city":"Baliuag","state":"Central Luzon","population":135679,"lat":14.95472,"lng":120.89694},{"city":"Angono","state":"Calabarzon","population":134975,"lat":14.5266,"lng":121.1536},{"city":"Rodriguez","state":"Calabarzon","population":134432,"lat":14.76011,"lng":121.19993},{"city":"San Mateo","state":"Calabarzon","population":134327,"lat":14.6982,"lng":121.1236},{"city":"San Juan","state":"National Capital Region","population":134312,"lat":14.6,"lng":121.0333},{"city":"Talisay","state":"Central Visayas","population":133148,"lat":10.24472,"lng":123.84944},{"city":"Muricay","state":"Zamboanga Peninsula","population":132094,"lat":7.8275,"lng":123.4782},{"city":"Bulaon","state":"Central Luzon","population":131818,"lat":15.08262,"lng":120.66288},{"city":"Gapan","state":"Central Luzon","population":129610,"lat":15.3072,"lng":120.9464},{"city":"Bayambang","state":"Ilocos","population":129506,"lat":15.8127,"lng":120.4557},{"city":"Cadiz","state":"Western Visayas","population":129053,"lat":10.9465,"lng":123.288},{"city":"Rosario","state":"Calabarzon","population":128352,"lat":13.6323,"lng":121.2207},{"city":"Pulong Santa Cruz","state":"Calabarzon","population":126844,"lat":14.27324,"lng":121.07643},{"city":"Bayawan","state":"Central Visayas","population":126744,"lat":9.3649,"lng":122.804},{"city":"Santa Cruz","state":"National Capital Region","population":126735,"lat":14.6,"lng":120.98333},{"city":"Sultan Kudarat","state":"Autonomous Region in Muslim Mindanao","population":124965,"lat":7.22889,"lng":124.25778},{"city":"Hagonoy","state":"Central Luzon","population":123531,"lat":14.83413,"lng":120.73271},{"city":"Tabuk","state":"Cordillera","population":122771,"lat":17.47378,"lng":121.46799},{"city":"Tabuk","state":"Cordillera","population":122771,"lat":17.4084,"lng":121.2785},{"city":"Calumpit","state":"Central Luzon","population":122187,"lat":14.91639,"lng":120.76583},{"city":"Apalit","state":"Central Luzon","population":121057,"lat":14.95333,"lng":120.77},{"city":"Plaridel","state":"Central Luzon","population":120939,"lat":14.88722,"lng":120.85722},{"city":"Silang","state":"Calabarzon","population":119475,"lat":14.21567,"lng":120.97137},{"city":"Malita","state":"Davao Region","population":118438,"lat":6.415,"lng":125.61167},{"city":"Guiguinto","state":"Central Luzon","population":118173,"lat":14.83333,"lng":120.88333},{"city":"Manolo Fortich","state":"Northern Mindanao","population":118075,"lat":8.36972,"lng":124.86444},{"city":"Midsayap","state":"Soccsksargen","population":117365,"lat":7.19083,"lng":124.53028},{"city":"Himamaylan","state":"Western Visayas","population":117286,"lat":10.09889,"lng":122.87056},{"city":"Los Baños","state":"Calabarzon","population":117030,"lat":14.17025,"lng":121.24181},{"city":"Tacurong","state":"Soccsksargen","population":116945,"lat":6.6925,"lng":124.67639},{"city":"Dinaig","state":"Autonomous Region in Muslim Mindanao","population":116768,"lat":7.16985,"lng":124.20836},{"city":"Digos","state":"Davao Region","population":116122,"lat":6.74972,"lng":125.35722},{"city":"Cavite City","state":"Calabarzon","population":115932,"lat":14.48369,"lng":120.89878},{"city":"Tayabas","state":"Calabarzon","population":115318,"lat":14.0259,"lng":121.5929},{"city":"Iriga City","state":"Bicol Region","population":115306,"lat":13.4324,"lng":123.4115},{"city":"Quezon","state":"Northern Mindanao","population":114521,"lat":7.73028,"lng":125.09889},{"city":"Dumaguete","state":"Central Visayas","population":113541,"lat":9.30646,"lng":123.30769},{"city":"Carmona","state":"Calabarzon","population":112140,"lat":14.3132,"lng":121.0576},{"city":"Laoag","state":"Ilocos","population":112117,"lat":18.1978,"lng":120.5957},{"city":"Pulilan","state":"Central Luzon","population":111384,"lat":14.90167,"lng":120.84917},{"city":"Bayugan","state":"Caraga","population":110313,"lat":8.75611,"lng":125.7675},{"city":"Maramag","state":"Northern Mindanao","population":109864,"lat":7.76333,"lng":125.00528},{"city":"Talisay","state":"Western Visayas","population":109204,"lat":10.7375,"lng":122.9666},{"city":"Santiago","state":"Cagayan Valley","population":108414,"lat":16.68808,"lng":121.5487},{"city":"Santa Cruz","state":"Calabarzon","population":108145,"lat":14.2814,"lng":121.4161},{"city":"Catbalogan","state":"Eastern Visayas","population":107896,"lat":11.77528,"lng":124.88611},{"city":"Bagong Silangan","state":"National Capital Region","population":106886,"lat":14.706,"lng":121.108},{"city":"Paniqui","state":"Central Luzon","population":106190,"lat":15.6689,"lng":120.5806},{"city":"Mati","state":"Davao Region","population":105908,"lat":6.95508,"lng":126.21655},{"city":"Tanza","state":"National Capital Region","population":105510,"lat":14.6753,"lng":120.9389},{"city":"Isulan","state":"Soccsksargen","population":101455,"lat":6.62944,"lng":124.605},{"city":"Jolo","state":"Autonomous Region in Muslim Mindanao","population":101002,"lat":6.05222,"lng":121.00222},{"city":"Calasiao","state":"Ilocos","population":100686,"lat":16.0111,"lng":120.36},{"city":"Bislig","state":"Caraga","population":99872,"lat":8.21528,"lng":126.31639},{"city":"Bocaue","state":"Central Luzon","population":98649,"lat":14.79833,"lng":120.92611},{"city":"Catarman","state":"Eastern Visayas","population":97738,"lat":12.4989,"lng":124.6377},{"city":"Escalante","state":"Western Visayas","population":97050,"lat":10.84028,"lng":123.49917},{"city":"Monkayo","state":"Davao Region","population":96405,"lat":7.81528,"lng":126.05444},{"city":"General Trias","state":"Calabarzon","population":96022,"lat":14.38694,"lng":120.88167},{"city":"Daanbantayan","state":"Central Visayas","population":95080,"lat":11.24681,"lng":124.01462},{"city":"Dipolog","state":"Zamboanga Peninsula","population":93549,"lat":8.56697,"lng":123.33471},{"city":"Ozamiz City","state":"Northern Mindanao","population":93082,"lat":8.1481,"lng":123.8405},{"city":"Banco Filipino Homes","state":"National Capital Region","population":92752,"lat":14.43379,"lng":121.02231},{"city":"Surallah","state":"Soccsksargen","population":91412,"lat":6.37527,"lng":124.74521},{"city":"Sablayan","state":"Mimaropa","population":91406,"lat":12.8346,"lng":120.769},{"city":"Prosperidad","state":"Caraga","population":90162,"lat":8.58,"lng":125.89639},{"city":"Alabel","state":"Soccsksargen","population":90120,"lat":6.10179,"lng":125.29048},{"city":"Calauan","state":"Calabarzon","population":89670,"lat":14.14989,"lng":121.3152},{"city":"Polangui","state":"Bicol Region","population":89176,"lat":13.2923,"lng":123.4855},{"city":"Kalibo (poblacion)","state":"Western Visayas","population":89127,"lat":11.70611,"lng":122.36444},{"city":"Calabanga","state":"Bicol Region","population":88918,"lat":13.7068,"lng":123.2087},{"city":"Mangaldan","state":"Ilocos","population":88818,"lat":16.07,"lng":120.4025},{"city":"Bais","state":"Central Visayas","population":88050,"lat":9.59111,"lng":123.12278},{"city":"Arayat","state":"Central Luzon","population":87987,"lat":15.1505,"lng":120.7697},{"city":"Surigao","state":"Caraga","population":87832,"lat":9.789,"lng":125.495},{"city":"Tagaytay","state":"Calabarzon","population":87811,"lat":14.09532,"lng":120.93355},{"city":"Dapitan","state":"Zamboanga Peninsula","population":87699,"lat":8.6561,"lng":123.4227},{"city":"Maco","state":"Davao Region","population":87680,"lat":7.36194,"lng":125.85528},{"city":"Bantayan","state":"Central Visayas","population":87394,"lat":11.1683,"lng":123.7223},{"city":"Victorias","state":"Western Visayas","population":86510,"lat":10.90154,"lng":123.0705},{"city":"Tagbilaran City","state":"Central Visayas","population":86411,"lat":9.65556,"lng":123.85219},{"city":"Muñoz","state":"Central Luzon","population":85061,"lat":15.71611,"lng":120.90306},{"city":"Tanjay","state":"Central Visayas","population":84593,"lat":9.5162,"lng":123.158},{"city":"Binonga","state":"Western Visayas","population":83980,"lat":10.7719,"lng":122.9817},{"city":"Marilao","state":"Central Luzon","population":83276,"lat":14.75778,"lng":120.94833},{"city":"Bulacan","state":"Central Luzon","population":83101,"lat":14.79278,"lng":120.87889},{"city":"San Fernando","state":"Ilocos","population":83003,"lat":16.61591,"lng":120.31663},{"city":"Malapatan","state":"Soccsksargen","population":82577,"lat":5.96917,"lng":125.28944},{"city":"Pagbilao","state":"Calabarzon","population":82132,"lat":13.96689,"lng":121.69835},{"city":"Limay","state":"Central Luzon","population":81960,"lat":14.56194,"lng":120.59833},{"city":"Lambayong","state":"Soccsksargen","population":81288,"lat":6.51944,"lng":125.04444},{"city":"Bustos","state":"Central Luzon","population":80565,"lat":14.95806,"lng":120.91778},{"city":"Paco","state":"National Capital Region","population":79839,"lat":14.588,"lng":120.993},{"city":"San Francisco","state":"Caraga","population":79718,"lat":8.53556,"lng":125.95},{"city":"Kidapawan","state":"Soccsksargen","population":79652,"lat":7.00833,"lng":125.08944},{"city":"Tupi","state":"Soccsksargen","population":78599,"lat":6.33444,"lng":124.95278},{"city":"Bamban","state":"Central Luzon","population":78260,"lat":15.27386,"lng":120.56683},{"city":"Daet","state":"Bicol Region","population":78142,"lat":14.1122,"lng":122.9553},{"city":"Bauang","state":"Ilocos","population":77670,"lat":16.53083,"lng":120.33306},{"city":"Bagong Barrio","state":"National Capital Region","population":77490,"lat":14.66638,"lng":120.99322},{"city":"Brookes Point","state":"Mimaropa","population":76715,"lat":8.77201,"lng":117.8371},{"city":"Virac","state":"Bicol Region","population":75135,"lat":13.5848,"lng":124.2374},{"city":"Alicia","state":"Cagayan Valley","population":74699,"lat":16.77936,"lng":121.69734},{"city":"Sipalay","state":"Western Visayas","population":73847,"lat":9.75194,"lng":122.40417},{"city":"Don Carlos","state":"Northern Mindanao","population":73592,"lat":7.68,"lng":125.005},{"city":"Kawit","state":"Calabarzon","population":73210,"lat":14.44426,"lng":120.90164},{"city":"Balanga","state":"Central Luzon","population":72954,"lat":14.67611,"lng":120.53611},{"city":"Port Area","state":"National Capital Region","population":72605,"lat":14.58945,"lng":120.96698},{"city":"Sagay","state":"Western Visayas","population":72153,"lat":10.94472,"lng":123.42417},{"city":"La Paz","state":"Central Luzon","population":71978,"lat":15.44125,"lng":120.72863},{"city":"Solana","state":"Cagayan Valley","population":71475,"lat":17.6528,"lng":121.691},{"city":"Borongan","state":"Eastern Visayas","population":71431,"lat":11.60806,"lng":125.43194},{"city":"Oroquieta","state":"Northern Mindanao","population":71373,"lat":8.4859,"lng":123.8048},{"city":"Buenavista","state":"Caraga","population":70691,"lat":8.97694,"lng":125.40889},{"city":"Mariano","state":"Northern Mindanao","population":70516,"lat":8.83333,"lng":125.11667},{"city":"Danao","state":"Central Visayas","population":70270,"lat":10.52083,"lng":124.02722},{"city":"Mauban","state":"Calabarzon","population":70135,"lat":14.191,"lng":121.7309},{"city":"Indang","state":"Calabarzon","population":70092,"lat":14.19528,"lng":120.87694},{"city":"Bongabon","state":"Central Luzon","population":69376,"lat":15.6321,"lng":121.1448},{"city":"San Leonardo","state":"Central Luzon","population":69180,"lat":15.363,"lng":120.9639},{"city":"Calauag","state":"Calabarzon","population":68999,"lat":13.9575,"lng":122.288},{"city":"Magalang","state":"Central Luzon","population":68988,"lat":15.2151,"lng":120.6596},{"city":"Libon","state":"Bicol Region","population":68846,"lat":13.2997,"lng":123.4386},{"city":"Lupon","state":"Davao Region","population":68717,"lat":6.89814,"lng":126.00961},{"city":"Tanauan","state":"Calabarzon","population":68456,"lat":14.08627,"lng":121.14975},{"city":"Aparri","state":"Cagayan Valley","population":68368,"lat":18.3566,"lng":121.6406},{"city":"Calbayog City","state":"Eastern Visayas","population":67921,"lat":12.0668,"lng":124.5962},{"city":"Angat","state":"Central Luzon","population":67862,"lat":14.9285,"lng":121.03},{"city":"La Carlota","state":"Western Visayas","population":67740,"lat":10.4242,"lng":122.9212},{"city":"Subic","state":"Central Luzon","population":67664,"lat":14.8787,"lng":120.23194},{"city":"Rosales","state":"Ilocos","population":67510,"lat":15.89444,"lng":120.63278},{"city":"City of Isabela","state":"Autonomous Region in Muslim Mindanao","population":67336,"lat":6.70407,"lng":121.97117},{"city":"Dinalupihan","state":"Central Luzon","population":66670,"lat":14.87827,"lng":120.45221},{"city":"Santa Cruz","state":"Central Luzon","population":66647,"lat":15.7654,"lng":119.9092},{"city":"Calapan","state":"Mimaropa","population":66008,"lat":13.4117,"lng":121.1803},{"city":"San Ildefonso","state":"Central Luzon","population":65669,"lat":15.0809,"lng":120.941},{"city":"San Miguel","state":"Central Luzon","population":65661,"lat":15.1423,"lng":120.97568},{"city":"Villasis","state":"Ilocos","population":65086,"lat":15.90167,"lng":120.58833},{"city":"Oas","state":"Bicol Region","population":64890,"lat":13.2593,"lng":123.4963},{"city":"Talavera","state":"Central Luzon","population":64610,"lat":15.5883,"lng":120.9192},{"city":"Enrique B. Magalona","state":"Western Visayas","population":64290,"lat":10.87879,"lng":122.97707},{"city":"Polomolok","state":"Soccsksargen","population":63987,"lat":6.22167,"lng":125.06398},{"city":"Pateros","state":"National Capital Region","population":63840,"lat":14.5391,"lng":121.0726},{"city":"Orion","state":"Central Luzon","population":63044,"lat":14.62056,"lng":120.58167},{"city":"Nasugbu","state":"Calabarzon","population":62857,"lat":14.06694,"lng":120.63181},{"city":"Tinongan","state":"Western Visayas","population":62146,"lat":10.215,"lng":123.03528},{"city":"Minglanilla","state":"Central Visayas","population":62058,"lat":10.24498,"lng":123.7964},{"city":"Malaybalay","state":"Northern Mindanao","population":61524,"lat":8.1575,"lng":125.12778},{"city":"Tunasan","state":"Calabarzon","population":61374,"lat":14.37917,"lng":121.0525},{"city":"Gubat","state":"Bicol Region","population":61095,"lat":12.92056,"lng":124.12306},{"city":"Buluan","state":"Autonomous Region in Muslim Mindanao","population":60931,"lat":6.72028,"lng":124.80194},{"city":"Ualog","state":"Western Visayas","population":60548,"lat":10.57396,"lng":123.3933},{"city":"Cogan","state":"Central Visayas","population":60230,"lat":10.59306,"lng":124.01778},{"city":"Bambang","state":"Cagayan Valley","population":60146,"lat":16.3865,"lng":121.1066},{"city":"Tanay","state":"Calabarzon","population":59950,"lat":14.4968,"lng":121.2846},{"city":"Obando","state":"Central Luzon","population":59929,"lat":14.7098,"lng":120.9362},{"city":"Balagtas","state":"Central Luzon","population":59826,"lat":14.81667,"lng":120.86667},{"city":"Itogon","state":"Cordillera","population":59736,"lat":16.36389,"lng":120.67694},{"city":"Manaoag","state":"Ilocos","population":59115,"lat":16.0438,"lng":120.4861},{"city":"Jose Rizal","state":"Mimaropa","population":59040,"lat":8.87722,"lng":117.50415},{"city":"Bañga","state":"Soccsksargen","population":58855,"lat":6.42389,"lng":124.77833},{"city":"Paombong","state":"Central Luzon","population":58453,"lat":14.83111,"lng":120.78917},{"city":"Magsaysay","state":"Davao Region","population":57936,"lat":6.76667,"lng":125.18333},{"city":"Tabaco","state":"Bicol Region","population":57860,"lat":13.35861,"lng":123.73361},{"city":"Santo Tomas","state":"Calabarzon","population":57438,"lat":14.1079,"lng":121.14136},{"city":"Batac City","state":"Ilocos","population":56781,"lat":18.0554,"lng":120.56489},{"city":"Lingayen","state":"Ilocos","population":56580,"lat":16.02182,"lng":120.23194},{"city":"Masinloc","state":"Central Luzon","population":56579,"lat":15.5363,"lng":119.9502},{"city":"Impasugong","state":"Northern Mindanao","population":55901,"lat":8.30972,"lng":125.00194},{"city":"Lubao","state":"Central Luzon","population":55645,"lat":14.9405,"lng":120.6011},{"city":"Naic","state":"Calabarzon","population":55195,"lat":14.31812,"lng":120.76609},{"city":"Estancia","state":"Western Visayas","population":54882,"lat":11.4551,"lng":123.152},{"city":"Burauen","state":"Eastern Visayas","population":54635,"lat":10.97556,"lng":124.89278},{"city":"Sibonga","state":"Central Visayas","population":54610,"lat":10.0168,"lng":123.6171},{"city":"Mercedes","state":"Bicol Region","population":53702,"lat":14.1093,"lng":123.0109},{"city":"Zaragoza","state":"Central Luzon","population":53090,"lat":15.44903,"lng":120.79627},{"city":"Patuto","state":"Calabarzon","population":52883,"lat":14.11667,"lng":120.96667},{"city":"Kalamansig","state":"Soccsksargen","population":52257,"lat":6.55187,"lng":124.05111},{"city":"Maluñgun","state":"Soccsksargen","population":52248,"lat":6.27917,"lng":125.28167},{"city":"Victoria","state":"Mimaropa","population":52215,"lat":13.17722,"lng":121.27806},{"city":"Cardona","state":"Calabarzon","population":51493,"lat":14.48646,"lng":121.22752},{"city":"El Nido","state":"Mimaropa","population":51367,"lat":11.18583,"lng":119.39556},{"city":"Siocon","state":"Zamboanga Peninsula","population":51239,"lat":7.70611,"lng":122.13528},{"city":"Bunawan","state":"Caraga","population":50999,"lat":8.16722,"lng":125.99083},{"city":"Tubod","state":"Northern Mindanao","population":50395,"lat":8.0555,"lng":123.7904},{"city":"Balayan","state":"Calabarzon","population":50115,"lat":13.93714,"lng":120.73224},{"city":"Cabiao","state":"Central Luzon","population":49980,"lat":15.2488,"lng":120.8548},{"city":"Morong","state":"Calabarzon","population":49589,"lat":14.51849,"lng":121.23778},{"city":"Liloan","state":"Central Visayas","population":49198,"lat":10.3991,"lng":123.9992},{"city":"Consolacion","state":"Central Visayas","population":48638,"lat":10.3766,"lng":123.9573},{"city":"Vigan","state":"Ilocos","population":48545,"lat":17.57472,"lng":120.38694},{"city":"Inabanga","state":"Central Visayas","population":48534,"lat":10.0307,"lng":124.0671},{"city":"Norala","state":"Soccsksargen","population":48499,"lat":6.5225,"lng":124.65917},{"city":"Bangued","state":"Cordillera","population":48331,"lat":17.60833,"lng":120.63806},{"city":"Bayombong","state":"Cagayan Valley","population":48199,"lat":16.4812,"lng":121.1497},{"city":"Masbate","state":"Bicol Region","population":47490,"lat":12.37169,"lng":123.62494},{"city":"Upper Bicutan","state":"National Capital Region","population":47397,"lat":14.4996,"lng":121.0507},{"city":"Candaba","state":"Central Luzon","population":47326,"lat":15.0956,"lng":120.8267},{"city":"Santa Ana","state":"Central Luzon","population":47158,"lat":15.0955,"lng":120.767},{"city":"Noveleta","state":"Calabarzon","population":46172,"lat":14.42922,"lng":120.87989},{"city":"Bugo","state":"Northern Mindanao","population":45787,"lat":8.50833,"lng":124.75944},{"city":"Vinzons","state":"Bicol Region","population":45173,"lat":14.1737,"lng":122.9066},{"city":"Sariaya","state":"Calabarzon","population":44977,"lat":13.9624,"lng":121.5265},{"city":"Parang","state":"Autonomous Region in Muslim Mindanao","population":44930,"lat":7.37035,"lng":124.26973},{"city":"Orani","state":"Central Luzon","population":44877,"lat":14.8006,"lng":120.5371},{"city":"Canlaon","state":"Central Visayas","population":44851,"lat":10.38697,"lng":123.2227},{"city":"Hinatuan","state":"Caraga","population":44475,"lat":8.37222,"lng":126.33417},{"city":"Amadeo","state":"Calabarzon","population":44190,"lat":14.17056,"lng":120.92361},{"city":"Binmaley","state":"Ilocos","population":44026,"lat":16.03232,"lng":120.26904},{"city":"Mexico","state":"Central Luzon","population":43694,"lat":15.0646,"lng":120.7198},{"city":"Samal","state":"Davao Region","population":43526,"lat":7.07444,"lng":125.70833},{"city":"Pinamalayan","state":"Mimaropa","population":43521,"lat":13.04603,"lng":121.46205},{"city":"Passi","state":"Western Visayas","population":42794,"lat":11.10778,"lng":122.64194},{"city":"Recodo","state":"Zamboanga Peninsula","population":42788,"lat":6.95194,"lng":121.96361},{"city":"Compostela","state":"Davao Region","population":42563,"lat":7.67306,"lng":126.08889},{"city":"Maragondon","state":"Calabarzon","population":41977,"lat":14.2733,"lng":120.7377},{"city":"Masantol","state":"Central Luzon","population":41278,"lat":14.896,"lng":120.7092},{"city":"Tagbina","state":"Caraga","population":41157,"lat":8.45194,"lng":126.17139},{"city":"Malilipot","state":"Bicol Region","population":41066,"lat":13.3188,"lng":123.7385},{"city":"Gerona","state":"Central Luzon","population":40914,"lat":15.6065,"lng":120.5978},{"city":"Samal","state":"Central Luzon","population":40843,"lat":14.76778,"lng":120.54306},{"city":"Carcar","state":"Central Visayas","population":40739,"lat":10.1061,"lng":123.6402},{"city":"Mamatid","state":"Calabarzon","population":40271,"lat":14.2349,"lng":121.15902},{"city":"Taal","state":"Calabarzon","population":39745,"lat":13.87992,"lng":120.92311},{"city":"Jaen","state":"Central Luzon","population":39700,"lat":15.3275,"lng":120.9192},{"city":"Camiling","state":"Central Luzon","population":39655,"lat":15.6866,"lng":120.4128},{"city":"Hinigaran","state":"Western Visayas","population":39636,"lat":10.2706,"lng":122.8507},{"city":"San Pascual","state":"Calabarzon","population":39395,"lat":13.81045,"lng":121.022},{"city":"Pantubig","state":"Central Luzon","population":39285,"lat":14.96806,"lng":120.95472},{"city":"Talipapa","state":"National Capital Region","population":39244,"lat":14.6857,"lng":121.0269},{"city":"Papaya","state":"Central Luzon","population":38640,"lat":15.32016,"lng":120.83574},{"city":"San Antonio","state":"Central Luzon","population":38617,"lat":14.94659,"lng":120.08673},{"city":"Binalbagan","state":"Western Visayas","population":38587,"lat":10.1948,"lng":122.8581},{"city":"Calaca","state":"Calabarzon","population":37443,"lat":13.93244,"lng":120.81327},{"city":"Del Pilar","state":"Central Luzon","population":37329,"lat":15.03601,"lng":120.69935},{"city":"Pandan","state":"Western Visayas","population":37325,"lat":11.74479,"lng":122.10027},{"city":"Bantay","state":"Ilocos","population":37088,"lat":17.58472,"lng":120.38917},{"city":"Mendez-Nuñez","state":"Calabarzon","population":36518,"lat":14.12861,"lng":120.90583},{"city":"Ramon","state":"Cagayan Valley","population":36307,"lat":16.78416,"lng":121.53504},{"city":"Solano","state":"Cagayan Valley","population":36222,"lat":16.51918,"lng":121.18124},{"city":"Bel Air","state":"National Capital Region","population":36007,"lat":14.5594,"lng":121.0258},{"city":"Tagudin","state":"Ilocos","population":35791,"lat":16.9355,"lng":120.4442},{"city":"San Jose","state":"Bicol Region","population":35768,"lat":13.35,"lng":123.55},{"city":"Abucay","state":"Central Luzon","population":35508,"lat":14.73347,"lng":120.53358},{"city":"Jalajala","state":"Calabarzon","population":34901,"lat":14.353,"lng":121.3225},{"city":"Teresa","state":"Calabarzon","population":34716,"lat":14.5612,"lng":121.2195},{"city":"Pila","state":"Calabarzon","population":34383,"lat":14.2325,"lng":121.3648},{"city":"Manapla","state":"Western Visayas","population":34312,"lat":10.95803,"lng":123.123},{"city":"San Nicolas","state":"Ilocos","population":34237,"lat":18.1725,"lng":120.5953},{"city":"Aliaga","state":"Central Luzon","population":34020,"lat":15.5,"lng":120.843},{"city":"Baclaran","state":"Calabarzon","population":33850,"lat":14.53194,"lng":120.99417},{"city":"Hermosa","state":"Central Luzon","population":33714,"lat":14.8314,"lng":120.5081},{"city":"Bauan","state":"Calabarzon","population":33560,"lat":13.7917,"lng":121.0085},{"city":"Bay","state":"Calabarzon","population":33547,"lat":14.18368,"lng":121.28554},{"city":"Jetafe","state":"Central Visayas","population":33485,"lat":10.14722,"lng":124.15389},{"city":"San Luis","state":"Central Luzon","population":33467,"lat":15.0401,"lng":120.7883},{"city":"Dupax Del Norte","state":"Cagayan Valley","population":33295,"lat":16.3079,"lng":121.1062},{"city":"General Tinio","state":"Central Luzon","population":32875,"lat":15.35075,"lng":121.04773},{"city":"Jagna","state":"Central Visayas","population":32566,"lat":9.6531,"lng":124.3697},{"city":"Guimba","state":"Central Luzon","population":32306,"lat":15.6605,"lng":120.7683},{"city":"Quiapo","state":"National Capital Region","population":32236,"lat":14.6,"lng":120.9833},{"city":"San Narciso","state":"Central Luzon","population":32180,"lat":15.0143,"lng":120.0803},{"city":"Kabacan","state":"Soccsksargen","population":31769,"lat":7.10667,"lng":124.82917},{"city":"Alaminos","state":"Calabarzon","population":31427,"lat":14.06391,"lng":121.24649},{"city":"Maluso","state":"Autonomous Region in Muslim Mindanao","population":31374,"lat":6.543,"lng":121.8753},{"city":"General Salipada K. Pendatun","state":"Autonomous Region in Muslim Mindanao","population":31263,"lat":6.82626,"lng":124.72171},{"city":"Cabadbaran","state":"Caraga","population":31114,"lat":9.12261,"lng":125.53549},{"city":"Pagaluñgan","state":"Autonomous Region in Muslim Mindanao","population":31052,"lat":7.14167,"lng":124.38056},{"city":"Lucban","state":"Calabarzon","population":30992,"lat":14.11356,"lng":121.55574},{"city":"Aglipay","state":"Cagayan Valley","population":30714,"lat":16.4889,"lng":121.645},{"city":"Paraiso","state":"Western Visayas","population":30494,"lat":10.8849,"lng":123.3627},{"city":"Pililla","state":"Calabarzon","population":30408,"lat":14.4854,"lng":121.3062},{"city":"Tagoloan","state":"Northern Mindanao","population":30390,"lat":8.53954,"lng":124.75411},{"city":"Lumbang","state":"Calabarzon","population":30269,"lat":14.2973,"lng":121.4598},{"city":"Buhi","state":"Bicol Region","population":30126,"lat":13.4322,"lng":123.517},{"city":"Malvar","state":"Calabarzon","population":29880,"lat":14.04472,"lng":121.15861},{"city":"Aringay","state":"Ilocos","population":29825,"lat":16.394,"lng":120.3545},{"city":"Tangub","state":"Northern Mindanao","population":29721,"lat":8.0618,"lng":123.7477},{"city":"Bagong Pagasa","state":"National Capital Region","population":29389,"lat":14.6627,"lng":121.0328},{"city":"Atimonan","state":"Calabarzon","population":29356,"lat":14.0027,"lng":121.92078},{"city":"Cordova","state":"Central Visayas","population":29289,"lat":10.24394,"lng":123.94222},{"city":"Mapun","state":"Mimaropa","population":29218,"lat":6.9747,"lng":118.5144},{"city":"San Simon","state":"Central Luzon","population":29049,"lat":14.9996,"lng":120.7808},{"city":"Tandag","state":"Caraga","population":29011,"lat":9.07833,"lng":126.19861},{"city":"Agoo","state":"Ilocos","population":28972,"lat":16.08333,"lng":120.1},{"city":"Bah-Bah","state":"Caraga","population":28643,"lat":8.60722,"lng":125.91444},{"city":"Pandacaqui","state":"Central Luzon","population":28603,"lat":15.1719,"lng":120.65457},{"city":"Bulan","state":"Bicol Region","population":28529,"lat":12.67139,"lng":123.875},{"city":"Majayjay","state":"Calabarzon","population":28504,"lat":14.1463,"lng":121.4729},{"city":"Narra","state":"Mimaropa","population":28342,"lat":9.26877,"lng":118.4043},{"city":"Burgos","state":"Central Luzon","population":28178,"lat":15.72892,"lng":120.57224},{"city":"Sibulan","state":"Central Visayas","population":28079,"lat":9.3584,"lng":123.285},{"city":"Santa Maria","state":"Ilocos","population":28002,"lat":16.9518,"lng":120.4445},{"city":"Peñaranda","state":"Central Luzon","population":27465,"lat":15.35116,"lng":121.00393},{"city":"Pulupandan","state":"Western Visayas","population":27363,"lat":10.51784,"lng":122.80259},{"city":"Castillejos","state":"Central Luzon","population":27301,"lat":14.93363,"lng":120.19785},{"city":"Iba","state":"Central Luzon","population":26935,"lat":15.3276,"lng":119.978},{"city":"Paete","state":"Calabarzon","population":26855,"lat":14.3647,"lng":121.4829},{"city":"Catanauan","state":"Calabarzon","population":26804,"lat":13.5926,"lng":122.3215},{"city":"San Jose","state":"Caraga","population":26735,"lat":10.18,"lng":125.56833},{"city":"Bongao","state":"Autonomous Region in Muslim Mindanao","population":26518,"lat":5.02917,"lng":119.77306},{"city":"Santa Catalina","state":"Central Visayas","population":26457,"lat":9.3337,"lng":122.8637},{"city":"Sanchez-Mira","state":"Cagayan Valley","population":26292,"lat":18.56163,"lng":121.23189},{"city":"San Antonio","state":"Central Luzon","population":26247,"lat":15.3062,"lng":120.856},{"city":"Rizal","state":"Central Luzon","population":26201,"lat":15.7118,"lng":121.1061},{"city":"Telabastagan","state":"Central Luzon","population":25935,"lat":15.11854,"lng":120.60773},{"city":"Maao","state":"Western Visayas","population":25837,"lat":10.4896,"lng":122.9907},{"city":"Lopez","state":"Calabarzon","population":25752,"lat":13.884,"lng":122.2604},{"city":"Nabua","state":"Bicol Region","population":25687,"lat":13.4075,"lng":123.3724},{"city":"Concepcion Ibaba","state":"Calabarzon","population":25628,"lat":13.92309,"lng":121.46099},{"city":"Pangil","state":"Calabarzon","population":25318,"lat":14.4033,"lng":121.46506},{"city":"Cabagan","state":"Cagayan Valley","population":25304,"lat":17.42782,"lng":121.76955},{"city":"Ayala Alabang","state":"National Capital Region","population":25115,"lat":14.40599,"lng":121.02222},{"city":"Talisay","state":"Calabarzon","population":24969,"lat":14.0925,"lng":121.02194},{"city":"Baggabag B","state":"Cagayan Valley","population":24967,"lat":16.50588,"lng":121.19014},{"city":"Manibaug Pasig","state":"Central Luzon","population":24618,"lat":15.09621,"lng":120.56445},{"city":"Nagcarlan","state":"Calabarzon","population":24560,"lat":14.1364,"lng":121.4165},{"city":"Victoria","state":"Calabarzon","population":24456,"lat":14.2277,"lng":121.3292},{"city":"La Castellana","state":"Western Visayas","population":24407,"lat":10.3239,"lng":123.0215},{"city":"Pio","state":"Central Luzon","population":24345,"lat":15.04741,"lng":120.51891},{"city":"General Emilio Aguinaldo","state":"Calabarzon","population":24264,"lat":14.18417,"lng":120.79583},{"city":"Glan","state":"Soccsksargen","population":24256,"lat":5.82417,"lng":125.20333},{"city":"Mamburao","state":"Mimaropa","population":23892,"lat":13.2233,"lng":120.596},{"city":"Palayan City","state":"Central Luzon","population":23742,"lat":15.5415,"lng":121.0848},{"city":"Al-Barka","state":"Autonomous Region in Muslim Mindanao","population":23736,"lat":6.48623,"lng":122.17552},{"city":"San Fernando","state":"Central Visayas","population":23706,"lat":10.1624,"lng":123.7076},{"city":"Bogo","state":"Central Visayas","population":23562,"lat":11.0517,"lng":124.0055},{"city":"Asia","state":"Western Visayas","population":23546,"lat":9.5506,"lng":122.5164},{"city":"Bontoc","state":"Cordillera","population":23466,"lat":17.08731,"lng":120.97685},{"city":"Culion","state":"Mimaropa","population":23213,"lat":11.8904,"lng":120.0222},{"city":"Pinamungahan","state":"Central Visayas","population":23068,"lat":10.2708,"lng":123.5839},{"city":"Mansalay","state":"Mimaropa","population":23044,"lat":12.52044,"lng":121.43851},{"city":"Botolan","state":"Central Luzon","population":22994,"lat":15.2896,"lng":120.0245},{"city":"Guihulñgan","state":"Central Visayas","population":22931,"lat":10.11947,"lng":123.27287},{"city":"Apas","state":"Central Visayas","population":22566,"lat":10.34076,"lng":123.90261},{"city":"Gumaca","state":"Calabarzon","population":22496,"lat":13.921,"lng":122.1002},{"city":"Bignay Uno","state":"Calabarzon","population":22401,"lat":13.86445,"lng":121.48792},{"city":"Balamban","state":"Central Visayas","population":22283,"lat":10.5039,"lng":123.7156},{"city":"Guiset East","state":"Ilocos","population":21994,"lat":16.06667,"lng":120.68333},{"city":"Loma de Gato","state":"Central Luzon","population":21990,"lat":14.78869,"lng":120.99889},{"city":"Malanday","state":"Calabarzon","population":21901,"lat":14.7069,"lng":121.1306},{"city":"Lake Sebu","state":"Soccsksargen","population":21767,"lat":6.22482,"lng":124.71042},{"city":"Porac","state":"Central Luzon","population":21660,"lat":15.0711,"lng":120.5423},{"city":"Cuenca","state":"Calabarzon","population":21558,"lat":13.902,"lng":121.0521},{"city":"Bansalan","state":"Davao Region","population":21391,"lat":6.78611,"lng":125.21333},{"city":"Inopacan","state":"Eastern Visayas","population":21389,"lat":10.4997,"lng":124.7405},{"city":"Jose Pañganiban","state":"Bicol Region","population":21236,"lat":14.2906,"lng":122.6917},{"city":"Dupax del Sur","state":"Cagayan Valley","population":21224,"lat":16.2838,"lng":121.0896},{"city":"Sasmuan","state":"Central Luzon","population":21124,"lat":14.9438,"lng":120.6229},{"city":"Molave","state":"Zamboanga Peninsula","population":21088,"lat":8.0844,"lng":123.491},{"city":"Goa","state":"Bicol Region","population":20936,"lat":13.6978,"lng":123.4892},{"city":"Irosin","state":"Bicol Region","population":20716,"lat":12.70013,"lng":124.03221},{"city":"New Corella","state":"Davao Region","population":20574,"lat":7.5866,"lng":125.8237},{"city":"Binondo","state":"National Capital Region","population":20491,"lat":14.603,"lng":120.974},{"city":"Taloc","state":"Western Visayas","population":20409,"lat":10.5746,"lng":122.8954},{"city":"Manay","state":"Davao Region","population":20336,"lat":7.215,"lng":126.53972},{"city":"Baras","state":"Calabarzon","population":20250,"lat":14.51691,"lng":121.2658},{"city":"Danao","state":"Central Visayas","population":20245,"lat":9.55421,"lng":123.75648},{"city":"Sampaloc","state":"Calabarzon","population":20157,"lat":14.5402,"lng":121.3602},{"city":"Ternate","state":"Calabarzon","population":20049,"lat":14.2897,"lng":120.7168},{"city":"Pacol","state":"Western Visayas","population":19839,"lat":10.45,"lng":122.81667},{"city":"Talitay","state":"Autonomous Region in Muslim Mindanao","population":19750,"lat":7.03333,"lng":124.7},{"city":"Suay","state":"Western Visayas","population":19672,"lat":10.0533,"lng":122.8423},{"city":"Baao","state":"Bicol Region","population":19612,"lat":13.4549,"lng":123.3653},{"city":"San Francisco","state":"Central Luzon","population":19570,"lat":15.35566,"lng":120.84001},{"city":"Malabanban Norte","state":"Calabarzon","population":19471,"lat":13.94521,"lng":121.43065},{"city":"Laur","state":"Central Luzon","population":19206,"lat":15.5865,"lng":121.1834},{"city":"Ipil","state":"Zamboanga Peninsula","population":19195,"lat":7.78444,"lng":122.58611},{"city":"Lagawe","state":"Cordillera","population":19124,"lat":16.79997,"lng":121.11924},{"city":"Malanday","state":"Central Luzon","population":19060,"lat":14.71694,"lng":120.95806},{"city":"Nunungan","state":"Northern Mindanao","population":18827,"lat":7.8236,"lng":123.965},{"city":"Sumag","state":"Western Visayas","population":18752,"lat":10.60139,"lng":122.91924},{"city":"Compostela","state":"Central Visayas","population":18727,"lat":10.455,"lng":124.0106},{"city":"San Marcelino","state":"Central Luzon","population":18721,"lat":14.97418,"lng":120.15733},{"city":"San Mariano","state":"Davao Region","population":18668,"lat":7.5,"lng":126.0},{"city":"San Miguel","state":"Central Luzon","population":18582,"lat":15.44397,"lng":120.59923},{"city":"Quezon","state":"Central Luzon","population":18451,"lat":15.5512,"lng":120.8147},{"city":"General Mamerto Natividad","state":"Central Luzon","population":18393,"lat":15.6025,"lng":121.0515},{"city":"Maasin","state":"Eastern Visayas","population":18313,"lat":10.13272,"lng":124.84082},{"city":"Veruela","state":"Caraga","population":18114,"lat":8.0731,"lng":125.9558},{"city":"Labo","state":"Bicol Region","population":18105,"lat":14.1532,"lng":122.8303},{"city":"Wao","state":"Autonomous Region in Muslim Mindanao","population":17845,"lat":7.68333,"lng":124.66667},{"city":"Pilar","state":"Central Luzon","population":17831,"lat":14.66,"lng":120.56528},{"city":"Laguilayan","state":"Soccsksargen","population":17764,"lat":6.67213,"lng":124.52491},{"city":"Baybay","state":"Eastern Visayas","population":17668,"lat":10.6785,"lng":124.8006},{"city":"Palo","state":"Eastern Visayas","population":17534,"lat":11.1575,"lng":124.99083},{"city":"Esperanza","state":"Bicol Region","population":17534,"lat":11.7365,"lng":124.042},{"city":"Carigara","state":"Eastern Visayas","population":17495,"lat":11.29811,"lng":124.67895},{"city":"Murcia","state":"Western Visayas","population":17448,"lat":10.60516,"lng":123.0417},{"city":"Maganoy","state":"Autonomous Region in Muslim Mindanao","population":17394,"lat":6.86472,"lng":124.44167},{"city":"Sitangkai","state":"Autonomous Region in Muslim Mindanao","population":17200,"lat":4.66115,"lng":119.39647},{"city":"Mahayag","state":"Zamboanga Peninsula","population":17144,"lat":8.1183,"lng":123.4455},{"city":"Bato","state":"Bicol Region","population":16939,"lat":13.3528,"lng":123.3677},{"city":"Tiwi","state":"Bicol Region","population":16826,"lat":13.4585,"lng":123.6805},{"city":"Santa Maria","state":"Davao Region","population":16758,"lat":6.55361,"lng":125.47083},{"city":"Laoang","state":"Eastern Visayas","population":16725,"lat":12.5698,"lng":125.0141},{"city":"Nabunturan","state":"Davao Region","population":16671,"lat":7.60778,"lng":125.96639},{"city":"Roxas","state":"Cagayan Valley","population":16618,"lat":17.11894,"lng":121.62014},{"city":"Tanauan","state":"Eastern Visayas","population":16567,"lat":11.10944,"lng":125.01556},{"city":"Cabayangan","state":"Davao Region","population":16539,"lat":7.40722,"lng":125.73306},{"city":"Jasaan","state":"Northern Mindanao","population":16435,"lat":8.65417,"lng":124.75556},{"city":"Loboc","state":"Central Visayas","population":16312,"lat":9.63833,"lng":124.03482},{"city":"Zumarraga","state":"Eastern Visayas","population":16279,"lat":11.6388,"lng":124.8417},{"city":"San Mateo","state":"Cagayan Valley","population":16233,"lat":16.88206,"lng":121.58694},{"city":"Aurora","state":"Calabarzon","population":16178,"lat":13.3476,"lng":122.5195},{"city":"Morong","state":"Central Luzon","population":16117,"lat":14.67889,"lng":120.26611},{"city":"San Vicente","state":"Central Luzon","population":16116,"lat":15.2921,"lng":120.65498},{"city":"Calatagan","state":"Calabarzon","population":16110,"lat":13.83224,"lng":120.63219},{"city":"Novaliches Proper","state":"National Capital Region","population":16096,"lat":14.72259,"lng":121.04616},{"city":"Trento","state":"Caraga","population":15916,"lat":8.04583,"lng":126.06361},{"city":"Isabela","state":"Western Visayas","population":15897,"lat":10.2048,"lng":122.9888},{"city":"Mankayan","state":"Cordillera","population":15886,"lat":16.8632,"lng":120.7829},{"city":"Abuyog","state":"Eastern Visayas","population":15632,"lat":10.747,"lng":125.0107},{"city":"Calumpang","state":"National Capital Region","population":15602,"lat":14.6228,"lng":121.0897},{"city":"Talacogon","state":"Caraga","population":15581,"lat":8.45611,"lng":125.78417},{"city":"Diadi","state":"Cagayan Valley","population":15567,"lat":16.7262,"lng":121.3589},{"city":"Boroon","state":"Northern Mindanao","population":15490,"lat":8.18278,"lng":124.17701},{"city":"Santa Barbara","state":"Ilocos","population":15445,"lat":16.0009,"lng":120.4023},{"city":"Santa Cruz","state":"Central Luzon","population":15408,"lat":14.9127,"lng":120.56659},{"city":"Romblon","state":"Mimaropa","population":15316,"lat":12.57513,"lng":122.27081},{"city":"Tagas","state":"Bicol Region","population":15292,"lat":13.16667,"lng":123.71667},{"city":"Lilio","state":"Calabarzon","population":15246,"lat":14.1313,"lng":121.4362},{"city":"Roxas","state":"Mimaropa","population":15242,"lat":10.3215,"lng":119.3451},{"city":"Magarao","state":"Bicol Region","population":15205,"lat":13.6604,"lng":123.1869},{"city":"Dologon","state":"Northern Mindanao","population":15128,"lat":7.84083,"lng":125.04444},{"city":"Domalanoan","state":"Ilocos","population":15108,"lat":16.00292,"lng":120.21154},{"city":"Ramos","state":"Central Luzon","population":15066,"lat":15.6653,"lng":120.6406},{"city":"Babo-Pangulo","state":"Central Luzon","population":15066,"lat":15.08333,"lng":120.51667},{"city":"Pikit","state":"Soccsksargen","population":14998,"lat":7.05444,"lng":124.67194},{"city":"Poblacion, San Felipe","state":"Central Luzon","population":14981,"lat":15.06222,"lng":120.07},{"city":"Guiljungan","state":"Western Visayas","population":14876,"lat":9.9805,"lng":122.6742},{"city":"Lusacan","state":"Calabarzon","population":14870,"lat":13.95523,"lng":121.34477},{"city":"New Visayas","state":"Davao Region","population":14758,"lat":7.52333,"lng":125.62333},{"city":"Agusan","state":"Northern Mindanao","population":14756,"lat":8.49056,"lng":124.73722},{"city":"Lalig","state":"Calabarzon","population":14729,"lat":13.98255,"lng":121.32647},{"city":"Sangali","state":"Zamboanga Peninsula","population":14727,"lat":7.06944,"lng":122.20139},{"city":"Santa Elena","state":"Bicol Region","population":14641,"lat":14.17023,"lng":122.38246},{"city":"Buayan","state":"Soccsksargen","population":14607,"lat":6.11639,"lng":125.23472},{"city":"Margosatubig","state":"Zamboanga Peninsula","population":14605,"lat":7.5777,"lng":123.1658},{"city":"Kansipati","state":"Autonomous Region in Muslim Mindanao","population":14552,"lat":6.00111,"lng":121.23444},{"city":"Bigaa","state":"Bicol Region","population":14510,"lat":13.1993,"lng":123.7566},{"city":"Kalilangan","state":"Northern Mindanao","population":14456,"lat":7.74514,"lng":124.74777},{"city":"Belison","state":"Western Visayas","population":14433,"lat":10.8384,"lng":121.9605},{"city":"Eustaquio Lopez","state":"Western Visayas","population":14408,"lat":10.8195,"lng":123.0412},{"city":"Oton","state":"Western Visayas","population":14395,"lat":10.69306,"lng":122.47361},{"city":"Roxas","state":"Mimaropa","population":14335,"lat":12.5835,"lng":121.5176},{"city":"Dalipuga","state":"Northern Mindanao","population":14242,"lat":8.31583,"lng":124.25472},{"city":"Bacacay","state":"Bicol Region","population":14109,"lat":13.2934,"lng":123.7919},{"city":"Bulihan","state":"Calabarzon","population":13979,"lat":14.2782,"lng":120.99503},{"city":"Dalican","state":"Autonomous Region in Muslim Mindanao","population":13918,"lat":6.96667,"lng":124.4},{"city":"Ocaña","state":"Central Visayas","population":13898,"lat":10.0656,"lng":123.6244},{"city":"Makilala","state":"Soccsksargen","population":13829,"lat":6.95167,"lng":125.09694},{"city":"Manggahan","state":"Calabarzon","population":13825,"lat":14.29196,"lng":120.90145},{"city":"Bansud","state":"Mimaropa","population":13758,"lat":12.865,"lng":121.45639},{"city":"Casisang","state":"Northern Mindanao","population":13722,"lat":8.13806,"lng":125.125},{"city":"Bula","state":"Bicol Region","population":13694,"lat":13.4701,"lng":123.278},{"city":"Maranding","state":"Northern Mindanao","population":13694,"lat":7.9248,"lng":123.7715},{"city":"Magapit, Aguiguican","state":"Cagayan Valley","population":13659,"lat":18.10788,"lng":121.67705},{"city":"Nibaliw Central","state":"Ilocos","population":13631,"lat":16.1275,"lng":120.4027},{"city":"Lianga","state":"Caraga","population":13623,"lat":8.63361,"lng":126.09472},{"city":"Pagsañgahan","state":"Calabarzon","population":13573,"lat":13.21583,"lng":122.54306},{"city":"Minalin","state":"Central Luzon","population":13527,"lat":14.9676,"lng":120.6828},{"city":"Pio Duran","state":"Bicol Region","population":13249,"lat":13.02928,"lng":123.44496},{"city":"Buco","state":"Calabarzon","population":13217,"lat":14.08323,"lng":120.99016},{"city":"Tucuran","state":"Zamboanga Peninsula","population":13148,"lat":7.8524,"lng":123.5743},{"city":"Payocpoc Sur","state":"Ilocos","population":13107,"lat":16.49444,"lng":120.32806},{"city":"Lutayan","state":"Soccsksargen","population":13080,"lat":6.6189,"lng":124.88156},{"city":"Codcod","state":"Western Visayas","population":13026,"lat":10.46337,"lng":123.2495},{"city":"Toboso","state":"Western Visayas","population":13006,"lat":10.71435,"lng":123.5162},{"city":"Labuan","state":"Zamboanga Peninsula","population":12949,"lat":7.09972,"lng":121.90417},{"city":"Sipocot","state":"Bicol Region","population":12916,"lat":13.768,"lng":122.9762},{"city":"Janiuay","state":"Western Visayas","population":12896,"lat":10.9493,"lng":122.5061},{"city":"Agutaya","state":"Mimaropa","population":12867,"lat":11.148,"lng":120.9417},{"city":"Malandag","state":"Soccsksargen","population":12867,"lat":6.3103,"lng":125.24756},{"city":"Urbiztondo","state":"Ilocos","population":12734,"lat":15.8227,"lng":120.3295},{"city":"Tigbauan","state":"Western Visayas","population":12659,"lat":10.67466,"lng":122.3776},{"city":"Caburan","state":"Davao Region","population":12618,"lat":5.91806,"lng":125.64111},{"city":"Magsaysay","state":"Mimaropa","population":12603,"lat":9.3859,"lng":118.5133},{"city":"Project 6","state":"National Capital Region","population":12595,"lat":14.6591,"lng":121.0395},{"city":"Siasi","state":"Autonomous Region in Muslim Mindanao","population":12566,"lat":5.5462,"lng":120.8145},{"city":"South Upi","state":"Autonomous Region in Muslim Mindanao","population":12538,"lat":6.83333,"lng":124.15},{"city":"Tigaon","state":"Bicol Region","population":12509,"lat":13.6331,"lng":123.4968},{"city":"Guihing Proper","state":"Davao Region","population":12466,"lat":6.68444,"lng":125.3525},{"city":"Barra","state":"Northern Mindanao","population":12442,"lat":8.51028,"lng":124.60444},{"city":"San Mariano","state":"Cagayan Valley","population":12441,"lat":16.98265,"lng":122.01404},{"city":"Mabitac","state":"Calabarzon","population":12398,"lat":14.4259,"lng":121.429},{"city":"Mangatarem","state":"Ilocos","population":12392,"lat":15.7874,"lng":120.2921},{"city":"Amuñgan","state":"Central Luzon","population":12357,"lat":15.3652,"lng":119.9582},{"city":"Buluangan","state":"Western Visayas","population":12249,"lat":10.38707,"lng":123.3381},{"city":"Naval","state":"Eastern Visayas","population":12217,"lat":11.56056,"lng":124.3975},{"city":"Palompon","state":"Eastern Visayas","population":12087,"lat":11.0508,"lng":124.3843},{"city":"Biao","state":"Davao Region","population":12043,"lat":7.16333,"lng":125.52111},{"city":"Bugallon","state":"Ilocos","population":12033,"lat":15.9528,"lng":120.2155},{"city":"Bulalacao","state":"Mimaropa","population":12027,"lat":12.32535,"lng":121.34351},{"city":"Mariana","state":"Calabarzon","population":11967,"lat":14.6172,"lng":121.0361},{"city":"Nattapian","state":"Cagayan Valley","population":11867,"lat":17.67536,"lng":121.70296},{"city":"Aguisan","state":"Western Visayas","population":11798,"lat":10.1603,"lng":122.8615},{"city":"Pamplona","state":"Central Visayas","population":11772,"lat":9.4724,"lng":123.1192},{"city":"Baculongan","state":"Cordillera","population":11742,"lat":16.8,"lng":120.8333},{"city":"Medellin","state":"Central Visayas","population":11741,"lat":11.1286,"lng":123.9622},{"city":"Cambanugoy","state":"Davao Region","population":11693,"lat":7.5413,"lng":125.7553},{"city":"Libog","state":"Bicol Region","population":11692,"lat":13.2349,"lng":123.7778},{"city":"Santa Rosa","state":"Central Luzon","population":11683,"lat":15.4238,"lng":120.9378},{"city":"Quezon","state":"Western Visayas","population":11681,"lat":10.43617,"lng":123.2604},{"city":"Barotac Nuevo","state":"Western Visayas","population":11641,"lat":10.89417,"lng":122.70444},{"city":"Tayug","state":"Ilocos","population":11611,"lat":16.0274,"lng":120.7434},{"city":"Lun Pequeño","state":"Soccsksargen","population":11541,"lat":6.03778,"lng":125.28389},{"city":"Trapiche","state":"Western Visayas","population":11539,"lat":10.68417,"lng":122.43222},{"city":"Manukan","state":"Zamboanga Peninsula","population":11523,"lat":8.53333,"lng":123.1},{"city":"Santa Ignacia","state":"Central Luzon","population":11477,"lat":15.6169,"lng":120.4358},{"city":"Calintaan","state":"Mimaropa","population":11476,"lat":12.56667,"lng":120.93333},{"city":"Titay","state":"Zamboanga Peninsula","population":11468,"lat":7.8125,"lng":122.53444},{"city":"Malaya","state":"Calabarzon","population":11442,"lat":14.3971,"lng":121.3385},{"city":"Padada","state":"Davao Region","population":11439,"lat":6.64111,"lng":125.345},{"city":"Pigcawayan","state":"Soccsksargen","population":11420,"lat":7.27722,"lng":124.42556},{"city":"Sapang","state":"Central Luzon","population":11373,"lat":15.7032,"lng":120.5245},{"city":"Bilog-Bilog","state":"Calabarzon","population":11342,"lat":14.11361,"lng":121.08861},{"city":"Luna","state":"Western Visayas","population":11312,"lat":10.969,"lng":123.2419},{"city":"Tibigan","state":"Central Visayas","population":11262,"lat":9.9518,"lng":123.9622},{"city":"Candon","state":"Ilocos","population":11236,"lat":17.19472,"lng":120.45167},{"city":"Magapit","state":"Cagayan Valley","population":11235,"lat":18.13741,"lng":121.66942},{"city":"Talibon","state":"Central Visayas","population":11209,"lat":10.14917,"lng":124.325},{"city":"Mapandan","state":"Ilocos","population":11165,"lat":16.0248,"lng":120.4547},{"city":"Caminauit","state":"Mimaropa","population":11161,"lat":12.33135,"lng":121.08251},{"city":"Lourdes","state":"Central Luzon","population":11155,"lat":14.96667,"lng":120.68333},{"city":"Guadalupe","state":"Central Visayas","population":11121,"lat":10.1165,"lng":123.6072},{"city":"San Narciso","state":"Calabarzon","population":11118,"lat":13.5677,"lng":122.5667},{"city":"Tuyum","state":"Western Visayas","population":11117,"lat":9.9769,"lng":122.5582},{"city":"Bulog","state":"Ilocos","population":11103,"lat":15.9602,"lng":120.4017},{"city":"Bangar","state":"Ilocos","population":11068,"lat":16.8936,"lng":120.4243},{"city":"Guadalupe","state":"Western Visayas","population":11053,"lat":10.45447,"lng":123.3732},{"city":"Guiuan","state":"Eastern Visayas","population":11041,"lat":11.03088,"lng":125.72342},{"city":"Del Monte","state":"Calabarzon","population":11035,"lat":14.6418,"lng":121.0177},{"city":"Carranglan","state":"Central Luzon","population":11017,"lat":15.9613,"lng":121.0641},{"city":"Lupao","state":"Central Luzon","population":11000,"lat":15.8793,"lng":120.8983},{"city":"Damilag","state":"Northern Mindanao","population":11000,"lat":8.35472,"lng":124.81222},{"city":"Quisao","state":"Calabarzon","population":10989,"lat":14.4347,"lng":121.3344},{"city":"Kiamba","state":"Soccsksargen","population":10979,"lat":5.98944,"lng":124.62417},{"city":"Perrelos","state":"Central Visayas","population":10971,"lat":10.1169,"lng":123.6738},{"city":"Buanoy","state":"Central Visayas","population":10955,"lat":10.46746,"lng":123.6999},{"city":"Suyo","state":"Ilocos","population":10943,"lat":16.9762,"lng":120.5254},{"city":"President Roxas","state":"Soccsksargen","population":10879,"lat":7.15444,"lng":125.05583},{"city":"Halapitan","state":"Northern Mindanao","population":10870,"lat":7.9175,"lng":125.33},{"city":"Pambujan","state":"Eastern Visayas","population":10812,"lat":12.5642,"lng":124.9276},{"city":"Labangan","state":"Zamboanga Peninsula","population":10780,"lat":7.8654,"lng":123.5123},{"city":"Pulo","state":"Central Luzon","population":10776,"lat":15.246,"lng":120.9285},{"city":"Cabinuangan","state":"Davao Region","population":10776,"lat":7.68333,"lng":126.03333},{"city":"Dao","state":"Western Visayas","population":10743,"lat":11.3937,"lng":122.6856},{"city":"Astorga","state":"Davao Region","population":10712,"lat":6.90722,"lng":125.45583},{"city":"Pakil","state":"Calabarzon","population":10693,"lat":14.3835,"lng":121.4786},{"city":"Masalukot Uno","state":"Calabarzon","population":10667,"lat":13.95533,"lng":121.41887},{"city":"Katipunan","state":"Zamboanga Peninsula","population":10637,"lat":7.5825,"lng":122.83056},{"city":"Halayhay","state":"Calabarzon","population":10630,"lat":14.37389,"lng":120.81333},{"city":"Claveria","state":"Cagayan Valley","population":10618,"lat":18.60742,"lng":121.08322},{"city":"Baloc","state":"Central Luzon","population":10566,"lat":15.6435,"lng":120.8852},{"city":"Pasacao","state":"Bicol Region","population":10531,"lat":13.5118,"lng":123.0426},{"city":"San Jacinto","state":"Ilocos","population":10529,"lat":16.0726,"lng":120.4383},{"city":"Panacan","state":"Mimaropa","population":10526,"lat":9.24627,"lng":118.4082},{"city":"Alaminos","state":"Ilocos","population":10488,"lat":16.15611,"lng":119.98111},{"city":"Placer","state":"Caraga","population":10443,"lat":9.65814,"lng":125.60153},{"city":"Tantangan","state":"Soccsksargen","population":10337,"lat":6.615,"lng":124.74889},{"city":"Tinambac","state":"Bicol Region","population":10299,"lat":13.8164,"lng":123.3261},{"city":"Ligao","state":"Bicol Region","population":10295,"lat":13.21697,"lng":123.51924},{"city":"Rajal Norte","state":"Central Luzon","population":10281,"lat":15.44485,"lng":120.86256},{"city":"Siquijor","state":"Central Visayas","population":10259,"lat":9.2142,"lng":123.515},{"city":"Carmen","state":"Ilocos","population":10250,"lat":15.88642,"lng":120.59984},{"city":"Pototan","state":"Western Visayas","population":10195,"lat":10.9437,"lng":122.6352},{"city":"Vallehermoso","state":"Central Visayas","population":10179,"lat":10.3349,"lng":123.3259},{"city":"Cagsiay","state":"Calabarzon","population":10173,"lat":14.21667,"lng":121.75},{"city":"Dulag","state":"Eastern Visayas","population":10151,"lat":10.9525,"lng":125.03167},{"city":"Montevista","state":"Davao Region","population":10147,"lat":7.69333,"lng":125.98889},{"city":"Pasil","state":"Cordillera","population":10109,"lat":17.38333,"lng":121.13333},{"city":"Baganga","state":"Davao Region","population":10106,"lat":7.57389,"lng":126.56},{"city":"Mambajao","state":"Northern Mindanao","population":10058,"lat":9.2504,"lng":124.7156},{"city":"Anuling","state":"Autonomous Region in Muslim Mindanao","population":10039,"lat":6.03556,"lng":121.00667},{"city":"Inayauan","state":"Western Visayas","population":9963,"lat":9.9005,"lng":122.434},{"city":"Pilar","state":"Western Visayas","population":9957,"lat":11.487,"lng":122.9963},{"city":"Bato","state":"Eastern Visayas","population":9952,"lat":10.32778,"lng":124.79111},{"city":"Initao","state":"Northern Mindanao","population":9922,"lat":8.49972,"lng":124.30389},{"city":"Barobo","state":"Caraga","population":9893,"lat":8.53528,"lng":126.12139},{"city":"Balabac","state":"Mimaropa","population":9881,"lat":7.98363,"lng":117.04868},{"city":"San Manuel","state":"Cagayan Valley","population":9865,"lat":17.02375,"lng":121.63574},{"city":"Santa Cruz","state":"Mimaropa","population":9863,"lat":13.4758,"lng":122.0275},{"city":"Dancalan","state":"Western Visayas","population":9863,"lat":9.9821,"lng":122.7386},{"city":"Carmen","state":"Davao Region","population":9833,"lat":7.36056,"lng":125.70639},{"city":"Santa Cruz","state":"Mimaropa","population":9826,"lat":13.0736,"lng":120.7226},{"city":"San Enrique","state":"Western Visayas","population":9818,"lat":10.4161,"lng":122.8504},{"city":"Aguilar","state":"Ilocos","population":9801,"lat":15.8884,"lng":120.2378},{"city":"Sapu Padidu","state":"Soccsksargen","population":9789,"lat":5.91722,"lng":125.26694},{"city":"Matalam","state":"Soccsksargen","population":9783,"lat":7.08639,"lng":124.90056},{"city":"Cavinti","state":"Calabarzon","population":9758,"lat":14.24482,"lng":121.50797},{"city":"Maddela","state":"Cagayan Valley","population":9751,"lat":16.3414,"lng":121.6849},{"city":"Socorro","state":"Caraga","population":9743,"lat":9.61806,"lng":125.96598},{"city":"Santa Rita Aplaya","state":"Calabarzon","population":9737,"lat":13.77173,"lng":121.03492},{"city":"Bahay Pare","state":"Central Luzon","population":9726,"lat":15.03238,"lng":120.88083},{"city":"Balingasag","state":"Northern Mindanao","population":9722,"lat":8.74417,"lng":124.77694},{"city":"Laurel","state":"Calabarzon","population":9720,"lat":14.05542,"lng":120.91932},{"city":"Batobato","state":"Davao Region","population":9714,"lat":6.82522,"lng":126.08458},{"city":"Nangka","state":"Central Visayas","population":9708,"lat":9.4023,"lng":122.8244},{"city":"Parang","state":"Autonomous Region in Muslim Mindanao","population":9681,"lat":5.9137,"lng":120.9056},{"city":"Nalundan","state":"Central Visayas","population":9674,"lat":9.75,"lng":123.06667},{"city":"Kapatagan","state":"Northern Mindanao","population":9664,"lat":7.9003,"lng":123.7692},{"city":"Santo Niño","state":"Soccsksargen","population":9662,"lat":6.435,"lng":124.6975},{"city":"Vitali","state":"Zamboanga Peninsula","population":9653,"lat":7.37111,"lng":122.28861},{"city":"Jaclupan","state":"Central Visayas","population":9652,"lat":10.30138,"lng":123.8165},{"city":"Enrile","state":"Cagayan Valley","population":9650,"lat":17.5596,"lng":121.6974},{"city":"Basco","state":"Cagayan Valley","population":9647,"lat":20.44865,"lng":121.97017},{"city":"Bacarra","state":"Ilocos","population":9636,"lat":18.2529,"lng":120.6125},{"city":"San Roque Dau First","state":"Central Luzon","population":9621,"lat":14.97711,"lng":120.57688},{"city":"Santo Niño","state":"Davao Region","population":9611,"lat":7.62361,"lng":125.62528},{"city":"Tulunan","state":"Soccsksargen","population":9584,"lat":6.83444,"lng":124.87694},{"city":"Canubing No 2","state":"Mimaropa","population":9569,"lat":13.35,"lng":121.13333},{"city":"Palangue","state":"Calabarzon","population":9567,"lat":14.28417,"lng":120.81139},{"city":"Lu-uk","state":"Autonomous Region in Muslim Mindanao","population":9558,"lat":5.9684,"lng":121.3122},{"city":"San Nicolas","state":"Central Luzon","population":9526,"lat":15.5841,"lng":120.6765},{"city":"Guagua","state":"Central Luzon","population":9519,"lat":14.9653,"lng":120.6325},{"city":"Calatrava","state":"Western Visayas","population":9489,"lat":10.59496,"lng":123.4838},{"city":"Quezon","state":"Cagayan Valley","population":9485,"lat":17.31303,"lng":121.60654},{"city":"Loon","state":"Central Visayas","population":9484,"lat":9.7998,"lng":123.7929},{"city":"Alfonso","state":"Calabarzon","population":9446,"lat":14.14083,"lng":120.85389},{"city":"Ibaan","state":"Calabarzon","population":9430,"lat":13.8176,"lng":121.133},{"city":"Dalumangcob","state":"Autonomous Region in Muslim Mindanao","population":9424,"lat":7.21667,"lng":124.3},{"city":"Cantilan","state":"Caraga","population":9408,"lat":9.33361,"lng":125.9775},{"city":"Nasipit","state":"Caraga","population":9407,"lat":8.96917,"lng":125.29472},{"city":"Magsaysay","state":"Mimaropa","population":9407,"lat":12.33333,"lng":121.15},{"city":"Upi","state":"Autonomous Region in Muslim Mindanao","population":9358,"lat":7.02583,"lng":124.16667},{"city":"Cabaritan East","state":"Cagayan Valley","population":9348,"lat":18.41781,"lng":121.48872},{"city":"Manalongon","state":"Central Visayas","population":9321,"lat":9.2209,"lng":122.886},{"city":"Pulungmasle","state":"Central Luzon","population":9277,"lat":15.0004,"lng":120.55774},{"city":"Dolores","state":"Eastern Visayas","population":9274,"lat":12.0371,"lng":125.4825},{"city":"Lala","state":"Soccsksargen","population":9273,"lat":7.97306,"lng":123.74722},{"city":"Dos Hermanas","state":"Western Visayas","population":9270,"lat":10.7421,"lng":123.0377},{"city":"Sison","state":"Ilocos","population":9256,"lat":16.17389,"lng":120.51528},{"city":"Balucuc","state":"Central Luzon","population":9214,"lat":14.95282,"lng":120.81452},{"city":"Medina","state":"Northern Mindanao","population":9201,"lat":8.91222,"lng":125.02444},{"city":"Lambakin","state":"Central Luzon","population":9193,"lat":14.75,"lng":120.86667},{"city":"Bonawon","state":"Central Visayas","population":9189,"lat":9.134,"lng":122.9193},{"city":"General Luna","state":"Calabarzon","population":9177,"lat":13.6866,"lng":122.1709},{"city":"Real","state":"Calabarzon","population":9163,"lat":14.66397,"lng":121.60412},{"city":"Aurora","state":"Zamboanga Peninsula","population":9157,"lat":7.9506,"lng":123.5826},{"city":"Payao","state":"Western Visayas","population":9137,"lat":10.1785,"lng":122.9236},{"city":"San Isidro","state":"Central Visayas","population":9125,"lat":9.91667,"lng":123.88333},{"city":"Gamay","state":"Eastern Visayas","population":9125,"lat":12.38542,"lng":125.29791},{"city":"Andop","state":"Davao Region","population":9095,"lat":7.86111,"lng":125.75389},{"city":"Ambulong","state":"Calabarzon","population":9074,"lat":14.08804,"lng":121.06127},{"city":"Tampakan","state":"Soccsksargen","population":9048,"lat":6.49034,"lng":125.08275},{"city":"Lagonglong","state":"Northern Mindanao","population":9043,"lat":8.80722,"lng":124.79028},{"city":"Castañas","state":"Calabarzon","population":9040,"lat":13.8744,"lng":121.5533},{"city":"Bangkirohan","state":"Bicol Region","population":9040,"lat":13.0553,"lng":123.7468},{"city":"Palampas","state":"Western Visayas","population":9037,"lat":10.52506,"lng":123.4208},{"city":"Corocotan","state":"Davao Region","population":9025,"lat":7.3998,"lng":125.7727},{"city":"Oras","state":"Eastern Visayas","population":9022,"lat":12.1406,"lng":125.4397},{"city":"Sibulan","state":"Davao Region","population":9021,"lat":6.93361,"lng":125.46222},{"city":"Bogo","state":"Central Visayas","population":9019,"lat":9.85686,"lng":123.56417},{"city":"Ragay","state":"Bicol Region","population":9000,"lat":13.8183,"lng":122.7923},{"city":"Lunao","state":"Northern Mindanao","population":8995,"lat":8.85028,"lng":125.05639},{"city":"San Francisco","state":"Central Visayas","population":8989,"lat":10.6461,"lng":124.3816},{"city":"Paradahan","state":"Calabarzon","population":8977,"lat":14.32123,"lng":120.86059},{"city":"Dumangas","state":"Western Visayas","population":8959,"lat":10.825,"lng":122.713},{"city":"Rio Tuba","state":"Mimaropa","population":8944,"lat":8.50613,"lng":117.43169},{"city":"Tungao","state":"Caraga","population":8910,"lat":8.77841,"lng":125.5683},{"city":"Concepcion","state":"Western Visayas","population":8903,"lat":10.692,"lng":123.0608},{"city":"Languyan","state":"Autonomous Region in Muslim Mindanao","population":8900,"lat":5.2618,"lng":120.0807},{"city":"Asingan","state":"Ilocos","population":8887,"lat":16.0051,"lng":120.6695},{"city":"Alcala","state":"Ilocos","population":8883,"lat":15.84722,"lng":120.52417},{"city":"Subic","state":"Calabarzon","population":8881,"lat":13.94859,"lng":120.94013},{"city":"New Batu Batu","state":"Autonomous Region in Muslim Mindanao","population":8881,"lat":5.06667,"lng":119.88333},{"city":"Miagao","state":"Western Visayas","population":8881,"lat":10.6442,"lng":122.2352},{"city":"Lepa","state":"Ilocos","population":8877,"lat":15.88438,"lng":120.45089},{"city":"Hungduan","state":"Cordillera","population":8866,"lat":16.83566,"lng":121.00524},{"city":"Cauayan","state":"Western Visayas","population":8855,"lat":9.9718,"lng":122.6249},{"city":"Dapa","state":"Caraga","population":8823,"lat":9.75606,"lng":126.05164},{"city":"Milaor","state":"Bicol Region","population":8809,"lat":13.5961,"lng":123.1772},{"city":"Damulog","state":"Northern Mindanao","population":8789,"lat":7.48361,"lng":124.94306},{"city":"Carmen","state":"Soccsksargen","population":8759,"lat":7.20444,"lng":124.79167},{"city":"Mercedes","state":"Zamboanga Peninsula","population":8729,"lat":6.95861,"lng":122.14833},{"city":"Coron","state":"Mimaropa","population":8723,"lat":11.9986,"lng":120.2043},{"city":"Langcangan","state":"Northern Mindanao","population":8707,"lat":8.47944,"lng":123.75583},{"city":"Ajuy","state":"Western Visayas","population":8695,"lat":11.1724,"lng":123.0197},{"city":"Santo Cristo","state":"Central Luzon","population":8664,"lat":15.29683,"lng":120.89025},{"city":"Balete","state":"Calabarzon","population":8662,"lat":14.01983,"lng":121.09506},{"city":"Sampao","state":"Davao Region","population":8648,"lat":7.59389,"lng":125.66111},{"city":"Santa Lucia","state":"Central Luzon","population":8642,"lat":15.36806,"lng":120.48643},{"city":"Bialong","state":"Soccsksargen","population":8639,"lat":6.98056,"lng":124.88889},{"city":"Santa Barbara","state":"Western Visayas","population":8629,"lat":10.82306,"lng":122.53444},{"city":"Nieves","state":"Central Luzon","population":8617,"lat":15.32842,"lng":120.94892},{"city":"Barotac Viejo","state":"Western Visayas","population":8611,"lat":11.04194,"lng":122.85222},{"city":"Alicante","state":"Western Visayas","population":8607,"lat":10.89704,"lng":123.0185},{"city":"Casiguran","state":"Bicol Region","population":8605,"lat":12.87374,"lng":124.00759},{"city":"Tuy","state":"Calabarzon","population":8603,"lat":14.0183,"lng":120.7296},{"city":"Isabel","state":"Eastern Visayas","population":8597,"lat":10.9267,"lng":124.434},{"city":"Cuyapo","state":"Central Luzon","population":8595,"lat":15.78194,"lng":120.66472},{"city":"Pilar","state":"Bicol Region","population":8591,"lat":12.9231,"lng":123.6724},{"city":"Balete","state":"Bicol Region","population":8588,"lat":13.01917,"lng":124.03194},{"city":"Naguilian","state":"Cagayan Valley","population":8560,"lat":17.02315,"lng":121.83704},{"city":"Buug","state":"Zamboanga Peninsula","population":8558,"lat":7.7294,"lng":123.0598},{"city":"Alfonso Castañeda","state":"Cagayan Valley","population":8539,"lat":15.8006,"lng":121.3054},{"city":"Conel","state":"Soccsksargen","population":8519,"lat":6.20222,"lng":125.18722},{"city":"Kalawit","state":"Zamboanga Peninsula","population":8499,"lat":8.06667,"lng":122.51667},{"city":"Maitum","state":"Soccsksargen","population":8478,"lat":6.03917,"lng":124.49861},{"city":"Katangawan","state":"Soccsksargen","population":8476,"lat":6.17222,"lng":125.22139},{"city":"Malangas","state":"Zamboanga Peninsula","population":8473,"lat":7.63028,"lng":123.03167},{"city":"Capoocan","state":"Eastern Visayas","population":8473,"lat":11.29333,"lng":124.64194},{"city":"Naga","state":"Zamboanga Peninsula","population":8461,"lat":7.77028,"lng":122.75083},{"city":"San Miguel","state":"Western Visayas","population":8438,"lat":10.78,"lng":122.46556},{"city":"Ligaya","state":"Mimaropa","population":8431,"lat":12.65993,"lng":120.89231},{"city":"Awang","state":"Autonomous Region in Muslim Mindanao","population":8417,"lat":7.15306,"lng":124.22111},{"city":"Palapag","state":"Eastern Visayas","population":8342,"lat":12.5458,"lng":125.1147},{"city":"Manicahan","state":"Zamboanga Peninsula","population":8337,"lat":7.01944,"lng":122.20111},{"city":"Lasang","state":"Davao Region","population":8318,"lat":7.26694,"lng":125.665},{"city":"Bolo","state":"Calabarzon","population":8310,"lat":13.78991,"lng":120.98173},{"city":"Tampakan","state":"Autonomous Region in Muslim Mindanao","population":8306,"lat":4.92278,"lng":119.79389},{"city":"Banaybanay","state":"Calabarzon","population":8304,"lat":13.9331,"lng":121.1151},{"city":"Sogod","state":"Eastern Visayas","population":8303,"lat":10.3847,"lng":124.9814},{"city":"Tamugan","state":"Davao Region","population":8291,"lat":7.23083,"lng":125.37639},{"city":"Paracale","state":"Bicol Region","population":8290,"lat":14.2804,"lng":122.7881},{"city":"Jordan","state":"Western Visayas","population":8255,"lat":10.65836,"lng":122.5963},{"city":"Gupitan","state":"Davao Region","population":8235,"lat":7.77583,"lng":125.64056},{"city":"Sibul","state":"Central Luzon","population":8225,"lat":15.169,"lng":121.0616},{"city":"Carmen","state":"Central Visayas","population":8214,"lat":9.8223,"lng":124.1964},{"city":"Tuburan","state":"Autonomous Region in Muslim Mindanao","population":8204,"lat":6.64389,"lng":122.27361},{"city":"Datu Piang","state":"Autonomous Region in Muslim Mindanao","population":8178,"lat":7.02833,"lng":124.5025},{"city":"Bauan","state":"Cagayan Valley","population":8165,"lat":17.72256,"lng":121.68028},{"city":"Binalonan","state":"Ilocos","population":8145,"lat":16.0503,"lng":120.5926},{"city":"Sagang","state":"Western Visayas","population":8136,"lat":10.3612,"lng":123.0722},{"city":"Dalaguete","state":"Central Visayas","population":8135,"lat":9.7612,"lng":123.5349},{"city":"Bolanon","state":"Western Visayas","population":8127,"lat":10.9171,"lng":123.4734},{"city":"San Basilio","state":"Central Luzon","population":8125,"lat":15.03341,"lng":120.58427},{"city":"Laminusa","state":"Autonomous Region in Muslim Mindanao","population":8113,"lat":5.5549,"lng":120.9136},{"city":"Salinungan Proper","state":"Cagayan Valley","population":8110,"lat":16.86906,"lng":121.61454},{"city":"Kisolon","state":"Northern Mindanao","population":8105,"lat":8.33,"lng":124.97694},{"city":"Alangalang","state":"Eastern Visayas","population":8096,"lat":11.20611,"lng":124.84667},{"city":"Alejal","state":"Davao Region","population":8075,"lat":7.38417,"lng":125.66},{"city":"Echague","state":"Cagayan Valley","population":8058,"lat":16.70509,"lng":121.67633},{"city":"San Pablo","state":"Western Visayas","population":8046,"lat":10.91234,"lng":123.1418},{"city":"Molugan","state":"Northern Mindanao","population":8043,"lat":8.5375,"lng":124.56222},{"city":"Miranda","state":"Western Visayas","population":8040,"lat":10.3047,"lng":122.8778},{"city":"Pagsanghan","state":"Eastern Visayas","population":8024,"lat":11.9657,"lng":124.7212},{"city":"Bulacnin","state":"Calabarzon","population":7985,"lat":13.9903,"lng":121.139},{"city":"Talagutong","state":"Davao Region","population":7983,"lat":6.26444,"lng":125.66778},{"city":"Sigaboy","state":"Davao Region","population":7981,"lat":6.65413,"lng":126.07268},{"city":"Aritao","state":"Cagayan Valley","population":7971,"lat":16.2979,"lng":121.0345},{"city":"Manticao","state":"Northern Mindanao","population":7956,"lat":8.40417,"lng":124.28667},{"city":"Tubay","state":"Caraga","population":7946,"lat":9.16694,"lng":125.52389},{"city":"Jaro","state":"Eastern Visayas","population":7935,"lat":11.18375,"lng":124.78267},{"city":"Kibungan","state":"Cordillera","population":7912,"lat":16.695,"lng":120.6553},{"city":"Alabat","state":"Calabarzon","population":7910,"lat":14.101,"lng":122.0125},{"city":"Llorente","state":"Eastern Visayas","population":7908,"lat":11.41194,"lng":125.54583},{"city":"Silway 7","state":"Soccsksargen","population":7893,"lat":6.17711,"lng":125.12068},{"city":"Tubod","state":"Davao Region","population":7871,"lat":7.37167,"lng":125.64472},{"city":"Pontevedra","state":"Western Visayas","population":7865,"lat":10.3746,"lng":122.8682},{"city":"Lumbia","state":"Northern Mindanao","population":7863,"lat":8.39583,"lng":124.59389},{"city":"Talakag","state":"Northern Mindanao","population":7860,"lat":8.23361,"lng":124.60028},{"city":"Quezon","state":"Mimaropa","population":7860,"lat":9.24111,"lng":118.03139},{"city":"Basey","state":"Eastern Visayas","population":7844,"lat":11.28205,"lng":125.06986},{"city":"Tibanbang","state":"Davao Region","population":7838,"lat":6.63153,"lng":126.10548},{"city":"Camingawan","state":"Western Visayas","population":7820,"lat":9.8958,"lng":122.8625},{"city":"Pitogo","state":"Calabarzon","population":7817,"lat":13.7838,"lng":122.0902},{"city":"Catmon","state":"Central Visayas","population":7812,"lat":10.71667,"lng":124.0},{"city":"Mabini","state":"Central Luzon","population":7810,"lat":15.6,"lng":120.98333},{"city":"Cataingan","state":"Bicol Region","population":7809,"lat":12.003,"lng":123.992},{"city":"Tutay","state":"Central Visayas","population":7808,"lat":10.2463,"lng":123.5805},{"city":"Olingan","state":"Zamboanga Peninsula","population":7806,"lat":8.5381,"lng":123.3216},{"city":"Luna","state":"Caraga","population":7799,"lat":9.737,"lng":125.4976},{"city":"Tayud","state":"Central Visayas","population":7788,"lat":10.37991,"lng":124.00522},{"city":"Tapilon","state":"Central Visayas","population":7786,"lat":11.2774,"lng":124.0306},{"city":"Claveria","state":"Northern Mindanao","population":7784,"lat":8.61,"lng":124.89472},{"city":"Asturias","state":"Central Visayas","population":7779,"lat":10.5669,"lng":123.7161},{"city":"Minuyan","state":"Western Visayas","population":7771,"lat":10.51366,"lng":123.1049},{"city":"Bugasan","state":"Autonomous Region in Muslim Mindanao","population":7754,"lat":7.44083,"lng":124.25917},{"city":"Taytay","state":"Mimaropa","population":7717,"lat":10.81788,"lng":119.49851},{"city":"Mamungan","state":"Northern Mindanao","population":7700,"lat":8.11722,"lng":124.21861},{"city":"Tagkawayan Sabang","state":"Calabarzon","population":7684,"lat":13.9909,"lng":122.5298},{"city":"Colipapa","state":"Western Visayas","population":7680,"lat":9.4726,"lng":122.5616},{"city":"Namayan","state":"National Capital Region","population":7670,"lat":14.5783,"lng":121.0226},{"city":"Kananya","state":"Eastern Visayas","population":7647,"lat":11.1867,"lng":124.5601},{"city":"Magnaga","state":"Davao Region","population":7644,"lat":7.1694,"lng":125.8931},{"city":"Mulanay","state":"Calabarzon","population":7643,"lat":13.52222,"lng":122.40417},{"city":"San Jacinto","state":"Bicol Region","population":7637,"lat":12.5677,"lng":123.7337},{"city":"Dolores","state":"Calabarzon","population":7633,"lat":14.02265,"lng":121.41008},{"city":"Wañgan","state":"Davao Region","population":7621,"lat":7.15972,"lng":125.44528},{"city":"Nilombot","state":"Ilocos","population":7605,"lat":16.0306,"lng":120.43685},{"city":"Barili","state":"Central Visayas","population":7588,"lat":10.115,"lng":123.5103},{"city":"Masaya","state":"Calabarzon","population":7587,"lat":14.15189,"lng":121.2819},{"city":"Rizal","state":"Bicol Region","population":7577,"lat":12.97722,"lng":123.91417},{"city":"Maya","state":"Central Visayas","population":7572,"lat":11.27442,"lng":124.05526},{"city":"Dahay","state":"Soccsksargen","population":7567,"lat":6.39067,"lng":124.71464},{"city":"Culianin","state":"Central Luzon","population":7565,"lat":14.91511,"lng":120.89847},{"city":"Carabalan","state":"Western Visayas","population":7557,"lat":10.0964,"lng":122.946},{"city":"Cuyo","state":"Mimaropa","population":7549,"lat":10.8525,"lng":121.00861},{"city":"Talisay","state":"Bicol Region","population":7544,"lat":14.1343,"lng":122.9226},{"city":"Malinao Ilaya","state":"Calabarzon","population":7528,"lat":13.99611,"lng":121.83577},{"city":"Sarangani","state":"Davao Region","population":7506,"lat":5.40333,"lng":125.46361},{"city":"Bacuyangan","state":"Western Visayas","population":7506,"lat":9.637,"lng":122.4721},{"city":"Laiya","state":"Calabarzon","population":7504,"lat":13.68031,"lng":121.40081},{"city":"Allen","state":"Eastern Visayas","population":7502,"lat":12.5006,"lng":124.2849},{"city":"Lian","state":"Calabarzon","population":7496,"lat":14.03364,"lng":120.64928},{"city":"Balite Segundo","state":"Calabarzon","population":7495,"lat":14.1832,"lng":120.97433},{"city":"Tuding","state":"Cordillera","population":7491,"lat":16.41085,"lng":120.6422},{"city":"Tambulig","state":"Zamboanga Peninsula","population":7488,"lat":8.0702,"lng":123.5348},{"city":"Nagsaing","state":"Ilocos","population":7482,"lat":15.98069,"lng":120.33787},{"city":"Saguday","state":"Cagayan Valley","population":7464,"lat":16.5428,"lng":121.5638},{"city":"San Jose","state":"Central Luzon","population":7461,"lat":15.0333,"lng":120.7833},{"city":"Guinticgan","state":"Western Visayas","population":7452,"lat":11.5641,"lng":123.1236},{"city":"Taligaman","state":"Caraga","population":7430,"lat":8.90444,"lng":125.65583},{"city":"Mamala","state":"Calabarzon","population":7418,"lat":14.01667,"lng":121.51667},{"city":"Villanueva","state":"Northern Mindanao","population":7415,"lat":8.58889,"lng":124.77556},{"city":"Camias","state":"Central Luzon","population":7412,"lat":15.16679,"lng":120.97416},{"city":"Hagonoy","state":"Davao Region","population":7409,"lat":6.68333,"lng":125.32556},{"city":"Dulao","state":"Western Visayas","population":7403,"lat":10.54176,"lng":122.9383},{"city":"Sumpong","state":"Northern Mindanao","population":7399,"lat":8.16333,"lng":125.11833},{"city":"Antipolo","state":"Western Visayas","population":7398,"lat":10.3565,"lng":122.9646},{"city":"Agupit","state":"Bicol Region","population":7396,"lat":13.4225,"lng":123.32472},{"city":"Zaragoza","state":"Ilocos","population":7391,"lat":16.3871,"lng":119.9443},{"city":"Lugait","state":"Northern Mindanao","population":7370,"lat":8.34111,"lng":124.25917},{"city":"Taluksangay","state":"Zamboanga Peninsula","population":7343,"lat":6.95417,"lng":122.18389},{"city":"Lurugan","state":"Northern Mindanao","population":7336,"lat":8.01667,"lng":124.96667},{"city":"Hilongos","state":"Eastern Visayas","population":7329,"lat":10.37444,"lng":124.74972},{"city":"Siaton","state":"Central Visayas","population":7328,"lat":9.0648,"lng":123.0339},{"city":"Lagonoy","state":"Bicol Region","population":7324,"lat":13.7342,"lng":123.5207},{"city":"Dingalan","state":"Central Luzon","population":7315,"lat":15.3897,"lng":121.3929},{"city":"Kalayaan","state":"Calabarzon","population":7306,"lat":14.35,"lng":121.56667},{"city":"Alimodian","state":"Western Visayas","population":7302,"lat":10.82139,"lng":122.43111},{"city":"Baracatan","state":"Davao Region","population":7298,"lat":6.9675,"lng":125.41583},{"city":"Sibalom","state":"Western Visayas","population":7295,"lat":10.79,"lng":122.0178},{"city":"Batal","state":"Cagayan Valley","population":7274,"lat":16.6875,"lng":121.60083},{"city":"Mabini","state":"Western Visayas","population":7270,"lat":10.79594,"lng":123.4846},{"city":"Karungdong","state":"Autonomous Region in Muslim Mindanao","population":7269,"lat":5.8844,"lng":121.263},{"city":"Caranan","state":"Bicol Region","population":7265,"lat":13.5167,"lng":123.0156},{"city":"Patin-ay","state":"Caraga","population":7263,"lat":8.55056,"lng":125.93722},{"city":"Gabaldon","state":"Central Luzon","population":7259,"lat":15.4522,"lng":121.3387},{"city":"Panitian","state":"Mimaropa","population":7258,"lat":9.0965,"lng":118.0864},{"city":"President Roxas","state":"Western Visayas","population":7240,"lat":11.431,"lng":122.9279},{"city":"Maigo","state":"Northern Mindanao","population":7235,"lat":8.1613,"lng":123.9583},{"city":"Guimbal","state":"Western Visayas","population":7232,"lat":10.6633,"lng":122.3228},{"city":"Suyan","state":"Soccsksargen","population":7229,"lat":6.06028,"lng":125.38528},{"city":"Gonzaga","state":"Cagayan Valley","population":7228,"lat":18.25937,"lng":121.99495},{"city":"Leyte","state":"Eastern Visayas","population":7223,"lat":11.36687,"lng":124.48239},{"city":"Kitcharao","state":"Caraga","population":7213,"lat":9.455,"lng":125.57306},{"city":"Cabacungan","state":"Western Visayas","population":7200,"lat":10.3237,"lng":123.1331},{"city":"Pamayanang University of Philippines Employment Housing Cooperative Subdivision","state":"Calabarzon","population":7200,"lat":14.34613,"lng":120.97583},{"city":"Pañgobilian","state":"Mimaropa","population":7178,"lat":8.80111,"lng":117.85944},{"city":"Matanao","state":"Davao Region","population":7171,"lat":6.67917,"lng":125.255},{"city":"Lugus","state":"Autonomous Region in Muslim Mindanao","population":7167,"lat":5.70361,"lng":120.82028},{"city":"Kulase","state":"Autonomous Region in Muslim Mindanao","population":7148,"lat":5.9052,"lng":120.9569},{"city":"Cut-cut Primero","state":"Central Luzon","population":7143,"lat":15.48277,"lng":120.58604},{"city":"Olutanga","state":"Zamboanga Peninsula","population":7133,"lat":7.31056,"lng":122.84639},{"city":"Calatagan","state":"Bicol Region","population":7132,"lat":13.5885,"lng":124.2065},{"city":"Quilo-quilo","state":"Calabarzon","population":7126,"lat":13.8638,"lng":121.2209},{"city":"Clarin","state":"Northern Mindanao","population":7125,"lat":8.2023,"lng":123.8582},{"city":"San Luis","state":"Caraga","population":7109,"lat":8.47806,"lng":125.74389},{"city":"Balimbing","state":"Autonomous Region in Muslim Mindanao","population":7102,"lat":5.0825,"lng":119.96583},{"city":"Carusucan","state":"Ilocos","population":7083,"lat":15.96589,"lng":120.63598},{"city":"Lumbangan","state":"Calabarzon","population":7071,"lat":14.0524,"lng":120.6667},{"city":"Dinahican","state":"Calabarzon","population":7062,"lat":14.71667,"lng":121.71667},{"city":"Nabulao","state":"Western Visayas","population":7059,"lat":9.6616,"lng":122.4577},{"city":"Tortosa","state":"Western Visayas","population":7048,"lat":10.93294,"lng":123.09},{"city":"Bibiclat","state":"Central Luzon","population":7039,"lat":15.52186,"lng":120.86235},{"city":"Pasong Kawayan Primero","state":"Calabarzon","population":7031,"lat":14.34317,"lng":120.88157},{"city":"Malabag","state":"Calabarzon","population":7021,"lat":14.1552,"lng":120.96547},{"city":"Kadingilan","state":"Northern Mindanao","population":7020,"lat":7.60111,"lng":124.90861},{"city":"Bungad","state":"National Capital Region","population":7014,"lat":14.6481,"lng":121.024},{"city":"Can-asujan","state":"Central Visayas","population":6994,"lat":10.1299,"lng":123.6574},{"city":"Cabarroguis","state":"Cagayan Valley","population":6974,"lat":16.51105,"lng":121.52118},{"city":"Pura","state":"Central Luzon","population":6928,"lat":15.6248,"lng":120.648},{"city":"Lanot","state":"Western Visayas","population":6928,"lat":11.51917,"lng":122.75722},{"city":"Gibong","state":"Western Visayas","population":6919,"lat":11.86338,"lng":122.03941},{"city":"El Salvador","state":"Northern Mindanao","population":6904,"lat":8.56306,"lng":124.5225},{"city":"Patnanungan","state":"Calabarzon","population":6901,"lat":14.78333,"lng":122.18333},{"city":"Taytayan","state":"Davao Region","population":6894,"lat":7.73389,"lng":126.50194},{"city":"Malaiba","state":"Central Visayas","population":6888,"lat":10.33333,"lng":123.31667},{"city":"Subusub","state":"Ilocos","population":6887,"lat":16.22689,"lng":120.49513},{"city":"Minapasoc","state":"Western Visayas","population":6885,"lat":10.69885,"lng":123.349},{"city":"Cagayancillo","state":"Mimaropa","population":6884,"lat":9.57694,"lng":121.20722},{"city":"Cabugao","state":"Ilocos","population":6874,"lat":17.7931,"lng":120.4578},{"city":"Kumalarang","state":"Zamboanga Peninsula","population":6869,"lat":7.7478,"lng":123.1445},{"city":"Dingras","state":"Ilocos","population":6866,"lat":18.1032,"lng":120.6967},{"city":"Pantao","state":"Bicol Region","population":6864,"lat":13.1944,"lng":123.3271},{"city":"Puelay","state":"Ilocos","population":6854,"lat":15.88683,"lng":120.57358},{"city":"Panglao","state":"Central Visayas","population":6854,"lat":9.57806,"lng":123.74583},{"city":"Coronon","state":"Davao Region","population":6854,"lat":6.87917,"lng":125.44889},{"city":"Kauswagan","state":"Northern Mindanao","population":6851,"lat":8.19167,"lng":124.08472},{"city":"Sagpon","state":"Bicol Region","population":6849,"lat":13.15,"lng":123.73333},{"city":"Tiglauigan","state":"Western Visayas","population":6848,"lat":10.9527,"lng":123.3575},{"city":"Linamon","state":"Northern Mindanao","population":6848,"lat":8.18603,"lng":124.16276},{"city":"San Vicente","state":"Central Luzon","population":6835,"lat":15.21324,"lng":120.81901},{"city":"Moalboal","state":"Central Visayas","population":6832,"lat":9.94333,"lng":123.39917},{"city":"Maulawin","state":"Calabarzon","population":6822,"lat":14.26667,"lng":121.43333},{"city":"Lipayran","state":"Central Visayas","population":6813,"lat":11.0593,"lng":123.6342},{"city":"Digal","state":"Autonomous Region in Muslim Mindanao","population":6810,"lat":6.75306,"lng":124.79639},{"city":"Maria Aurora","state":"Central Luzon","population":6807,"lat":15.7967,"lng":121.4737},{"city":"Quezon","state":"Calabarzon","population":6804,"lat":14.0057,"lng":122.1838},{"city":"Licab","state":"Central Luzon","population":6783,"lat":15.5439,"lng":120.7634},{"city":"Curuan","state":"Zamboanga Peninsula","population":6775,"lat":7.20528,"lng":122.23306},{"city":"Salug","state":"Zamboanga Peninsula","population":6774,"lat":8.11472,"lng":122.78333},{"city":"Orong","state":"Western Visayas","population":6772,"lat":9.9373,"lng":122.829},{"city":"Concepcion","state":"Western Visayas","population":6769,"lat":11.2161,"lng":123.1073},{"city":"Bagontapay","state":"Soccsksargen","population":6747,"lat":6.85889,"lng":124.90889},{"city":"Sampaloc","state":"Calabarzon","population":6743,"lat":14.1627,"lng":121.6396},{"city":"Ilog","state":"Western Visayas","population":6741,"lat":10.0266,"lng":122.7684},{"city":"Calamba","state":"Northern Mindanao","population":6738,"lat":8.5587,"lng":123.6425},{"city":"Bunguiao","state":"Zamboanga Peninsula","population":6728,"lat":7.10444,"lng":122.19639},{"city":"Matnog","state":"Bicol Region","population":6721,"lat":12.5878,"lng":124.0875},{"city":"Binubusan","state":"Calabarzon","population":6714,"lat":13.96947,"lng":120.63572},{"city":"Balogo","state":"Eastern Visayas","population":6704,"lat":10.8868,"lng":124.7105},{"city":"Minante Segundo","state":"Cagayan Valley","population":6697,"lat":16.9022,"lng":121.76191},{"city":"Bau","state":"Soccsksargen","population":6672,"lat":7.40528,"lng":124.64972},{"city":"Rimus","state":"Ilocos","population":6670,"lat":16.8764,"lng":120.3966},{"city":"Daraga","state":"Bicol Region","population":6664,"lat":13.1483,"lng":123.7124},{"city":"Jimenez","state":"Northern Mindanao","population":6662,"lat":8.3365,"lng":123.8383},{"city":"Barugo","state":"Eastern Visayas","population":6655,"lat":11.32417,"lng":124.73833},{"city":"Badak","state":"Autonomous Region in Muslim Mindanao","population":6653,"lat":6.84722,"lng":124.72056},{"city":"Bulusan","state":"Bicol Region","population":6648,"lat":12.74936,"lng":124.12087},{"city":"Magallanes","state":"Caraga","population":6636,"lat":9.02,"lng":125.51722},{"city":"Dagumba-an","state":"Northern Mindanao","population":6635,"lat":8.15306,"lng":124.59083},{"city":"Ponot","state":"Zamboanga Peninsula","population":6624,"lat":8.452,"lng":123.0222},{"city":"Cateel","state":"Davao Region","population":6624,"lat":7.79139,"lng":126.45333},{"city":"Inayagan","state":"Central Visayas","population":6610,"lat":10.23478,"lng":123.769},{"city":"Santa Maria","state":"Calabarzon","population":6603,"lat":14.4719,"lng":121.4286},{"city":"Sulop","state":"Davao Region","population":6582,"lat":6.59861,"lng":125.34361},{"city":"Burgos","state":"Cagayan Valley","population":6581,"lat":17.08914,"lng":121.70254},{"city":"Nangka","state":"Central Visayas","population":6580,"lat":10.55,"lng":123.96667},{"city":"Bone South","state":"Cagayan Valley","population":6573,"lat":16.2446,"lng":120.9958},{"city":"Paringao","state":"Ilocos","population":6570,"lat":16.57167,"lng":120.32417},{"city":"Bonga","state":"Bicol Region","population":6566,"lat":13.2799,"lng":123.7587},{"city":"Boac","state":"Mimaropa","population":6566,"lat":13.4463,"lng":121.84},{"city":"Biao","state":"Western Visayas","population":6559,"lat":10.1088,"lng":122.9772},{"city":"Polonoling","state":"Soccsksargen","population":6550,"lat":6.28496,"lng":124.9689},{"city":"Rancheria Payau","state":"Zamboanga Peninsula","population":6540,"lat":7.8541,"lng":123.1598},{"city":"Kibangay","state":"Northern Mindanao","population":6539,"lat":8.04972,"lng":124.89306},{"city":"Dumingag","state":"Zamboanga Peninsula","population":6534,"lat":8.16917,"lng":123.35056},{"city":"Santa Barbara","state":"Central Luzon","population":6525,"lat":15.38494,"lng":120.79611},{"city":"Caramutan","state":"Ilocos","population":6524,"lat":15.92074,"lng":120.61012},{"city":"Mayabon","state":"Central Visayas","population":6521,"lat":9.0961,"lng":123.1738},{"city":"Salawagan","state":"Northern Mindanao","population":6508,"lat":7.70528,"lng":125.115},{"city":"Balele","state":"Calabarzon","population":6496,"lat":14.06532,"lng":121.09363},{"city":"Andres Bonifacio","state":"Western Visayas","population":6494,"lat":10.91667,"lng":123.25},{"city":"Managok","state":"Northern Mindanao","population":6477,"lat":8.02889,"lng":125.18861},{"city":"Caibiran","state":"Eastern Visayas","population":6462,"lat":11.57167,"lng":124.58222},{"city":"San Vicente","state":"Central Luzon","population":6449,"lat":14.94594,"lng":120.74852},{"city":"Cauayan","state":"Central Luzon","population":6436,"lat":15.15149,"lng":120.67166},{"city":"Santol","state":"Western Visayas","population":6435,"lat":10.1725,"lng":122.9947},{"city":"Cambuga","state":"Calabarzon","population":6432,"lat":13.61667,"lng":122.45},{"city":"Salay","state":"Northern Mindanao","population":6428,"lat":8.85917,"lng":124.78917},{"city":"Barahan","state":"Mimaropa","population":6414,"lat":13.0121,"lng":120.762},{"city":"Lamba","state":"Soccsksargen","population":6408,"lat":6.35025,"lng":124.81974},{"city":"Lingig","state":"Caraga","population":6400,"lat":8.03889,"lng":126.4125},{"city":"Madridejos","state":"Central Visayas","population":6387,"lat":9.79116,"lng":123.3462},{"city":"Cuambog","state":"Davao Region","population":6383,"lat":7.30861,"lng":125.84806},{"city":"Pansol","state":"Calabarzon","population":6380,"lat":13.8866,"lng":121.2432},{"city":"Atulayan","state":"Cagayan Valley","population":6374,"lat":17.6648,"lng":121.6937},{"city":"Loacan","state":"Cordillera","population":6371,"lat":16.55,"lng":120.66667},{"city":"San Luis","state":"Northern Mindanao","population":6357,"lat":8.48333,"lng":125.0},{"city":"Cayang","state":"Central Visayas","population":6353,"lat":11.06667,"lng":123.98333},{"city":"Lasam","state":"Cagayan Valley","population":6352,"lat":18.06519,"lng":121.60065},{"city":"Basiawan","state":"Davao Region","population":6351,"lat":6.53417,"lng":125.48694},{"city":"San Jose","state":"Northern Mindanao","population":6345,"lat":7.73667,"lng":125.07028},{"city":"San Fernando","state":"Bicol Region","population":6345,"lat":13.5656,"lng":123.1453},{"city":"Mambulo","state":"Bicol Region","population":6319,"lat":13.71667,"lng":123.05},{"city":"Santa Ana","state":"Cagayan Valley","population":6315,"lat":18.46986,"lng":122.14775},{"city":"Talugtug","state":"Central Luzon","population":6307,"lat":15.7778,"lng":120.8111},{"city":"Tamnag","state":"Soccsksargen","population":6302,"lat":6.57298,"lng":124.88004},{"city":"Tago","state":"Caraga","population":6300,"lat":9.02111,"lng":126.23167},{"city":"San Ignacio","state":"Davao Region","population":6300,"lat":7.1189,"lng":126.48838},{"city":"Tongouson","state":"Autonomous Region in Muslim Mindanao","population":6267,"lat":5.0214,"lng":120.1328},{"city":"Mayantoc","state":"Central Luzon","population":6250,"lat":15.6199,"lng":120.377},{"city":"Babatngon","state":"Eastern Visayas","population":6237,"lat":11.4238,"lng":124.8449},{"city":"Santo Rosario","state":"Central Luzon","population":6234,"lat":15.6447,"lng":120.8612},{"city":"Culaba","state":"Eastern Visayas","population":6231,"lat":11.65778,"lng":124.5425},{"city":"Reina Mercedes","state":"Cagayan Valley","population":6227,"lat":16.98545,"lng":121.82664},{"city":"Malicboy","state":"Calabarzon","population":6224,"lat":13.98155,"lng":121.78888},{"city":"Amas","state":"Soccsksargen","population":6219,"lat":7.05694,"lng":124.98389},{"city":"San Fernando","state":"Bicol Region","population":6211,"lat":12.4833,"lng":123.7622},{"city":"Donsol","state":"Bicol Region","population":6198,"lat":12.9055,"lng":123.5949},{"city":"Santa Catalina Sur","state":"Calabarzon","population":6195,"lat":13.87384,"lng":121.43104},{"city":"Esperanza","state":"Caraga","population":6193,"lat":8.67694,"lng":125.64694},{"city":"Buguias","state":"Cordillera","population":6192,"lat":16.72267,"lng":120.82834},{"city":"Candoni","state":"Western Visayas","population":6191,"lat":9.817,"lng":122.6043},{"city":"Claveria","state":"Bicol Region","population":6185,"lat":12.9035,"lng":123.2457},{"city":"Malalag","state":"Davao Region","population":6180,"lat":6.59583,"lng":125.39917},