{"timezone":"Asia/Yerevan","countries":{"Armenia":[{"city":"Yerevan","state":"Yerevan","population":1144700,"lat":40.17765,"lng":44.5126},{"city":"Malatia-Sebastia","state":"Yerevan","population":150500,"lat":40.17396,"lng":44.4457},{"city":"Shengavit","state":"Yerevan","population":140600,"lat":40.1557,"lng":44.4779},{"city":"Nor Nork","state":"Yerevan","population":137300,"lat":40.19661,"lng":44.5669},{"city":"Kentron","state":"Yerevan","population":133000,"lat":40.17806,"lng":44.51303},{"city":"Erebuni","state":"Yerevan","population":129700,"lat":40.13309,"lng":44.53009},{"city":"Ajapnyak","state":"Yerevan","population":122800,"lat":40.19917,"lng":44.47056},{"city":"Arabkir","state":"Yerevan","population":119300,"lat":40.20624,"lng":44.50365},{"city":"Gyumri","state":"Shirak","population":114667,"lat":40.79305,"lng":43.84635},{"city":"Vanadzor","state":"Lori","population":78100,"lat":40.8074,"lng":44.49704},{"city":"Kanaker-Zeytun","state":"Yerevan","population":75500,"lat":40.22,"lng":44.53833},{"city":"Avan","state":"Yerevan","population":58800,"lat":40.21436,"lng":44.57846},{"city":"Davtashen","state":"Yerevan","population":52100,"lat":40.21642,"lng":44.48088},{"city":"Hrazdan","state":"Kotayk","population":49500,"lat":40.5169,"lng":44.75591},{"city":"Abovyan","state":"Kotayk","population":47546,"lat":40.2717,"lng":44.63342},{"city":"Vagharshapat","state":"Armavir","population":45842,"lat":40.16557,"lng":44.29462},{"city":"Kapan","state":"Syunik","population":32900,"lat":39.20762,"lng":46.40678},{"city":"Armavir","state":"Armavir","population":29700,"lat":40.15553,"lng":44.0388},{"city":"Artashat","state":"Ararat","population":22800,"lat":39.95484,"lng":44.54874},{"city":"Charentsavan","state":"Kotayk","population":22763,"lat":40.40289,"lng":44.64447},{"city":"Masis","state":"Ararat","population":20774,"lat":40.06595,"lng":44.43669},{"city":"Ijevan","state":"Tavush","population":19500,"lat":40.88037,"lng":45.14776},{"city":"Sevan","state":"Gegharkunik","population":18951,"lat":40.548,"lng":44.95314},{"city":"Gavar","state":"Gegharkunik","population":18900,"lat":40.35398,"lng":45.12386},{"city":"Artik","state":"Shirak","population":18145,"lat":40.61918,"lng":43.97207},{"city":"Ashtarak","state":"Aragatsotn","population":17600,"lat":40.2976,"lng":44.36152},{"city":"Goris","state":"Syunik","population":17483,"lat":39.51111,"lng":46.34168},{"city":"Ararat","state":"Ararat","population":16986,"lat":39.85494,"lng":44.6947},{"city":"Dilijan","state":"Tavush","population":16400,"lat":40.74037,"lng":44.86344},{"city":"Nork-Marash","state":"Yerevan","population":13900,"lat":40.17417,"lng":44.54083},{"city":"Spitak","state":"Lori","population":13574,"lat":40.83131,"lng":44.27019},{"city":"Sisian","state":"Syunik","population":13313,"lat":39.52191,"lng":46.02696},{"city":"Yeghvard","state":"Kotayk","population":12636,"lat":40.32293,"lng":44.48418},{"city":"Vardenis","state":"Gegharkunik","population":12575,"lat":40.1827,"lng":45.73156},{"city":"Stepanavan","state":"Lori","population":12139,"lat":41.00995,"lng":44.38531},{"city":"Martuni","state":"Gegharkunik","population":11896,"lat":40.14028,"lng":45.30232},{"city":"Vedi","state":"Ararat","population":11625,"lat":39.91291,"lng":44.72083},{"city":"Alaverdi","state":"Lori","population":11622,"lat":41.09766,"lng":44.67316},{"city":"Nubarashen","state":"Yerevan","population":11200,"lat":40.09075,"lng":44.5519},{"city":"Byureghavan","state":"Kotayk","population":11093,"lat":40.31335,"lng":44.59685},{"city":"Ayntap","state":"Ararat","population":10308,"lat":40.09659,"lng":44.4646},{"city":"Nor Hachn","state":"Kotayk","population":10025,"lat":40.30296,"lng":44.58314},{"city":"Akhuryan","state":"Shirak","population":9619,"lat":40.78081,"lng":43.90037},{"city":"Nerkin Getashen","state":"Gegharkunik","population":9381,"lat":40.14172,"lng":45.27087},{"city":"Metsamor","state":"Armavir","population":9131,"lat":40.14459,"lng":44.11484},{"city":"Nor Kharberd","state":"Ararat","population":8478,"lat":40.09168,"lng":44.48053},{"city":"Vardenik","state":"Gegharkunik","population":8256,"lat":40.13722,"lng":45.42914},{"city":"Garni","state":"Kotayk","population":8248,"lat":40.11931,"lng":44.73442},{"city":"Ararat village","state":"Ararat","population":8211,"lat":39.83166,"lng":44.70489},{"city":"Tashir","state":"Lori","population":7840,"lat":41.11922,"lng":44.28649},{"city":"Sarukhan","state":"Gegharkunik","population":7458,"lat":40.29169,"lng":45.13068},{"city":"Arinj","state":"Kotayk","population":7403,"lat":40.23356,"lng":44.58209},{"city":"Yeghegnadzor","state":"Vayots Dzor","population":7300,"lat":39.7644,"lng":45.33268},{"city":"Zovuni","state":"Kotayk","population":7290,"lat":40.23307,"lng":44.51129},{"city":"Nor Geghi","state":"Kotayk","population":7005,"lat":40.31668,"lng":44.57785},{"city":"Berd","state":"Tavush","population":6900,"lat":40.88066,"lng":45.38901},{"city":"Jrvezh","state":"Kotayk","population":6794,"lat":40.18889,"lng":44.62414},{"city":"Parakar","state":"Armavir","population":6739,"lat":40.16388,"lng":44.4057},{"city":"Zolakar","state":"Gegharkunik","population":6646,"lat":40.12512,"lng":45.38068},{"city":"Kasakh","state":"Kotayk","population":6560,"lat":40.23555,"lng":44.45162},{"city":"Sardarapat","state":"Armavir","population":6539,"lat":40.13206,"lng":44.00969},{"city":"Kajaran","state":"Syunik","population":6535,"lat":39.15091,"lng":46.15673},{"city":"Aragatsavan","state":"Aragatsotn","population":6501,"lat":40.32121,"lng":43.66205},{"city":"Noratus","state":"Gegharkunik","population":6276,"lat":40.37793,"lng":45.18048},{"city":"Oshakan","state":"Aragatsotn","population":6131,"lat":40.26392,"lng":44.31671},{"city":"Aparan","state":"Aragatsotn","population":6078,"lat":40.59297,"lng":44.35945},{"city":"Metsavan","state":"Lori","population":6020,"lat":41.20156,"lng":44.22877},{"city":"Geghhovit","state":"Gegharkunik","population":6008,"lat":40.10479,"lng":45.2855},{"city":"Byurakan","state":"Aragatsotn","population":5981,"lat":40.33894,"lng":44.27275},{"city":"Karmirgyugh","state":"Gegharkunik","population":5952,"lat":40.33103,"lng":45.14598},{"city":"Proshyan","state":"Kotayk","population":5950,"lat":40.24731,"lng":44.41949},{"city":"Gugark","state":"Lori","population":5809,"lat":40.8046,"lng":44.54025},{"city":"Margara","state":"Armavir","population":5783,"lat":40.03332,"lng":44.18048},{"city":"Azatan","state":"Shirak","population":5655,"lat":40.71959,"lng":43.82727},{"city":"Chambarak","state":"Gegharkunik","population":5558,"lat":40.59655,"lng":45.35498},{"city":"Vayk","state":"Vayots Dzor","population":5548,"lat":39.69026,"lng":45.46919},{"city":"Maralik","state":"Shirak","population":5462,"lat":40.57595,"lng":43.87059},{"city":"Yeranos","state":"Gegharkunik","population":5401,"lat":40.20428,"lng":45.19209},{"city":"Lichk","state":"Gegharkunik","population":5369,"lat":40.15933,"lng":45.23467},{"city":"Karanlukh","state":"Gegharkunik","population":5104,"lat":40.10444,"lng":45.28972},{"city":"Mkhchyan","state":"Ararat","population":5013,"lat":40.02228,"lng":44.4917},{"city":"Avshar","state":"Ararat","population":4899,"lat":39.85388,"lng":44.68016},{"city":"Karbi","state":"Aragatsotn","population":4844,"lat":40.33069,"lng":44.37793},{"city":"Vosketap","state":"Ararat","population":4820,"lat":39.88114,"lng":44.64917},{"city":"Dzoragyugh","state":"Gegharkunik","population":4767,"lat":40.16817,"lng":45.1945},{"city":"Malishka","state":"Vayots Dzor","population":4665,"lat":39.73787,"lng":45.39058},{"city":"Dalarik","state":"Armavir","population":4650,"lat":40.22648,"lng":43.8719},{"city":"Koghb","state":"Tavush","population":4609,"lat":41.18184,"lng":44.97608},{"city":"Tsovinar","state":"Gegharkunik","population":4572,"lat":40.15959,"lng":45.46786},{"city":"Myasnikyan","state":"Armavir","population":4569,"lat":40.18048,"lng":43.91949},{"city":"Mrgashat","state":"Armavir","population":4560,"lat":40.13068,"lng":44.08069},{"city":"Geghashen","state":"Kotayk","population":4555,"lat":40.22754,"lng":44.72464},{"city":"Noyemberyan","state":"Tavush","population":4536,"lat":41.17319,"lng":44.99851},{"city":"Aygavan","state":"Ararat","population":4520,"lat":39.87327,"lng":44.66984},{"city":"Karakert","state":"Armavir","population":4518,"lat":40.24451,"lng":43.82233},{"city":"Voskevaz","state":"Aragatsotn","population":4496,"lat":40.27508,"lng":44.30011},{"city":"Verin Getashen","state":"Gegharkunik","population":4490,"lat":40.13068,"lng":45.25293},{"city":"Talin","state":"Aragatsotn","population":4451,"lat":40.39172,"lng":43.87793},{"city":"Shahumyan","state":"Ararat","population":4409,"lat":39.94171,"lng":44.57233},{"city":"Astghadzor","state":"Gegharkunik","population":4386,"lat":40.12231,"lng":45.35553},{"city":"Gandzak","state":"Gegharkunik","population":4377,"lat":40.32309,"lng":45.1103},{"city":"Tsovagyugh","state":"Gegharkunik","population":4301,"lat":40.63348,"lng":44.96112},{"city":"Achajur","state":"Tavush","population":4274,"lat":40.98781,"lng":45.14952},{"city":"Lchashen","state":"Gegharkunik","population":4266,"lat":40.51947,"lng":44.93048},{"city":"Kasakh","state":"Aragatsotn","population":4247,"lat":40.53697,"lng":44.41046},{"city":"Arshaluys","state":"Armavir","population":4228,"lat":40.16949,"lng":44.21393},{"city":"Hovtashat","state":"Ararat","population":4224,"lat":40.09729,"lng":44.34448},{"city":"Odzun","state":"Lori","population":4196,"lat":41.05321,"lng":44.61341},{"city":"Meghri","state":"Syunik","population":4175,"lat":38.90123,"lng":46.24308},{"city":"Kanakeravan","state":"Kotayk","population":4153,"lat":40.24739,"lng":44.53511},{"city":"Jermuk","state":"Vayots Dzor","population":4146,"lat":39.83948,"lng":45.67112},{"city":"Gay","state":"Armavir","population":4135,"lat":40.08444,"lng":44.30528},{"city":"Aramus","state":"Kotayk","population":4065,"lat":40.25095,"lng":44.66351},{"city":"Vaghashen","state":"Gegharkunik","population":4048,"lat":40.13611,"lng":45.33069},{"city":"Verin Artashat","state":"Ararat","population":4042,"lat":39.99731,"lng":44.58893},{"city":"Merdzavan","state":"Armavir","population":3938,"lat":40.1814,"lng":44.40033},{"city":"Arteni","state":"Aragatsotn","population":3925,"lat":40.2973,"lng":43.76672},{"city":"Balahovit","state":"Kotayk","population":3884,"lat":40.25153,"lng":44.60828},{"city":"Akunk","state":"Gegharkunik","population":3850,"lat":40.16056,"lng":45.72707},{"city":"Aghavnatun","state":"Armavir","population":3742,"lat":40.2333,"lng":44.25295},{"city":"Norashen","state":"Ararat","population":3737,"lat":40.0013,"lng":44.59296},{"city":"Jrashen","state":"Lori","population":3706,"lat":40.79028,"lng":44.18664},{"city":"Aragats","state":"Aragatsotn","population":3643,"lat":40.48889,"lng":44.3529},{"city":"Gandzakar","state":"Tavush","population":3613,"lat":40.84291,"lng":45.16132},{"city":"Marmarashen","state":"Ararat","population":3607,"lat":40.05829,"lng":44.47229},{"city":"Margahovit","state":"Lori","population":3601,"lat":40.73381,"lng":44.68474},{"city":"Artashar","state":"Armavir","population":3577,"lat":40.11108,"lng":44.18329},{"city":"Haghartsin","state":"Tavush","population":3566,"lat":40.77614,"lng":44.96847},{"city":"Sarnaghbyur","state":"Shirak","population":3564,"lat":40.52368,"lng":43.91248},{"city":"Pokr Vedi","state":"Ararat","population":3523,"lat":39.90289,"lng":44.6029},{"city":"Voskehat","state":"Armavir","population":3446,"lat":40.14172,"lng":44.33069},{"city":"Ujan","state":"Aragatsotn","population":3440,"lat":40.29671,"lng":44.205},{"city":"Geghanist","state":"Ararat","population":3363,"lat":40.14587,"lng":44.43048},{"city":"Janfida","state":"Armavir","population":3363,"lat":40.04449,"lng":44.02789},{"city":"Agarak","state":"Syunik","population":3350,"lat":38.86506,"lng":46.19463},{"city":"Kosh","state":"Aragatsotn","population":3341,"lat":40.29995,"lng":44.15252},{"city":"Ashotsk","state":"Shirak","population":3325,"lat":41.0377,"lng":43.85843},{"city":"Norakert","state":"Armavir","population":3320,"lat":40.19733,"lng":44.3501},{"city":"Berdavan","state":"Tavush","population":3267,"lat":41.20503,"lng":44.99967},{"city":"Aygehovit","state":"Tavush","population":3248,"lat":40.97951,"lng":45.25033},{"city":"Urtsadzor","state":"Ararat","population":3231,"lat":39.91949,"lng":44.82507},{"city":"Argel","state":"Kotayk","population":3222,"lat":40.37116,"lng":44.59618},{"city":"Vostan","state":"Ararat","population":3216,"lat":39.96515,"lng":44.55937},{"city":"Aknalich","state":"Armavir","population":3212,"lat":40.14728,"lng":44.16669},{"city":"Baghramyan","state":"Armavir","population":3157,"lat":40.19324,"lng":44.36934},{"city":"Artsvanist","state":"Gegharkunik","population":3142,"lat":40.14857,"lng":45.50874},{"city":"Musaler","state":"Armavir","population":3098,"lat":40.1557,"lng":44.37793},{"city":"Aygezard","state":"Ararat","population":3072,"lat":39.95436,"lng":44.60229},{"city":"Pemzashen","state":"Shirak","population":3055,"lat":40.58612,"lng":43.94311},{"city":"Jrarat","state":"Armavir","population":3052,"lat":40.07214,"lng":44.27137},{"city":"Kaghtsrashen","state":"Ararat","population":3049,"lat":39.98053,"lng":44.62512},{"city":"Aratashen","state":"Armavir","population":3025,"lat":40.12824,"lng":44.22803},{"city":"Khoronk","state":"Armavir","population":3010,"lat":40.13611,"lng":44.24731},{"city":"Lernanist","state":"Kotayk","population":3002,"lat":40.46676,"lng":44.79249},{"city":"Arevik","state":"Armavir","population":2991,"lat":40.1001,"lng":44.09448},{"city":"Azatavan","state":"Ararat","population":2978,"lat":39.98608,"lng":44.50568},{"city":"Tairov","state":"Armavir","population":2964,"lat":40.16078,"lng":44.43435},{"city":"Tsovasar","state":"Gegharkunik","population":2917,"lat":40.1382,"lng":45.19096},{"city":"Dvin","state":"Ararat","population":2905,"lat":40.01984,"lng":44.58376},{"city":"Azatamut","state":"Tavush","population":2891,"lat":40.98847,"lng":45.2067},{"city":"Panik","state":"Shirak","population":2883,"lat":40.66388,"lng":43.97089},{"city":"Bjni","state":"Kotayk","population":2882,"lat":40.45382,"lng":44.64841},{"city":"Aragats","state":"Armavir","population":2882,"lat":40.21948,"lng":44.23328},{"city":"Bagratashen","state":"Tavush","population":2869,"lat":41.24358,"lng":44.81737},{"city":"Tsakkar","state":"Gegharkunik","population":2860,"lat":40.17354,"lng":45.22201},{"city":"Arzakan","state":"Kotayk","population":2829,"lat":40.45007,"lng":44.60828},{"city":"Dalar","state":"Ararat","population":2813,"lat":39.97539,"lng":44.52784},{"city":"Darakert","state":"Ararat","population":2805,"lat":40.10553,"lng":44.41388},{"city":"Vardadzor","state":"Gegharkunik","population":2798,"lat":40.1875,"lng":45.19389},{"city":"Geghakert","state":"Armavir","population":2788,"lat":40.18516,"lng":44.24493},{"city":"Dzoraghbyur","state":"Kotayk","population":2776,"lat":40.2004,"lng":44.63438},{"city":"Nor Kyank","state":"Ararat","population":2760,"lat":39.902,"lng":44.63},{"city":"Shnogh","state":"Lori","population":2758,"lat":41.14693,"lng":44.84043},{"city":"Artsvaberd","state":"Tavush","population":2752,"lat":40.83947,"lng":45.47033},{"city":"Lusarat","state":"Ararat","population":2739,"lat":39.87403,"lng":44.58678},{"city":"Vanashen","state":"Ararat","population":2730,"lat":39.90008,"lng":44.6889},{"city":"Lukashin","state":"Armavir","population":2729,"lat":40.18726,"lng":44.0039},{"city":"Mastara","state":"Aragatsotn","population":2719,"lat":40.4471,"lng":43.8817},{"city":"Meghradzor","state":"Kotayk","population":2707,"lat":40.6068,"lng":44.64158},{"city":"Armash","state":"Ararat","population":2700,"lat":39.76672,"lng":44.8111},{"city":"Goravan","state":"Ararat","population":2680,"lat":39.90539,"lng":44.73131},{"city":"Kaghsi","state":"Kotayk","population":2680,"lat":40.47196,"lng":44.73744},{"city":"Ohanavan","state":"Aragatsotn","population":2679,"lat":40.3485,"lng":44.38717},{"city":"Surenavan","state":"Ararat","population":2672,"lat":39.79449,"lng":44.77508},{"city":"Ddmashen","state":"Gegharkunik","population":2648,"lat":40.57013,"lng":44.81609},{"city":"Aralez","state":"Ararat","population":2635,"lat":39.90005,"lng":44.65086},{"city":"Shinuhayr","state":"Syunik","population":2600,"lat":39.4367,"lng":46.31787},{"city":"Argavand","state":"Armavir","population":2600,"lat":40.0611,"lng":44.09448},{"city":"Mets Masrik","state":"Gegharkunik","population":2595,"lat":40.21948,"lng":45.76391},{"city":"Norabats","state":"Ararat","population":2579,"lat":40.10553,"lng":44.43329},{"city":"Sasunik","state":"Aragatsotn","population":2555,"lat":40.25012,"lng":44.34448},{"city":"Hatsik","state":"Armavir","population":2546,"lat":40.17143,"lng":43.94993},{"city":"Mrgavet","state":"Ararat","population":2514,"lat":40.02789,"lng":44.48328},{"city":"Lernagog","state":"Armavir","population":2507,"lat":40.24011,"lng":43.87102},{"city":"Shahumyan","state":"Lori","population":2491,"lat":40.77482,"lng":44.54596},{"city":"Gladzor","state":"Vayots Dzor","population":2490,"lat":39.7807,"lng":45.34729},{"city":"Aygestan","state":"Ararat","population":2462,"lat":40.00293,"lng":44.55829},{"city":"Arevashogh","state":"Lori","population":2460,"lat":40.86039,"lng":44.27438},{"city":"Tsovak","state":"Gegharkunik","population":2455,"lat":40.18254,"lng":45.63286},{"city":"Norapat","state":"Armavir","population":2455,"lat":40.14172,"lng":44.03332},{"city":"Parpi","state":"Aragatsotn","population":2452,"lat":40.32231,"lng":44.31141},{"city":"Hayanist","state":"Ararat","population":2430,"lat":40.11995,"lng":44.37298},{"city":"Artimet","state":"Armavir","population":2427,"lat":40.15008,"lng":44.26672},{"city":"Lanjaghbyur","state":"Gegharkunik","population":2424,"lat":40.26947,"lng":45.14447},{"city":"Arzni","state":"Kotayk","population":2409,"lat":40.29636,"lng":44.5958},{"city":"Haytagh","state":"Armavir","population":2402,"lat":40.18048,"lng":44.23328},{"city":"Kamaris","state":"Kotayk","population":2395,"lat":40.23694,"lng":44.69153},{"city":"Akhtala","state":"Lori","population":2395,"lat":41.14952,"lng":44.78168},{"city":"Akunk","state":"Kotayk","population":2387,"lat":40.26672,"lng":44.6861},{"city":"Pshatavan","state":"Armavir","population":2379,"lat":40.03888,"lng":44.06671},{"city":"Sayat-Nova","state":"Ararat","population":2375,"lat":40.07507,"lng":44.40008},{"city":"Getap","state":"Vayots Dzor","population":2368,"lat":39.76392,"lng":45.30829},{"city":"Taronik","state":"Armavir","population":2330,"lat":40.13367,"lng":44.19957},{"city":"Mayakovski","state":"Kotayk","population":2324,"lat":40.24419,"lng":44.6341},{"city":"Akori","state":"Lori","population":2314,"lat":41.08976,"lng":44.6173},{"city":"Mrgashen","state":"Kotayk","population":2290,"lat":40.28607,"lng":44.54449},{"city":"Tegh","state":"Syunik","population":2268,"lat":39.55826,"lng":46.48054},{"city":"Sisavan","state":"Ararat","population":2257,"lat":39.90802,"lng":44.66721},{"city":"Noramarg","state":"Ararat","population":2241,"lat":40.02228,"lng":44.42511},{"city":"Hnaberd","state":"Aragatsotn","population":2235,"lat":40.63721,"lng":44.14058},{"city":"Getashen","state":"Armavir","population":2228,"lat":40.04449,"lng":43.94171},{"city":"Arbat","state":"Armavir","population":2220,"lat":40.13892,"lng":44.40289},{"city":"Khachpar","state":"Ararat","population":2219,"lat":40.12512,"lng":44.4057},{"city":"Ghukasavan","state":"Ararat","population":2217,"lat":40.12394,"lng":44.41556},{"city":"Tsovazard","state":"Gegharkunik","population":2182,"lat":40.4751,"lng":45.05011},{"city":"Getahovit","state":"Tavush","population":2174,"lat":40.89523,"lng":45.1355},{"city":"Zorak","state":"Ararat","population":2171,"lat":40.09168,"lng":44.39447},{"city":"Sevkar","state":"Tavush","population":2168,"lat":41.01599,"lng":45.14185},{"city":"Horom","state":"Shirak","population":2162,"lat":40.65973,"lng":43.89032},{"city":"Mets Mantash","state":"Shirak","population":2147,"lat":40.64376,"lng":44.05653},{"city":"Shirakamut","state":"Lori","population":2142,"lat":40.85287,"lng":44.16366},{"city":"Noyakert","state":"Ararat","population":2140,"lat":39.83069,"lng":44.66949},{"city":"Goght","state":"Kotayk","population":2136,"lat":40.1347,"lng":44.78332},{"city":"Griboyedov","state":"Armavir","population":2131,"lat":40.11307,"lng":44.27169},{"city":"Dsegh","state":"Lori","population":2121,"lat":40.9617,"lng":44.65003},{"city":"Dashtavan","state":"Ararat","population":2118,"lat":40.1001,"lng":44.39172},{"city":"Verishen","state":"Syunik","population":2117,"lat":39.53117,"lng":46.31829},{"city":"Getazat","state":"Ararat","population":2115,"lat":40.03844,"lng":44.56369},{"city":"Tsaghkahovit","state":"Aragatsotn","population":2113,"lat":40.63883,"lng":44.22252},{"city":"Aygeshat","state":"Armavir","population":2111,"lat":40.07507,"lng":44.0611},{"city":"Solak","state":"Kotayk","population":2096,"lat":40.46252,"lng":44.70709},{"city":"Mayisyan","state":"Armavir","population":2069,"lat":40.15701,"lng":44.09192},{"city":"Pokr Mantash","state":"Shirak","population":2068,"lat":40.64026,"lng":44.04666},{"city":"Kuchak","state":"Aragatsotn","population":2068,"lat":40.51915,"lng":44.39119},{"city":"Agarak","state":"Aragatsotn","population":2057,"lat":40.30191,"lng":44.27923},{"city":"Shamiram","state":"Aragatsotn","population":2055,"lat":40.27654,"lng":44.09846},{"city":"Alashkert","state":"Armavir","population":2045,"lat":40.10712,"lng":44.05108},{"city":"Apaga","state":"Armavir","population":2045,"lat":40.09729,"lng":44.25293},{"city":"Argavand","state":"Ararat","population":2032,"lat":40.15289,"lng":44.4389},{"city":"Areni","state":"Vayots Dzor","population":2030,"lat":39.72205,"lng":45.18392},{"city":"Arevashat","state":"Armavir","population":2024,"lat":40.13984,"lng":44.3744},{"city":"Anushavan","state":"Shirak","population":2023,"lat":40.65008,"lng":43.98053},{"city":"Karchaghbyur","state":"Gegharkunik","population":2017,"lat":40.17048,"lng":45.57785},{"city":"Mets Parni","state":"Lori","population":2015,"lat":40.83472,"lng":44.11108},{"city":"Nalbandyan","state":"Armavir","population":2013,"lat":40.0639,"lng":43.98889},{"city":"Burastan","state":"Ararat","population":2012,"lat":39.98907,"lng":44.49785},{"city":"Alapars","state":"Kotayk","population":2010,"lat":40.4223,"lng":44.63348},{"city":"Yeraskhahun","state":"Armavir","population":2003,"lat":40.07233,"lng":44.21948},{"city":"Ptghunk","state":"Armavir","population":1996,"lat":40.16388,"lng":44.36389},{"city":"Aghavnadzor","state":"Vayots Dzor","population":1994,"lat":39.78197,"lng":45.22708},{"city":"Lernapat","state":"Lori","population":1994,"lat":40.81538,"lng":44.39344},{"city":"Darpas","state":"Lori","population":1991,"lat":40.83674,"lng":44.42494},{"city":"Berkanush","state":"Ararat","population":1983,"lat":39.97729,"lng":44.52127},{"city":"Chochkan","state":"Lori","population":1970,"lat":41.18118,"lng":44.83217},{"city":"Aghdzk","state":"Aragatsotn","population":1968,"lat":40.3139,"lng":44.25568},{"city":"Koti","state":"Tavush","population":1935,"lat":41.13243,"lng":45.1295},{"city":"Shenavan","state":"Aragatsotn","population":1929,"lat":40.48328,"lng":44.38348},{"city":"Khndzoresk","state":"Syunik","population":1911,"lat":39.51325,"lng":46.43141},{"city":"Arevshat","state":"Shirak","population":1906,"lat":40.65345,"lng":44.04419},{"city":"Ptghni","state":"Kotayk","population":1890,"lat":40.25681,"lng":44.58195},{"city":"Shenavan","state":"Armavir","population":1867,"lat":40.05548,"lng":43.93048},{"city":"Baghramyan","state":"Ararat","population":1864,"lat":39.98053,"lng":44.51392},{"city":"Verin Dvin","state":"Ararat","population":1862,"lat":40.02393,"lng":44.5924},{"city":"Ayrum","state":"Tavush","population":1850,"lat":41.18826,"lng":44.90404},{"city":"Khashtarak","state":"Tavush","population":1838,"lat":40.93668,"lng":45.1821},{"city":"Voskehask","state":"Shirak","population":1832,"lat":40.76426,"lng":43.77474},{"city":"Noravan","state":"Armavir","population":1832,"lat":40.17244,"lng":44.02979},{"city":"Tandzut","state":"Armavir","population":1821,"lat":40.06952,"lng":44.07788},{"city":"Gegharkunik","state":"Gegharkunik","population":1821,"lat":40.25568,"lng":45.14728},{"city":"Nor Yerznka","state":"Aragatsotn","population":1813,"lat":40.30011,"lng":44.38892},{"city":"Mrgavan","state":"Ararat","population":1807,"lat":39.97251,"lng":44.53565},{"city":"Gagarin","state":"Gegharkunik","population":1800,"lat":40.54026,"lng":44.86962},{"city":"Katnajur","state":"Lori","population":1794,"lat":40.82323,"lng":44.14137},{"city":"Khanjyan","state":"Armavir","population":1793,"lat":40.18742,"lng":43.97718},{"city":"Geghamavan","state":"Gegharkunik","population":1791,"lat":40.5625,"lng":44.88892},{"city":"Arevshat","state":"Ararat","population":1786,"lat":40.03963,"lng":44.54179},{"city":"Kotayk","state":"Kotayk","population":1785,"lat":40.27789,"lng":44.66388},{"city":"Nor Gyugh","state":"Kotayk","population":1760,"lat":40.26494,"lng":44.65471},{"city":"Zoravan","state":"Kotayk","population":1758,"lat":40.35553,"lng":44.52228},{"city":"Aknashen","state":"Armavir","population":1748,"lat":40.09275,"lng":44.29157},{"city":"Aygeshat","state":"Armavir","population":1741,"lat":40.23608,"lng":44.28888},{"city":"Shatin","state":"Vayots Dzor","population":1738,"lat":39.83612,"lng":45.30292},{"city":"Arazap","state":"Armavir","population":1730,"lat":40.04169,"lng":44.14728},{"city":"Araks","state":"Armavir","population":1728,"lat":40.09729,"lng":43.95569},{"city":"Araks","state":"Armavir","population":1727,"lat":40.05548,"lng":44.30292},{"city":"Yeghegnut","state":"Armavir","population":1726,"lat":40.08893,"lng":44.16669},{"city":"Jrarbi","state":"Armavir","population":1704,"lat":40.08738,"lng":44.23995},{"city":"Jrashen","state":"Ararat","population":1691,"lat":40.05275,"lng":44.51259},{"city":"Buzhakan","state":"Kotayk","population":1675,"lat":40.45569,"lng":44.51947},{"city":"Amasia","state":"Shirak","population":1651,"lat":40.95566,"lng":43.78379},{"city":"Lenughi","state":"Armavir","population":1647,"lat":40.12512,"lng":43.96393},{"city":"Amberd","state":"Armavir","population":1646,"lat":40.24177,"lng":44.27128},{"city":"Aygedzor","state":"Tavush","population":1632,"lat":40.83121,"lng":45.54483},{"city":"Gyulagarak","state":"Lori","population":1614,"lat":40.96528,"lng":44.47128},{"city":"Nor Kyank","state":"Shirak","population":1606,"lat":40.65832,"lng":43.93189},{"city":"Aygevan","state":"Armavir","population":1601,"lat":40.14172,"lng":43.9751},{"city":"Arevik","state":"Shirak","population":1600,"lat":40.7417,"lng":43.9043},{"city":"Ushi","state":"Aragatsotn","population":1599,"lat":40.34729,"lng":44.37512},{"city":"Marmashen","state":"Shirak","population":1598,"lat":40.83486,"lng":43.7779},{"city":"Doghs","state":"Armavir","population":1598,"lat":40.22229,"lng":44.27228},{"city":"Brnakot","state":"Syunik","population":1597,"lat":39.49742,"lng":45.97241},{"city":"Lernavan","state":"Lori","population":1597,"lat":40.7882,"lng":44.16024},{"city":"Nshavan","state":"Ararat","population":1593,"lat":40.02787,"lng":44.52565},{"city":"Masis","state":"Ararat","population":1583,"lat":39.99772,"lng":44.49349},{"city":"Spandaryan","state":"Shirak","population":1573,"lat":40.66105,"lng":44.01551},{"city":"Aygek","state":"Armavir","population":1573,"lat":40.1889,"lng":44.38611},{"city":"Nor Artagers","state":"Armavir","population":1560,"lat":40.06952,"lng":44.00568},{"city":"Sarahart","state":"Lori","population":1538,"lat":40.87043,"lng":44.21407},{"city":"Yeghegnavan","state":"Ararat","population":1537,"lat":39.83893,"lng":44.61951},{"city":"Paravakar","state":"Tavush","population":1524,"lat":40.98248,"lng":45.36696},{"city":"Zar","state":"Kotayk","population":1520,"lat":40.25848,"lng":44.73328},{"city":"Aygepat","state":"Ararat","population":1517,"lat":39.95565,"lng":44.59181},{"city":"Rind","state":"Vayots Dzor","population":1513,"lat":39.76111,"lng":45.17792},{"city":"Zovaber","state":"Gegharkunik","population":1506,"lat":40.56671,"lng":44.79028},{"city":"Nerkin Bazmaberd","state":"Aragatsotn","population":1506,"lat":40.33893,"lng":44.01392},{"city":"Arapi","state":"Shirak","population":1501,"lat":40.78276,"lng":43.80583},{"city":"Tavush","state":"Tavush","population":1499,"lat":40.91763,"lng":45.40528},{"city":"Getapnya","state":"Ararat","population":1498,"lat":40.1381,"lng":44.42795},{"city":"Zartonk","state":"Armavir","population":1494,"lat":40.10828,"lng":44.16388},{"city":"Movses","state":"Tavush","population":1487,"lat":40.90534,"lng":45.48838},{"city":"Lanjazat","state":"Ararat","population":1486,"lat":40.06102,"lng":44.57544},{"city":"Teghut","state":"Tavush","population":1473,"lat":40.77851,"lng":44.93838},{"city":"Kaputan","state":"Kotayk","population":1471,"lat":40.32507,"lng":44.70007},{"city":"Verin Karmiraghbyur","state":"Tavush","population":1469,"lat":40.88044,"lng":45.44159},{"city":"Kamo","state":"Shirak","population":1465,"lat":40.82572,"lng":43.95071},{"city":"Tumanyan","state":"Lori","population":1456,"lat":41.0019,"lng":44.6494},{"city":"Nor Yedesia","state":"Aragatsotn","population":1455,"lat":40.22229,"lng":44.13348},{"city":"Nor Kesaria","state":"Armavir","population":1454,"lat":40.05941,"lng":43.90725},{"city":"Lernantsk","state":"Lori","population":1442,"lat":40.79532,"lng":44.27435},{"city":"Varser","state":"Gegharkunik","population":1437,"lat":40.55548,"lng":44.90832},{"city":"Karahunj","state":"Syunik","population":1430,"lat":39.47383,"lng":46.35963},{"city":"Metsamor","state":"Armavir","population":1425,"lat":40.07246,"lng":44.2905},{"city":"Kurtan","state":"Lori","population":1425,"lat":40.95719,"lng":44.55623},{"city":"Zaritap","state":"Vayots Dzor","population":1417,"lat":39.63892,"lng":45.51111},{"city":"Bazum","state":"Lori","population":1417,"lat":40.86763,"lng":44.43978},{"city":"Gargar","state":"Lori","population":1414,"lat":40.9577,"lng":44.44161},{"city":"Tsaghkunk","state":"Armavir","population":1406,"lat":40.18048,"lng":44.27228},{"city":"Tsaghkalanj","state":"Armavir","population":1403,"lat":40.20007,"lng":44.23053},{"city":"Katnaghbyur","state":"Aragatsotn","population":1399,"lat":40.38068,"lng":43.94733},{"city":"Lernakert","state":"Shirak","population":1389,"lat":40.5625,"lng":43.9389},{"city":"Yerazgavors","state":"Shirak","population":1365,"lat":40.70288,"lng":43.77649},{"city":"Arevabuyr","state":"Ararat","population":1362,"lat":40.03607,"lng":44.46948},{"city":"Tsiatsan","state":"Armavir","population":1358,"lat":40.1861,"lng":44.26947},{"city":"Voskevan","state":"Tavush","population":1343,"lat":41.12081,"lng":45.06381},{"city":"Kanachut","state":"Ararat","population":1335,"lat":40.0095,"lng":44.54531},{"city":"Norashen","state":"Tavush","population":1322,"lat":40.87683,"lng":45.45722},{"city":"Mayisyan","state":"Shirak","population":1322,"lat":40.84715,"lng":43.83938},{"city":"Nizami","state":"Ararat","population":1320,"lat":40.09168,"lng":44.4057},{"city":"Sis","state":"Ararat","population":1317,"lat":40.05829,"lng":44.38892},{"city":"Agarakadzor","state":"Vayots Dzor","population":1313,"lat":39.73608,"lng":45.35553},{"city":"Ashnak","state":"Aragatsotn","population":1307,"lat":40.33069,"lng":43.91669},{"city":"Shahumyan","state":"Armavir","population":1304,"lat":40.21393,"lng":44.30011},{"city":"Aghavnadzor","state":"Kotayk","population":1302,"lat":40.57848,"lng":44.69948},{"city":"Saratak","state":"Shirak","population":1298,"lat":40.6709,"lng":43.87231},{"city":"Ranchpar","state":"Ararat","population":1298,"lat":40.02789,"lng":44.36951},{"city":"Abovyan","state":"Ararat","population":1297,"lat":40.04851,"lng":44.54742},{"city":"Mrgastan","state":"Armavir","population":1295,"lat":40.20007,"lng":44.27789},{"city":"Aruch","state":"Aragatsotn","population":1291,"lat":40.28749,"lng":44.07798},{"city":"Haykashen","state":"Armavir","population":1279,"lat":40.07233,"lng":44.30829},{"city":"Saralanj","state":"Shirak","population":1270,"lat":40.62116,"lng":44.02041},{"city":"Bardzrashen","state":"Ararat","population":1265,"lat":40.08533,"lng":44.57957},{"city":"Sarigyugh","state":"Tavush","population":1262,"lat":41.03531,"lng":45.14486},{"city":"Gogaran","state":"Lori","population":1255,"lat":40.89255,"lng":44.19915},{"city":"Haykavan","state":"Armavir","population":1244,"lat":40.08893,"lng":44.03888},{"city":"Tsaghkaber","state":"Lori","population":1243,"lat":40.79849,"lng":44.10144},{"city":"Haykavan","state":"Shirak","population":1243,"lat":40.80312,"lng":43.75173},{"city":"Yelpin","state":"Vayots Dzor","population":1235,"lat":39.80832,"lng":45.10985},{"city":"Dimitrov","state":"Ararat","population":1232,"lat":40.00848,"lng":44.4917},{"city":"Mughni","state":"Aragatsotn","population":1230,"lat":40.31198,"lng":44.36671},{"city":"Geghanist","state":"Shirak","population":1225,"lat":40.68467,"lng":44.02333},{"city":"Karin","state":"Aragatsotn","population":1224,"lat":40.25,"lng":44.33},{"city":"Meghrashen","state":"Shirak","population":1223,"lat":40.67017,"lng":43.95652},{"city":"Agarak","state":"Lori","population":1221,"lat":41.01072,"lng":44.46845},{"city":"Fioletovo","state":"Lori","population":1219,"lat":40.72365,"lng":44.71664},{"city":"Dzithankov","state":"Shirak","population":1210,"lat":40.50848,"lng":43.82092},{"city":"Hartagyugh","state":"Lori","population":1207,"lat":40.8346,"lng":44.04614},{"city":"Vanand","state":"Armavir","population":1205,"lat":40.10307,"lng":43.81506},{"city":"Sarchapet","state":"Lori","population":1201,"lat":41.196,"lng":44.38432},{"city":"Vernashen","state":"Vayots Dzor","population":1199,"lat":39.79236,"lng":45.36389},{"city":"Lusakunk","state":"Gegharkunik","population":1194,"lat":40.1778,"lng":45.69137},{"city":"Nor Kyurin","state":"Ararat","population":1193,"lat":40.07386,"lng":44.49731},{"city":"Lchap","state":"Gegharkunik","population":1191,"lat":40.45569,"lng":45.07507},{"city":"Byuravan","state":"Ararat","population":1189,"lat":40.01604,"lng":44.51889},{"city":"Dzorakap","state":"Shirak","population":1187,"lat":40.56811,"lng":43.88068},{"city":"Basen","state":"Shirak","population":1186,"lat":40.75767,"lng":43.99274},{"city":"Harich","state":"Shirak","population":1171,"lat":40.60947,"lng":44.00308},{"city":"Lusaghbyur","state":"Lori","population":1170,"lat":40.86137,"lng":44.03489},{"city":"Zangakatun","state":"Ararat","population":1169,"lat":39.82233,"lng":45.04169},{"city":"Aragyugh","state":"Kotayk","population":1167,"lat":40.40289,"lng":44.54449},{"city":"Hovtamej","state":"Armavir","population":1156,"lat":40.18249,"lng":44.25383},{"city":"Voskehat","state":"Aragatsotn","population":1155,"lat":40.27789,"lng":44.27508},{"city":"Khachaghbyur","state":"Gegharkunik","population":1153,"lat":40.16808,"lng":45.69259},{"city":"Vardanashen","state":"Armavir","population":1152,"lat":40.05242,"lng":44.19014},{"city":"Darbnik","state":"Ararat","population":1152,"lat":40.10828,"lng":44.37793},{"city":"Arpi","state":"Vayots Dzor","population":1151,"lat":39.73889,"lng":45.26672},{"city":"Nor Armavir","state":"Armavir","population":1148,"lat":40.08612,"lng":43.99451},{"city":"Armavir","state":"Armavir","population":1148,"lat":40.08298,"lng":44.05777},{"city":"Hovtashen","state":"Ararat","population":1146,"lat":40.02508,"lng":44.45007},{"city":"Narek","state":"Ararat","population":1142,"lat":40.00041,"lng":44.66482},{"city":"Madina","state":"Gegharkunik","population":1138,"lat":40.07637,"lng":45.25507},{"city":"Shaki","state":"Syunik","population":1135,"lat":39.56499,"lng":45.99861},{"city":"Akner","state":"Syunik","population":1132,"lat":39.53491,"lng":46.30732},{"city":"Haghtanak","state":"Tavush","population":1128,"lat":41.2172,"lng":44.91376},{"city":"Gosh","state":"Tavush","population":1112,"lat":40.73053,"lng":45.00012},{"city":"Navur","state":"Tavush","population":1106,"lat":40.86695,"lng":45.34179},{"city":"Nor Artamet","state":"Kotayk","population":1102,"lat":40.30046,"lng":44.55787},{"city":"Norashen","state":"Aragatsotn","population":1101,"lat":40.65722,"lng":44.07702},{"city":"Mrganush","state":"Ararat","population":1099,"lat":40.02642,"lng":44.55953},{"city":"Geghadzor","state":"Aragatsotn","population":1091,"lat":40.62731,"lng":44.17095},{"city":"Arjut","state":"Lori","population":1086,"lat":40.86118,"lng":44.37587},{"city":"Nerkin Sasnashen","state":"Aragatsotn","population":1085,"lat":40.35553,"lng":43.9917},{"city":"Vahagni","state":"Lori","population":1081,"lat":40.90698,"lng":44.60873},{"city":"Archis","state":"Tavush","population":1080,"lat":41.16351,"lng":44.87631},{"city":"Akhurik","state":"Shirak","population":1080,"lat":40.74212,"lng":43.77674},{"city":"Kornidzor","state":"Syunik","population":1076,"lat":39.54763,"lng":46.53046},{"city":"Saramej","state":"Lori","population":1076,"lat":40.77487,"lng":44.2222},{"city":"Melikgyugh","state":"Aragatsotn","population":1075,"lat":40.66545,"lng":44.35358},{"city":"Kakavadzor","state":"Aragatsotn","population":1072,"lat":40.35406,"lng":44.05435},{"city":"Sotk","state":"Gegharkunik","population":1070,"lat":40.20007,"lng":45.86951},{"city":"Angeghakot","state":"Syunik","population":1069,"lat":39.56952,"lng":45.94452},{"city":"Tsaghkadzor","state":"Kotayk","population":1069,"lat":40.5325,"lng":44.72323},{"city":"Agarakavan","state":"Aragatsotn","population":1063,"lat":40.33069,"lng":44.07233},{"city":"Tsaghkunk","state":"Gegharkunik","population":1062,"lat":40.57788,"lng":44.87793},{"city":"Vardablur","state":"Lori","population":1062,"lat":40.97083,"lng":44.50889},{"city":"Lernahovit","state":"Lori","population":1049,"lat":41.1619,"lng":44.36979},{"city":"Jrahovit","state":"Ararat","population":1048,"lat":40.0473,"lng":44.4751},{"city":"Karaberd","state":"Shirak","population":1039,"lat":40.54309,"lng":43.83331},{"city":"Shirak","state":"Shirak","population":1038,"lat":40.84042,"lng":43.91582},{"city":"Baghramyan","state":"Armavir","population":1033,"lat":40.19608,"lng":43.85409},{"city":"Jrarat","state":"Shirak","population":1029,"lat":40.73817,"lng":44.02776},{"city":"Isahakyan","state":"Shirak","population":1028,"lat":40.61564,"lng":43.72643},{"city":"Amasia","state":"Armavir","population":1016,"lat":40.08331,"lng":43.96668},{"city":"Ttujur","state":"Gegharkunik","population":1015,"lat":40.64644,"lng":45.31586},{"city":"Lusagyugh","state":"Armavir","population":1014,"lat":40.08893,"lng":44.26947},{"city":"Hushakert","state":"Armavir","population":1014,"lat":40.08331,"lng":43.93048},{"city":"Shenik","state":"Armavir","population":1010,"lat":40.213,"lng":43.77033},{"city":"Bazmaghbyur","state":"Aragatsotn","population":1008,"lat":40.3295,"lng":44.319},{"city":"Hartavan","state":"Aragatsotn","population":994,"lat":40.4779,"lng":44.40008},{"city":"Dasht","state":"Armavir","population":991,"lat":40.2279,"lng":44.30011},{"city":"Vahan","state":"Gegharkunik","population":981,"lat":40.57549,"lng":45.39769},{"city":"Yeraskh","state":"Ararat","population":961,"lat":39.73944,"lng":44.82806},{"city":"Getamej","state":"Kotayk","population":948,"lat":40.27495,"lng":44.58148},{"city":"Voghjaberd","state":"Kotayk","population":946,"lat":40.17187,"lng":44.64547},{"city":"Avan","state":"Aragatsotn","population":945,"lat":40.33537,"lng":44.16738},{"city":"Mets Sepasar","state":"Shirak","population":940,"lat":41.04773,"lng":43.82739},{"city":"Sverdlov","state":"Lori","population":939,"lat":41.09653,"lng":44.39839},{"city":"Geghamasar","state":"Gegharkunik","population":938,"lat":40.31091,"lng":45.67924},{"city":"Gharibjanyan","state":"Shirak","population":937,"lat":40.7403,"lng":43.80408},{"city":"Berkarat","state":"Aragatsotn","population":937,"lat":40.67602,"lng":44.16801},{"city":"Deghdzut","state":"Ararat","population":934,"lat":40.02616,"lng":44.54914},{"city":"Verin Ptghni","state":"Kotayk","population":932,"lat":40.24387,"lng":44.5741},{"city":"Khachik","state":"Vayots Dzor","population":930,"lat":39.62196,"lng":45.20837},{"city":"Monteavan","state":"Armavir","population":921,"lat":40.2092,"lng":44.30814},{"city":"Jrashen","state":"Armavir","population":919,"lat":40.08612,"lng":44.01947},{"city":"Drakhtik","state":"Gegharkunik","population":917,"lat":40.56497,"lng":45.2367},{"city":"Vahramaberd","state":"Shirak","population":912,"lat":40.8554,"lng":43.76114},{"city":"Lermontovo","state":"Lori","population":908,"lat":40.75843,"lng":44.63401},{"city":"Kechut","state":"Vayots Dzor","population":904,"lat":39.80427,"lng":45.67072},{"city":"Fantan","state":"Kotayk","population":904,"lat":40.39447,"lng":44.6861},{"city":"Shaghap","state":"Ararat","population":901,"lat":39.88068,"lng":44.89172},{"city":"Vardenut","state":"Aragatsotn","population":901,"lat":40.46948,"lng":44.3667},{"city":"Keti","state":"Shirak","population":901,"lat":40.87415,"lng":43.84822},{"city":"Nor Ughi","state":"Ararat","population":889,"lat":39.92511,"lng":44.63892},{"city":"Katnarat","state":"Lori","population":888,"lat":41.05794,"lng":44.19338},{"city":"Khot","state":"Syunik","population":887,"lat":39.44355,"lng":46.3372},{"city":"Berdik","state":"Ararat","population":887,"lat":39.99451,"lng":44.57233},{"city":"Debet","state":"Lori","population":882,"lat":40.91786,"lng":44.64933},{"city":"Tatul","state":"Aragatsotn","population":879,"lat":40.39447,"lng":43.81671},{"city":"Vazashen","state":"Tavush","population":877,"lat":40.99617,"lng":45.28016},{"city":"Getap","state":"Shirak","population":877,"lat":40.6543,"lng":43.99451},{"city":"Yeghegnut","state":"Lori","population":873,"lat":40.90302,"lng":44.63155},{"city":"Zorakan","state":"Tavush","population":871,"lat":41.22093,"lng":44.93597},{"city":"Bavra","state":"Shirak","population":865,"lat":41.12027,"lng":43.81029},{"city":"Getargel","state":"Kotayk","population":865,"lat":40.2438,"lng":44.59214},{"city":"Karenis","state":"Kotayk","population":858,"lat":40.39172,"lng":44.60553},{"city":"Nurnus","state":"Kotayk","population":840,"lat":40.34577,"lng":44.60277},{"city":"Lusagyugh","state":"Aragatsotn","population":840,"lat":40.61018,"lng":44.38626},{"city":"Nor Amanos","state":"Aragatsotn","population":840,"lat":40.23417,"lng":44.06722},{"city":"Baghanis","state":"Tavush","population":838,"lat":41.10925,"lng":45.05658},{"city":"Araksavan","state":"Ararat","population":838,"lat":40.00012,"lng":44.46668},{"city":"Norashen","state":"Lori","population":836,"lat":41.18886,"lng":44.33336},{"city":"Irind","state":"Aragatsotn","population":836,"lat":40.38918,"lng":43.97269},{"city":"Bagravan","state":"Shirak","population":836,"lat":40.47931,"lng":43.6709},{"city":"Zuygaghbyur","state":"Shirak","population":834,"lat":41.03161,"lng":43.87429},{"city":"Nerkin Karmiraghbyur","state":"Tavush","population":834,"lat":40.94276,"lng":45.43794},{"city":"Jrapi","state":"Shirak","population":827,"lat":40.55496,"lng":43.67926},{"city":"Chiva","state":"Vayots Dzor","population":822,"lat":39.76672,"lng":45.13611},{"city":"Teghut","state":"Lori","population":812,"lat":41.1151,"lng":44.84634},{"city":"Azatashen","state":"Ararat","population":812,"lat":40.13611,"lng":44.41669},{"city":"Chinari","state":"Tavush","population":807,"lat":40.85469,"lng":45.57781},{"city":"Aygut","state":"Gegharkunik","population":806,"lat":40.68298,"lng":45.17634},{"city":"Zovk","state":"Kotayk","population":802,"lat":40.20542,"lng":44.69328},{"city":"Hatsik","state":"Shirak","population":801,"lat":40.84433,"lng":43.87444},{"city":"Aragatsotn","state":"Aragatsotn","population":799,"lat":40.26028,"lng":44.1815},{"city":"Norakert","state":"Gegharkunik","population":795,"lat":40.26492,"lng":45.69882},{"city":"Ptghavan","state":"Tavush","population":793,"lat":41.22966,"lng":44.8535},{"city":"Hayravank","state":"Gegharkunik","population":788,"lat":40.43094,"lng":45.09491},{"city":"Tatev","state":"Syunik","population":785,"lat":39.38611,"lng":46.24451},{"city":"Karnut","state":"Shirak","population":783,"lat":40.7836,"lng":43.95695},{"city":"Urut","state":"Lori","population":777,"lat":41.06778,"lng":44.39628},{"city":"Bayandur","state":"Shirak","population":773,"lat":40.69311,"lng":43.77087},{"city":"Arevatsag","state":"Lori","population":772,"lat":40.97211,"lng":44.60911},{"city":"Vardenis","state":"Aragatsotn","population":764,"lat":40.56746,"lng":44.40586},{"city":"Hayrenyats","state":"Shirak","population":764,"lat":40.63074,"lng":43.8727},{"city":"Marmarik","state":"Kotayk","population":755,"lat":40.58044,"lng":44.67124},{"city":"Harzhis","state":"Syunik","population":752,"lat":39.43443,"lng":46.22204},{"city":"Karaglukh","state":"Vayots Dzor","population":751,"lat":39.89305,"lng":45.26761},{"city":"Ghazanchi","state":"Shirak","population":751,"lat":41.0733,"lng":43.84038},{"city":"Davtashen","state":"Aragatsotn","population":745,"lat":40.36108,"lng":43.95569},{"city":"Khnatsakh","state":"Syunik","population":743,"lat":39.60553,"lng":46.39172},{"city":"Davit Bek","state":"Syunik","population":742,"lat":39.31997,"lng":46.49461},{"city":"Karashamb","state":"Kotayk","population":742,"lat":40.40907,"lng":44.58051},{"city":"Verin Tsaghkavan","state":"Tavush","population":738,"lat":40.94128,"lng":45.33076},{"city":"Yeghipatrush","state":"Aragatsotn","population":737,"lat":40.53418,"lng":44.47307},{"city":"Privolnoye","state":"Lori","population":736,"lat":41.14633,"lng":44.44571},{"city":"Artabuynk","state":"Vayots Dzor","population":734,"lat":39.8667,"lng":45.32788},{"city":"Rya Taza","state":"Aragatsotn","population":732,"lat":40.65712,"lng":44.30107},{"city":"Haghpat","state":"Lori","population":731,"lat":41.09559,"lng":44.7113},{"city":"Aygabats","state":"Shirak","population":730,"lat":40.70355,"lng":43.90514},{"city":"Artsvanik","state":"Syunik","population":729,"lat":39.26322,"lng":46.4737},{"city":"Gusanagyugh","state":"Shirak","population":725,"lat":40.66388,"lng":43.79309},{"city":"Artashavan","state":"Aragatsotn","population":718,"lat":40.38892,"lng":44.38348},{"city":"Ginevet","state":"Ararat","population":717,"lat":39.9326,"lng":44.62352},{"city":"Voskepar","state":"Tavush","population":711,"lat":41.06451,"lng":45.05627},{"city":"Shamlugh","state":"Lori","population":711,"lat":41.16794,"lng":44.72193},{"city":"Hartashen","state":"Syunik","population":709,"lat":39.48444,"lng":46.38146},{"city":"Nahapetavan","state":"Shirak","population":708,"lat":40.6075,"lng":44.01621},{"city":"Gndevaz","state":"Vayots Dzor","population":705,"lat":39.76111,"lng":45.62231},{"city":"Lanjik","state":"Shirak","population":702,"lat":40.50795,"lng":43.86009},{"city":"Charchakis","state":"Aragatsotn","population":700,"lat":40.69974,"lng":44.32398},{"city":"Pokr Masrik","state":"Gegharkunik","population":698,"lat":40.25748,"lng":45.72168},{"city":"Katnaghbyur","state":"Kotayk","population":692,"lat":40.25597,"lng":44.67582},{"city":"Akunk","state":"Aragatsotn","population":692,"lat":40.42602,"lng":43.9034},{"city":"Nigavan","state":"Aragatsotn","population":691,"lat":40.6163,"lng":44.30118},{"city":"Ditak","state":"Ararat","population":683,"lat":40.04519,"lng":44.51942},{"city":"Shaghat","state":"Syunik","population":680,"lat":39.56794,"lng":45.90635},{"city":"Bagaran","state":"Armavir","population":679,"lat":40.14314,"lng":43.66018},{"city":"Lejan","state":"Lori","population":678,"lat":41.02733,"lng":44.4451},{"city":"Jil","state":"Gegharkunik","population":678,"lat":40.45007,"lng":45.45007},{"city":"Lusadzor","state":"Tavush","population":670,"lat":40.93689,"lng":45.14845},{"city":"Sanahin","state":"Lori","population":669,"lat":41.08836,"lng":44.66679},{"city":"Byurakn","state":"Shirak","population":666,"lat":40.8681,"lng":43.71668},{"city":"Kaps","state":"Shirak","population":654,"lat":40.87128,"lng":43.75505},{"city":"Vardakar","state":"Shirak","population":649,"lat":40.66434,"lng":43.91887},{"city":"Choratan","state":"Tavush","population":648,"lat":40.86185,"lng":45.48793},{"city":"Bambakashat","state":"Armavir","population":646,"lat":40.10828,"lng":44.01947},{"city":"Jajur","state":"Shirak","population":645,"lat":40.85154,"lng":43.95338},{"city":"Hnaberd","state":"Ararat","population":643,"lat":40.00611,"lng":44.57433},{"city":"Lusakert","state":"Shirak","population":642,"lat":40.67273,"lng":43.85747},{"city":"Zarinja","state":"Aragatsotn","population":639,"lat":40.4779,"lng":43.7807},{"city":"Geghasar","state":"Lori","population":635,"lat":40.84798,"lng":44.1825},{"city":"Argina","state":"Armavir","population":632,"lat":40.27312,"lng":43.73989},{"city":"Yervandashat","state":"Armavir","population":630,"lat":40.11735,"lng":43.67171},{"city":"Paruyr Sevak","state":"Ararat","population":624,"lat":39.76936,"lng":44.91525},{"city":"Kayk","state":"Aragatsotn","population":623,"lat":40.58137,"lng":44.37608},{"city":"Dashtakar","state":"Ararat","population":616,"lat":39.9223,"lng":44.75568},{"city":"Tsoghamarg","state":"Shirak","population":615,"lat":40.94874,"lng":43.85748},{"city":"Tsilkar","state":"Aragatsotn","population":615,"lat":40.72011,"lng":44.20676},{"city":"Nor Khachakap","state":"Lori","population":615,"lat":40.83822,"lng":44.3567},{"city":"Tsaghkashen","state":"Aragatsotn","population":614,"lat":40.50337,"lng":44.35398},{"city":"Shirakavan","state":"Shirak","population":611,"lat":40.65216,"lng":43.74541},{"city":"Hovuni","state":"Shirak","population":610,"lat":40.87081,"lng":43.79792},{"city":"Geghadir","state":"Kotayk","population":610,"lat":40.15466,"lng":44.65141},{"city":"Katnaghbyur","state":"Lori","population":608,"lat":41.03713,"lng":44.21763},{"city":"Artanish","state":"Gegharkunik","population":607,"lat":40.49731,"lng":45.36389},{"city":"Syunik","state":"Syunik","population":605,"lat":39.20162,"lng":46.47158},{"city":"Halidzor","state":"Syunik","population":602,"lat":39.41229,"lng":46.29577},{"city":"Hatsavan","state":"Kotayk","population":599,"lat":40.13713,"lng":44.65217},{"city":"Alagyaz","state":"Aragatsotn","population":597,"lat":40.68082,"lng":44.28797},{"city":"Herher","state":"Vayots Dzor","population":595,"lat":39.77508,"lng":45.54169},{"city":"Lusaghbyur","state":"Shirak","population":592,"lat":40.6354,"lng":43.74469},{"city":"Hovit","state":"Shirak","population":590,"lat":40.76943,"lng":43.99536},{"city":"Sipanik","state":"Ararat","population":589,"lat":40.10756,"lng":44.35423},{"city":"Karmrashen","state":"Aragatsotn","population":587,"lat":40.43329,"lng":43.94733},{"city":"Yernjatap","state":"Aragatsotn","population":585,"lat":40.45569,"lng":44.46668},{"city":"Chkalovka","state":"Gegharkunik","population":580,"lat":40.50848,"lng":44.98053},{"city":"Martiros","state":"Vayots Dzor","population":579,"lat":39.59729,"lng":45.51392},{"city":"Getk","state":"Shirak","population":578,"lat":40.7265,"lng":43.78477},{"city":"Dashtadem","state":"Aragatsotn","population":576,"lat":40.34168,"lng":43.85828},{"city":"Geghadir","state":"Aragatsotn","population":576,"lat":40.65213,"lng":44.10581},{"city":"Beniamin","state":"Shirak","population":570,"lat":40.69031,"lng":43.8529},{"city":"Ghazaravan","state":"Aragatsotn","population":569,"lat":40.341,"lng":44.3204},{"city":"Debedavan","state":"Tavush","population":562,"lat":41.27945,"lng":44.81243},{"city":"Vaghatin","state":"Syunik","population":557,"lat":39.50465,"lng":46.12047},{"city":"Arjhovit","state":"Lori","population":557,"lat":40.82681,"lng":44.33731},{"city":"Orgov","state":"Aragatsotn","population":552,"lat":40.34729,"lng":44.25568},{"city":"Lernapar","state":"Aragatsotn","population":552,"lat":40.7439,"lng":44.16154},{"city":"Aghin","state":"Shirak","population":552,"lat":40.58556,"lng":43.69845},{"city":"Lernamerdz","state":"Armavir","population":550,"lat":40.25848,"lng":44.26392},{"city":"Martuni","state":"Gegharkunik","population":547,"lat":40.66498,"lng":45.2543},{"city":"Darbas","state":"Syunik","population":542,"lat":39.4389,"lng":46.12746},{"city":"Nor Artik","state":"Aragatsotn","population":541,"lat":40.46668,"lng":43.70831},{"city":"Artavaz","state":"Kotayk","population":541,"lat":40.61174,"lng":44.57846},{"city":"Amrakits","state":"Lori","population":537,"lat":40.99415,"lng":44.43883},{"city":"Akhlatyan","state":"Syunik","population":535,"lat":39.4389,"lng":46.04169},{"city":"Dprabak","state":"Gegharkunik","population":533,"lat":40.68785,"lng":45.12505},{"city":"Azatek","state":"Vayots Dzor","population":532,"lat":39.65008,"lng":45.4389},{"city":"Mets Ayrum","state":"Lori","population":528,"lat":41.16656,"lng":44.82533},{"city":"Dovegh","state":"Tavush","population":528,"lat":41.18426,"lng":45.02817},{"city":"Yenokavan","state":"Tavush","population":527,"lat":40.91291,"lng":45.10742},{"city":"Karinj","state":"Lori","population":525,"lat":40.97237,"lng":44.68979},{"city":"Shgharshik","state":"Aragatsotn","population":523,"lat":40.4057,"lng":43.96668},{"city":"Lehvaz","state":"Syunik","population":520,"lat":38.9385,"lng":46.2156},{"city":"Varagavan","state":"Tavush","population":520,"lat":40.96289,"lng":45.35282},{"city":"Shoghakat","state":"Gegharkunik","population":518,"lat":40.5015,"lng":45.27368},{"city":"Arayi","state":"Aragatsotn","population":517,"lat":40.45831,"lng":44.37512},{"city":"Tsaghkashen","state":"Gegharkunik","population":516,"lat":40.30405,"lng":45.05695},{"city":"Sarakap","state":"Shirak","population":515,"lat":40.55349,"lng":43.73189},{"city":"Lorut","state":"Lori","population":515,"lat":40.93717,"lng":44.77142},{"city":"Hobardzi","state":"Lori","population":511,"lat":40.96027,"lng":44.49471},{"city":"Jrarat","state":"Kotayk","population":511,"lat":40.54513,"lng":44.75771},{"city":"Lchavan","state":"Gegharkunik","population":510,"lat":40.14917,"lng":45.6109},{"city":"Aknaghbyur","state":"Tavush","population":506,"lat":40.96393,"lng":45.15832},{"city":"Tsaghkavan","state":"Tavush","population":505,"lat":41.02787,"lng":45.12097},{"city":"Lusashogh","state":"Ararat","population":504,"lat":39.8529,"lng":44.98053},{"city":"Khndzorut","state":"Vayots Dzor","population":502,"lat":39.55322,"lng":45.40518},{"city":"Akner","state":"Lori","population":502,"lat":41.08172,"lng":44.69226},{"city":"Zovasar","state":"Aragatsotn","population":502,"lat":40.4751,"lng":43.95288},{"city":"Ferik","state":"Armavir","population":381,"lat":40.1874,"lng":44.20952},{"city":"Yeghegis","state":"Vayots Dzor","population":367,"lat":39.8723,"lng":45.3575},{"city":"Arevut","state":"Aragatsotn","population":213,"lat":40.36394,"lng":43.81025},{"city":"Metsadzor","state":"Aragatsotn","population":172,"lat":40.38036,"lng":44.04591}]}}