{"timezone":"Asia/Makassar","countries":{"Indonesia":[{"city":"Makassar","state":"South Sulawesi","population":1423877,"lat":-5.14861,"lng":119.43194},{"city":"Samarinda","state":"East Kalimantan","population":831460,"lat":-0.49167,"lng":117.14583},{"city":"Denpasar","state":"Bali","population":725314,"lat":-8.65,"lng":115.21667},{"city":"Balikpapan","state":"East Kalimantan","population":695287,"lat":-1.26753,"lng":116.82887},{"city":"Banjarmasin","state":"South Kalimantan","population":657663,"lat":-3.31987,"lng":114.59075},{"city":"Manado","state":"North Sulawesi","population":451916,"lat":1.48218,"lng":124.84892},{"city":"Kupang","state":"East Nusa Tenggara","population":442758,"lat":-10.17083,"lng":123.60694},{"city":"Mataram","state":"West Nusa Tenggara","population":429651,"lat":-8.58333,"lng":116.11667},{"city":"Palu","state":"Central Sulawesi","population":373218,"lat":-0.90833,"lng":119.87083},{"city":"Kendari","state":"Southeast Sulawesi","population":345107,"lat":-3.9778,"lng":122.51507},{"city":"Tarakan","state":"North Kalimantan","population":249960,"lat":3.31332,"lng":117.59152},{"city":"Bitung","state":"North Sulawesi","population":225134,"lat":1.44059,"lng":125.12824},{"city":"Loa Janan","state":"East Kalimantan","population":212816,"lat":-0.58295,"lng":117.09503},{"city":"Gorontalo","state":"Gorontalo","population":198539,"lat":0.5375,"lng":123.0625},{"city":"Palopo","state":"South Sulawesi","population":190867,"lat":-2.9925,"lng":120.19694},{"city":"Bontang","state":"East Kalimantan","population":189968,"lat":0.1324,"lng":117.4854},{"city":"Labuan Bajo","state":"East Nusa Tenggara","population":188724,"lat":-8.4964,"lng":119.8877},{"city":"Bima","state":"West Nusa Tenggara","population":161362,"lat":-8.46006,"lng":118.72667},{"city":"Baubau","state":"Southeast Sulawesi","population":161280,"lat":-5.4633,"lng":122.6024},{"city":"Parepare","state":"South Sulawesi","population":160309,"lat":-4.0135,"lng":119.6255},{"city":"Watampone","state":"South Sulawesi","population":149336,"lat":-4.5386,"lng":120.3279},{"city":"Singaraja","state":"Bali","population":133784,"lat":-8.112,"lng":115.08818},{"city":"Martapura","state":"South Kalimantan","population":131449,"lat":-3.4109,"lng":114.8642},{"city":"Sukawati","state":"Bali","population":125470,"lat":-8.4913,"lng":115.0459},{"city":"Selong","state":"West Nusa Tenggara","population":92464,"lat":-8.6503,"lng":116.5318},{"city":"Banjar","state":"Bali","population":89040,"lat":-8.19,"lng":114.9675},{"city":"Maumere","state":"East Nusa Tenggara","population":87720,"lat":-8.6199,"lng":122.2111},{"city":"Ende","state":"East Nusa Tenggara","population":87269,"lat":-8.8432,"lng":121.6623},{"city":"Galesong","state":"South Sulawesi","population":83050,"lat":-5.3166,"lng":119.3661},{"city":"Atambua","state":"East Nusa Tenggara","population":82196,"lat":-9.10611,"lng":124.8925},{"city":"Ubud","state":"Bali","population":74800,"lat":-8.5098,"lng":115.2654},{"city":"Majene","state":"West Sulawesi","population":73883,"lat":-3.5403,"lng":118.9707},{"city":"Raha","state":"Southeast Sulawesi","population":69980,"lat":-4.838,"lng":122.7209},{"city":"Nunukan","state":"North Kalimantan","population":67006,"lat":4.13841,"lng":117.6507},{"city":"Polewali","state":"West Sulawesi","population":65800,"lat":-3.4324,"lng":119.3435},{"city":"Sumbawa Besar","state":"West Nusa Tenggara","population":62753,"lat":-8.49317,"lng":117.42024},{"city":"Sengkang","state":"South Sulawesi","population":59523,"lat":-4.1279,"lng":120.0297},{"city":"Tanjung Selor","state":"North Kalimantan","population":56569,"lat":2.8375,"lng":117.36528},{"city":"Barabai","state":"South Kalimantan","population":55687,"lat":-2.58333,"lng":115.38333},{"city":"Amuntai","state":"South Kalimantan","population":55560,"lat":-2.41773,"lng":115.24941},{"city":"Taliwang","state":"West Nusa Tenggara","population":55340,"lat":-8.7449,"lng":116.8532},{"city":"Dompu","state":"West Nusa Tenggara","population":54987,"lat":-8.5365,"lng":118.4634},{"city":"Kefamenanu","state":"East Nusa Tenggara","population":48202,"lat":-9.44667,"lng":124.47806},{"city":"Luwuk","state":"Central Sulawesi","population":47778,"lat":-0.9516,"lng":122.7875},{"city":"Poso","state":"Central Sulawesi","population":47477,"lat":-1.3959,"lng":120.7524},{"city":"Ruteng","state":"East Nusa Tenggara","population":41533,"lat":-8.61139,"lng":120.46444},{"city":"Sinjai","state":"South Sulawesi","population":40797,"lat":-5.1241,"lng":120.253},{"city":"Rantepao","state":"South Sulawesi","population":40438,"lat":-2.9701,"lng":119.8978},{"city":"Soe","state":"East Nusa Tenggara","population":40190,"lat":-9.86071,"lng":124.28395},{"city":"Masamba","state":"South Sulawesi","population":38024,"lat":-2.5537,"lng":120.3279},{"city":"Tanjung","state":"South Kalimantan","population":37291,"lat":-2.1709,"lng":115.4077},{"city":"Waingapu","state":"East Nusa Tenggara","population":35932,"lat":-9.6567,"lng":120.2641},{"city":"Tambolaka","state":"East Nusa Tenggara","population":35790,"lat":-9.4283,"lng":119.238},{"city":"Tahuna","state":"North Sulawesi","population":35307,"lat":3.61099,"lng":125.4858},{"city":"Praya","state":"West Nusa Tenggara","population":35183,"lat":-8.70536,"lng":116.27036},{"city":"Tabanan","state":"Bali","population":33667,"lat":-8.5413,"lng":115.12522},{"city":"Tondano","state":"North Sulawesi","population":33317,"lat":1.3054,"lng":124.91261},{"city":"Negara","state":"Bali","population":33191,"lat":-8.35694,"lng":114.61694},{"city":"Katobu","state":"Southeast Sulawesi","population":31929,"lat":-4.8299,"lng":122.726},{"city":"Amlapura","state":"Bali","population":31869,"lat":-8.45,"lng":115.61667},{"city":"Amlapura city","state":"Bali","population":31869,"lat":-8.44869,"lng":115.60621},{"city":"Lewoleba","state":"East Nusa Tenggara","population":30151,"lat":-8.3723,"lng":123.418},{"city":"Kuta","state":"Bali","population":30012,"lat":-8.72332,"lng":115.17234},{"city":"Maros","state":"South Sulawesi","population":30000,"lat":-5.006,"lng":119.5727},{"city":"Klungkung","state":"Bali","population":27836,"lat":-8.53333,"lng":115.4},{"city":"Tomohon","state":"North Sulawesi","population":27624,"lat":1.31678,"lng":124.80379},{"city":"Malinau","state":"North Kalimantan","population":25596,"lat":3.58855,"lng":116.62391},{"city":"Bungku","state":"Central Sulawesi","population":25477,"lat":-2.5471,"lng":121.972},{"city":"Seririt","state":"Bali","population":25000,"lat":-8.1928,"lng":114.9388},{"city":"Bedugul","state":"Bali","population":20000,"lat":-8.4504,"lng":115.5925},{"city":"Kalabahi","state":"East Nusa Tenggara","population":19210,"lat":-8.2151,"lng":124.5458},{"city":"Mamuju","state":"West Sulawesi","population":15000,"lat":-2.68056,"lng":118.88611},{"city":"Sanur","state":"Bali","population":14628,"lat":-8.675,"lng":115.26111},{"city":"Muarajawa","state":null,"population":13182,"lat":-0.63333,"lng":117.3},{"city":"Labuan Lombok","state":"West Nusa Tenggara","population":10000,"lat":-8.5,"lng":116.66667},{"city":"Lembar","state":"West Nusa Tenggara","population":10000,"lat":-8.7264,"lng":116.0744},{"city":"Legian","state":"Bali","population":10000,"lat":-8.70415,"lng":115.17028},{"city":"Lovina","state":"Bali","population":10000,"lat":-8.14927,"lng":115.03999},{"city":"Laikit, Laikit II (Dimembe)","state":"North Sulawesi","population":8000,"lat":1.48833,"lng":124.97444},{"city":"Munduk","state":"Bali","population":6200,"lat":-8.26866,"lng":115.07947},{"city":"Sape","state":"West Nusa Tenggara","population":5000,"lat":-8.56667,"lng":118.98333},{"city":"Pototano","state":"West Nusa Tenggara","population":5000,"lat":-8.4126,"lng":117.4811},{"city":"Senggigi","state":"West Nusa Tenggara","population":5000,"lat":-8.4919,"lng":116.0424},{"city":"Nusa Dua","state":"Bali","population":2500,"lat":-8.80047,"lng":115.23341},{"city":"Banjar Wangsian","state":"Bali","population":2353,"lat":-8.49497,"lng":115.42342},{"city":"Naisano Dua","state":"East Nusa Tenggara","population":2345,"lat":-9.59806,"lng":123.77028},{"city":"Komodo","state":"East Nusa Tenggara","population":2000,"lat":-8.5895,"lng":119.4913},{"city":"Gili Air","state":"West Nusa Tenggara","population":1800,"lat":-8.35783,"lng":116.0824},{"city":"Jimbaran","state":"Bali","population":1785,"lat":-8.79093,"lng":115.16006},{"city":"Gili Trawangan","state":"West Nusa Tenggara","population":1500,"lat":-8.34897,"lng":116.037},{"city":"Baa","state":"East Nusa Tenggara","population":1263,"lat":-10.7263,"lng":123.0492},{"city":"Pemenang","state":"West Nusa Tenggara","population":1000,"lat":-8.40401,"lng":116.10255},{"city":"Padangbai","state":"Bali","population":1000,"lat":-8.5317,"lng":115.5072},{"city":"Miangas","state":"North Sulawesi","population":816,"lat":5.55144,"lng":126.57946},{"city":"Modisi","state":"North Sulawesi","population":560,"lat":0.4516,"lng":124.43664},{"city":"Praiyawang","state":"East Nusa Tenggara","population":0,"lat":-9.93547,"lng":120.66997},{"city":"Wureh","state":"East Nusa Tenggara","population":0,"lat":-8.306,"lng":123.0421},{"city":"Wotu","state":"South Sulawesi","population":0,"lat":-2.5906,"lng":120.804},{"city":"Wori","state":"North Sulawesi","population":0,"lat":1.59714,"lng":124.85246},{"city":"Wonorejo","state":"South Sulawesi","population":0,"lat":-2.4937,"lng":120.8126},{"city":"Wolowiro","state":"East Nusa Tenggara","population":0,"lat":-8.7803,"lng":122.0136},{"city":"Wolowaru","state":"East Nusa Tenggara","population":0,"lat":-8.7835,"lng":121.886},{"city":"Wolosoko","state":"East Nusa Tenggara","population":0,"lat":-8.8531,"lng":121.7107},{"city":"Wolo","state":"East Nusa Tenggara","population":0,"lat":-8.4045,"lng":122.8539},{"city":"Witihama","state":"East Nusa Tenggara","population":0,"lat":-8.2996,"lng":123.2627},{"city":"Wera","state":"East Nusa Tenggara","population":0,"lat":-8.34,"lng":120.72},{"city":"Wekmurak","state":"East Nusa Tenggara","population":0,"lat":-9.5622,"lng":124.7199},{"city":"Waworada","state":"West Nusa Tenggara","population":0,"lat":-8.6995,"lng":118.7991},{"city":"Watuapi","state":"East Nusa Tenggara","population":0,"lat":-8.6122,"lng":121.4203},{"city":"Watansoppeng","state":"South Sulawesi","population":0,"lat":-4.3522,"lng":119.8841},{"city":"Wanci","state":"Southeast Sulawesi","population":0,"lat":-5.3271,"lng":123.5388},{"city":"Waiwerang","state":"East Nusa Tenggara","population":0,"lat":-8.3884,"lng":123.1648},{"city":"Weetobula","state":"East Nusa Tenggara","population":0,"lat":-9.4413,"lng":119.2323},{"city":"Waigete","state":"East Nusa Tenggara","population":0,"lat":-8.6127,"lng":122.4198},{"city":"Waipukang","state":"East Nusa Tenggara","population":0,"lat":-8.3207,"lng":123.4638},{"city":"Waioti","state":"East Nusa Tenggara","population":0,"lat":-8.6308,"lng":122.2413},{"city":"Waimangura","state":"East Nusa Tenggara","population":0,"lat":-9.5098,"lng":119.2377},{"city":"Wailebe","state":"East Nusa Tenggara","population":0,"lat":-8.3695,"lng":123.0005},{"city":"Waikabubak","state":"East Nusa Tenggara","population":0,"lat":-9.6475,"lng":119.3889},{"city":"Waibalun","state":"East Nusa Tenggara","population":0,"lat":-8.3453,"lng":122.9542},{"city":"Utan","state":"West Nusa Tenggara","population":0,"lat":-8.4129,"lng":117.1332},{"city":"Uluwolo","state":"East Nusa Tenggara","population":0,"lat":-8.5753,"lng":121.2908},{"city":"Kolaka","state":"Southeast Sulawesi","population":0,"lat":-4.0597,"lng":121.60556},{"city":"Ulu","state":"North Sulawesi","population":0,"lat":2.70363,"lng":125.39375},{"city":"Ujoh Bilang","state":"East Kalimantan","population":0,"lat":0.55,"lng":115.25},{"city":"Terong","state":"East Nusa Tenggara","population":0,"lat":-8.3911,"lng":123.1404},{"city":"Toyapakeh","state":"Bali","population":0,"lat":-8.682,"lng":115.488},{"city":"Tangga","state":"West Nusa Tenggara","population":0,"lat":-8.656,"lng":118.6937},{"city":"Tombatu","state":"North Sulawesi","population":0,"lat":1.04168,"lng":124.68362},{"city":"Toli-Toli","state":"Central Sulawesi","population":0,"lat":1.04018,"lng":120.81764},{"city":"Tokojaeng","state":"East Nusa Tenggara","population":0,"lat":-8.258,"lng":123.5469},{"city":"Tinabogan","state":"Central Sulawesi","population":0,"lat":0.7823,"lng":120.5264},{"city":"Tilamuta","state":"Gorontalo","population":0,"lat":0.5273,"lng":122.3463},{"city":"Tideng Pale","state":"North Kalimantan","population":0,"lat":3.60815,"lng":116.90668},{"city":"Teta Satu","state":"West Nusa Tenggara","population":0,"lat":-8.5685,"lng":118.8028},{"city":"Tepas","state":"West Nusa Tenggara","population":0,"lat":-8.71667,"lng":116.91667},{"city":"Tepal","state":"West Nusa Tenggara","population":0,"lat":-8.6261,"lng":117.1787},{"city":"Tentena","state":"Central Sulawesi","population":0,"lat":-1.7562,"lng":120.648},{"city":"Tenga","state":"North Sulawesi","population":0,"lat":1.16146,"lng":124.43929},{"city":"Tembuku","state":"Bali","population":0,"lat":-8.4521,"lng":115.3846},{"city":"Teluksantong","state":"West Nusa Tenggara","population":0,"lat":-8.7218,"lng":117.8884},{"city":"Tegalalang","state":"Bali","population":0,"lat":-8.4366,"lng":115.2792},{"city":"Tatelu","state":"North Sulawesi","population":0,"lat":1.5307,"lng":124.94765},{"city":"Taramana","state":"East Nusa Tenggara","population":0,"lat":-8.1675,"lng":124.8507},{"city":"Tapalang","state":"West Sulawesi","population":0,"lat":-2.8637,"lng":118.8672},{"city":"Tanjungluar","state":"West Nusa Tenggara","population":0,"lat":-8.7752,"lng":116.5177},{"city":"Tanjungbatu","state":"South Kalimantan","population":0,"lat":-3.0002,"lng":116.2227},{"city":"Tanjung","state":"West Nusa Tenggara","population":0,"lat":-8.356,"lng":116.1565},{"city":"Tanglad","state":"Bali","population":0,"lat":-8.7737,"lng":115.5831},{"city":"Tanahwangko","state":"North Sulawesi","population":0,"lat":1.39368,"lng":124.68227},{"city":"Tana Paser","state":"East Kalimantan","population":0,"lat":-1.9051,"lng":116.1913},{"city":"Tamalabang","state":"East Nusa Tenggara","population":0,"lat":-8.3527,"lng":124.2572},{"city":"Tambu","state":"Central Sulawesi","population":0,"lat":-0.0483,"lng":119.8794},{"city":"Tamako","state":"North Sulawesi","population":0,"lat":3.45626,"lng":125.50627},{"city":"Talise","state":"North Sulawesi","population":0,"lat":1.83344,"lng":125.06949},{"city":"Takalar","state":"South Sulawesi","population":0,"lat":-5.4258,"lng":119.4384},{"city":"Tagolu","state":"Central Sulawesi","population":0,"lat":-1.4393,"lng":120.7731},{"city":"Taccipi","state":"South Sulawesi","population":0,"lat":-4.5066,"lng":120.1842},{"city":"Banjar Susut Kaja","state":"Bali","population":0,"lat":-8.4368,"lng":115.3301},{"city":"Lasusua","state":"Southeast Sulawesi","population":0,"lat":-3.5105,"lng":120.8844},{"city":"Sungguminasa","state":"South Sulawesi","population":0,"lat":-5.1971,"lng":119.451},{"city":"Sungairaya","state":"South Kalimantan","population":0,"lat":-2.8566,"lng":115.2474},{"city":"Sungaikupang","state":"South Kalimantan","population":0,"lat":-3.0438,"lng":115.9918},{"city":"Sungaibali","state":"South Kalimantan","population":0,"lat":-3.4027,"lng":116.4044},{"city":"Sukasada","state":"Bali","population":0,"lat":-8.1395,"lng":115.1031},{"city":"Stagen","state":"South Kalimantan","population":0,"lat":-3.3049,"lng":116.1779},{"city":"Sowa","state":"West Nusa Tenggara","population":0,"lat":-8.37509,"lng":118.69009},{"city":"Sondo","state":"West Nusa Tenggara","population":0,"lat":-8.7455,"lng":118.665},{"city":"Sonder","state":"North Sulawesi","population":0,"lat":1.25474,"lng":124.77945},{"city":"Somba","state":"West Sulawesi","population":0,"lat":-3.3772,"lng":118.8475},{"city":"Siwa","state":"South Sulawesi","population":0,"lat":-3.6999,"lng":120.4156},{"city":"Simu","state":"West Nusa Tenggara","population":0,"lat":-8.6686,"lng":117.6898},{"city":"Simpur","state":"South Kalimantan","population":0,"lat":-2.8281,"lng":115.2666},{"city":"Simpangempat","state":"South Kalimantan","population":0,"lat":-3.2785,"lng":115.0293},{"city":"Sila","state":"West Nusa Tenggara","population":0,"lat":-8.5025,"lng":118.62},{"city":"Sikka","state":"East Nusa Tenggara","population":0,"lat":-8.7494,"lng":122.1961},{"city":"Sidemen","state":"Bali","population":0,"lat":-8.4842,"lng":115.4452},{"city":"Seteluk","state":"West Nusa Tenggara","population":0,"lat":-8.62549,"lng":116.86674},{"city":"Sesayap","state":"North Kalimantan","population":0,"lat":3.58525,"lng":117.00765},{"city":"Banjar Seribatu","state":"Bali","population":0,"lat":-8.3682,"lng":115.3441},{"city":"Sepit","state":"West Nusa Tenggara","population":0,"lat":-8.7418,"lng":116.4607},{"city":"Sepang","state":"Bali","population":0,"lat":-8.3089,"lng":114.9171},{"city":"Sangatta","state":"East Kalimantan","population":0,"lat":0.5049,"lng":117.5279},{"city":"Semongkat","state":"West Nusa Tenggara","population":0,"lat":-8.5721,"lng":117.3193},{"city":"Sembalunlawang","state":"West Nusa Tenggara","population":0,"lat":-8.3635,"lng":116.5339},{"city":"Sembalunbumbung","state":"West Nusa Tenggara","population":0,"lat":-8.3852,"lng":116.5447},{"city":"Semamung","state":"West Nusa Tenggara","population":0,"lat":-8.6515,"lng":117.4288},{"city":"Selebung","state":"West Nusa Tenggara","population":0,"lat":-8.7651,"lng":116.482},{"city":"Selat","state":"Bali","population":0,"lat":-8.4355,"lng":115.4753},{"city":"Sekongkang Bawah","state":"West Nusa Tenggara","population":0,"lat":-8.9659,"lng":116.74917},{"city":"Sebulu","state":"East Kalimantan","population":0,"lat":-0.27393,"lng":116.99835},{"city":"Sebuku","state":"North Kalimantan","population":0,"lat":4.00232,"lng":117.03456},{"city":"Satui","state":"South Kalimantan","population":0,"lat":-3.7818,"lng":115.4575},{"city":"Benua Baru","state":"East Kalimantan","population":0,"lat":0.977,"lng":117.9803},{"city":"Kore","state":"West Nusa Tenggara","population":0,"lat":-8.37599,"lng":118.29876},{"city":"Sangasangadalam","state":"East Kalimantan","population":0,"lat":-0.6624,"lng":117.2365},{"city":"Sampungu","state":"West Nusa Tenggara","population":0,"lat":-8.2655,"lng":118.5442},{"city":"Sampalan","state":"Bali","population":0,"lat":-8.6736,"lng":115.5586},{"city":"Samboja","state":"East Kalimantan","population":0,"lat":-1.03333,"lng":117.03333},{"city":"Tanjungsamalantakan","state":"South Kalimantan","population":0,"lat":-2.5818,"lng":116.4099},{"city":"Salinbatu","state":"North Kalimantan","population":0,"lat":2.94051,"lng":117.34343},{"city":"Salakan","state":"Central Sulawesi","population":0,"lat":-1.3085,"lng":123.2909},{"city":"Kaleroang","state":"Central Sulawesi","population":0,"lat":-3.05237,"lng":122.38724},{"city":"Sakra","state":"West Nusa Tenggara","population":0,"lat":-8.6831,"lng":116.462},{"city":"Sai","state":"West Nusa Tenggara","population":0,"lat":-8.3155,"lng":118.6591},{"city":"Sebewe","state":"West Nusa Tenggara","population":0,"lat":-8.4788,"lng":117.4788},{"city":"Rumbia","state":"Southeast Sulawesi","population":0,"lat":-4.62767,"lng":122.00472},{"city":"Riung","state":"East Nusa Tenggara","population":0,"lat":-8.4213,"lng":121.0256},{"city":"Riangbao","state":"East Nusa Tenggara","population":0,"lat":-8.3014,"lng":123.4519},{"city":"Reo","state":"East Nusa Tenggara","population":0,"lat":-8.3098,"lng":120.4893},{"city":"Rego","state":"East Nusa Tenggara","population":0,"lat":-8.4266,"lng":120.2565},{"city":"Ratahan","state":"North Sulawesi","population":0,"lat":1.0549,"lng":124.8012},{"city":"Rarang Selatan","state":"West Nusa Tenggara","population":0,"lat":-8.6387,"lng":116.3937},{"city":"Rappang","state":"South Sulawesi","population":0,"lat":-3.8445,"lng":119.8173},{"city":"Rantau","state":"South Kalimantan","population":0,"lat":-2.9334,"lng":115.1621},{"city":"Rainis","state":"North Sulawesi","population":0,"lat":4.23254,"lng":126.86654},{"city":"Raba","state":"West Nusa Tenggara","population":0,"lat":-8.4613,"lng":118.747},{"city":"Pretana","state":"East Nusa Tenggara","population":0,"lat":-9.6161,"lng":119.6441},{"city":"Pota","state":"East Nusa Tenggara","population":0,"lat":-8.3414,"lng":120.7607},{"city":"Popnam","state":"East Nusa Tenggara","population":0,"lat":-9.6248,"lng":124.5315},{"city":"Poigar","state":"North Sulawesi","population":0,"lat":1.02082,"lng":124.30894},{"city":"Plampang","state":"West Nusa Tenggara","population":0,"lat":-8.7974,"lng":117.7791},{"city":"Banjar Pelaga","state":"Bali","population":0,"lat":-8.2928,"lng":115.2252},{"city":"Pinrang","state":"South Sulawesi","population":0,"lat":-3.78611,"lng":119.65222},{"city":"Pineleng","state":"North Sulawesi","population":0,"lat":1.42422,"lng":124.83865},{"city":"Pimpi","state":"North Sulawesi","population":0,"lat":0.8825,"lng":123.5502},{"city":"Peuara","state":"East Nusa Tenggara","population":0,"lat":-8.2444,"lng":123.7505},{"city":"Pangaron","state":"South Kalimantan","population":0,"lat":-3.3101,"lng":115.1961},{"city":"Penebel","state":"Bali","population":0,"lat":-8.4205,"lng":115.1454},{"city":"Pendolo","state":"Central Sulawesi","population":0,"lat":-2.0746,"lng":120.6851},{"city":"Pelaihari","state":"South Kalimantan","population":0,"lat":-3.7987,"lng":114.7788},{"city":"Pecatu","state":"Bali","population":0,"lat":-8.8323,"lng":115.1247},{"city":"Payunga","state":"Gorontalo","population":0,"lat":0.5632,"lng":122.9519},{"city":"Patawang","state":"East Nusa Tenggara","population":0,"lat":-9.8107,"lng":120.6225},{"city":"Passi","state":"North Sulawesi","population":0,"lat":0.7655,"lng":124.2982},{"city":"Pasar Wajo","state":"Southeast Sulawesi","population":0,"lat":-5.4957,"lng":122.8447},{"city":"Paringin","state":"South Kalimantan","population":0,"lat":-2.3357,"lng":115.4749},{"city":"Parigi","state":"Central Sulawesi","population":0,"lat":-0.8156,"lng":120.1768},{"city":"Papilawe","state":"East Nusa Tenggara","population":0,"lat":-8.3153,"lng":123.1609},{"city":"Pantaihambawang","state":"South Kalimantan","population":0,"lat":-2.64659,"lng":115.33087},{"city":"Pantai","state":"South Kalimantan","population":0,"lat":-3.1313,"lng":116.1353},{"city":"Pangkajene","state":"South Sulawesi","population":0,"lat":-4.8372,"lng":119.5472},{"city":"Pagimana","state":"Central Sulawesi","population":0,"lat":-0.79599,"lng":122.65132},{"city":"Penajam","state":"East Kalimantan","population":0,"lat":-1.24919,"lng":116.76968},{"city":"Pompanua","state":"South Sulawesi","population":0,"lat":-4.2254,"lng":120.1484},{"city":"Pamakayo","state":"East Nusa Tenggara","population":0,"lat":-8.4368,"lng":122.983},{"city":"Palla","state":"East Nusa Tenggara","population":0,"lat":-9.5266,"lng":119.3552},{"city":"Palattae","state":"South Sulawesi","population":0,"lat":-4.9711,"lng":120.1127},{"city":"Palakka","state":"South Sulawesi","population":0,"lat":-4.5313,"lng":120.2892},{"city":"Kuaro","state":"East Kalimantan","population":0,"lat":-1.8198,"lng":116.0797},{"city":"Paitoko","state":"East Nusa Tenggara","population":0,"lat":-8.3633,"lng":124.8944},{"city":"Pai","state":"West Nusa Tenggara","population":0,"lat":-8.4316,"lng":119.0255},{"city":"Pagatan","state":"South Kalimantan","population":0,"lat":-3.6075,"lng":115.9381},{"city":"Pagat","state":"South Kalimantan","population":0,"lat":-2.6243,"lng":115.4338},{"city":"Paga","state":"East Nusa Tenggara","population":0,"lat":-8.7766,"lng":122.0455},{"city":"Padangbatung","state":"South Kalimantan","population":0,"lat":-2.838,"lng":115.2912},{"city":"Pacar","state":"East Nusa Tenggara","population":0,"lat":-8.4824,"lng":120.2011},{"city":"Ondong Siau","state":"North Sulawesi","population":0,"lat":2.7473,"lng":125.3611},{"city":"Oetuke","state":"East Nusa Tenggara","population":0,"lat":-9.9909,"lng":124.5543},{"city":"Nunhala","state":"East Nusa Tenggara","population":0,"lat":-9.6218,"lng":124.4923},{"city":"Numba","state":"East Nusa Tenggara","population":0,"lat":-8.8067,"lng":121.5265},{"city":"Nuhawala","state":"East Nusa Tenggara","population":0,"lat":-8.3747,"lng":124.2389},{"city":"Ntonggu","state":"West Nusa Tenggara","population":0,"lat":-8.5302,"lng":118.761},{"city":"Ntoke","state":"West Nusa Tenggara","population":0,"lat":-8.4083,"lng":118.9066},{"city":"Noenoni","state":"East Nusa Tenggara","population":0,"lat":-9.7297,"lng":124.3737},{"city":"Noemuti","state":"East Nusa Tenggara","population":0,"lat":-9.568,"lng":124.495},{"city":"Noeltoko","state":"East Nusa Tenggara","population":0,"lat":-9.5373,"lng":124.3596},{"city":"Nobo","state":"East Nusa Tenggara","population":0,"lat":-8.4851,"lng":122.7896},{"city":"Nita","state":"East Nusa Tenggara","population":0,"lat":-8.6782,"lng":122.1706},{"city":"Nikiniki","state":"East Nusa Tenggara","population":0,"lat":-9.81361,"lng":124.47649},{"city":"Nggalak","state":"East Nusa Tenggara","population":0,"lat":-8.3539,"lng":120.3173},{"city":"Nele","state":"East Nusa Tenggara","population":0,"lat":-8.6767,"lng":122.2144},{"city":"Nefoneut","state":"East Nusa Tenggara","population":0,"lat":-9.7114,"lng":123.7971},{"city":"Nebe","state":"East Nusa Tenggara","population":0,"lat":-8.4741,"lng":122.5615},{"city":"Detukeli","state":"East Nusa Tenggara","population":0,"lat":-8.6318,"lng":121.8195},{"city":"Ndano","state":"West Nusa Tenggara","population":0,"lat":-8.496,"lng":118.5407},{"city":"Narmada","state":"West Nusa Tenggara","population":0,"lat":-8.5912,"lng":116.202},{"city":"Napu","state":"East Nusa Tenggara","population":0,"lat":-9.39627,"lng":119.92637},{"city":"Nangaroro","state":"East Nusa Tenggara","population":0,"lat":-8.7872,"lng":121.3923},{"city":"Nangaraba","state":"West Nusa Tenggara","population":0,"lat":-8.3154,"lng":118.7681},{"city":"Kolo","state":"West Nusa Tenggara","population":0,"lat":-8.3722,"lng":118.7193},{"city":"Nangalimang","state":"East Nusa Tenggara","population":0,"lat":-8.6469,"lng":122.2058},{"city":"Nangalili","state":"East Nusa Tenggara","population":0,"lat":-8.7765,"lng":120.131},{"city":"Nangahale","state":"East Nusa Tenggara","population":0,"lat":-8.559,"lng":122.5065},{"city":"Muraloka","state":"West Nusa Tenggara","population":0,"lat":-8.77213,"lng":116.87932},{"city":"Muer","state":"West Nusa Tenggara","population":0,"lat":-8.749,"lng":117.7305},{"city":"Mungkin","state":"West Nusa Tenggara","population":0,"lat":-8.75106,"lng":117.12705},{"city":"Mulankera","state":"East Nusa Tenggara","population":0,"lat":-8.5162,"lng":123.4854},{"city":"Mukusaki","state":"East Nusa Tenggara","population":0,"lat":-8.56533,"lng":121.61671},{"city":"Mujur","state":"West Nusa Tenggara","population":0,"lat":-8.7617,"lng":116.3548},{"city":"Muarauya","state":"South Kalimantan","population":0,"lat":-1.8875,"lng":115.595},{"city":"Muarakomam","state":"East Kalimantan","population":0,"lat":-1.6785,"lng":115.8129},{"city":"Muarabadak","state":"East Kalimantan","population":0,"lat":-0.35085,"lng":117.43523},{"city":"Munse","state":"Southeast Sulawesi","population":0,"lat":-4.0967,"lng":123.2519},{"city":"Molobulahe","state":"Gorontalo","population":0,"lat":0.6326,"lng":122.5748},{"city":"Molibagu","state":"North Sulawesi","population":0,"lat":0.38981,"lng":123.98263},{"city":"Mensalong","state":"North Kalimantan","population":0,"lat":3.75883,"lng":116.74532},{"city":"Borong","state":"East Nusa Tenggara","population":0,"lat":-8.8125,"lng":120.60972},{"city":"Mayong","state":"Bali","population":0,"lat":-8.2443,"lng":114.9625},{"city":"Mauponggo","state":"East Nusa Tenggara","population":0,"lat":-8.8892,"lng":121.2112},{"city":"Maunura","state":"East Nusa Tenggara","population":0,"lat":-8.8819,"lng":121.364},{"city":"Maundai","state":"East Nusa Tenggara","population":0,"lat":-8.8993,"lng":121.2901},{"city":"Masbagik","state":"West Nusa Tenggara","population":0,"lat":-8.622,"lng":116.4773},{"city":"Maronge","state":"West Nusa Tenggara","population":0,"lat":-8.6715,"lng":117.707},{"city":"Buakayu","state":"South Sulawesi","population":0,"lat":-3.1995,"lng":119.7232},{"city":"Marisa","state":"Gorontalo","population":0,"lat":0.4655,"lng":121.9386},{"city":"Marenteh","state":"West Nusa Tenggara","population":0,"lat":-8.5472,"lng":117.0181},{"city":"Maria","state":"West Nusa Tenggara","population":0,"lat":-8.52388,"lng":118.84294},{"city":"Marabahan","state":"South Kalimantan","population":0,"lat":-3.0136,"lng":114.7687},{"city":"Manuakalada","state":"East Nusa Tenggara","population":0,"lat":-9.4013,"lng":119.545},{"city":"Mangkutana","state":"South Sulawesi","population":0,"lat":-2.4894,"lng":120.812},{"city":"Mangaran","state":"North Sulawesi","population":0,"lat":3.8148,"lng":126.74719},{"city":"Manganitu","state":"North Sulawesi","population":0,"lat":3.57622,"lng":125.51849},{"city":"Manalu","state":"North Sulawesi","population":0,"lat":3.51225,"lng":125.62302},{"city":"Mambi","state":"West Sulawesi","population":0,"lat":-2.9505,"lng":119.1747},{"city":"Banjar Mambalkajanan","state":"Bali","population":0,"lat":-8.5506,"lng":115.2234},{"city":"Mamasa","state":"West Sulawesi","population":0,"lat":-2.942,"lng":119.3776},{"city":"Malili","state":"South Sulawesi","population":0,"lat":-2.6351,"lng":121.0948},{"city":"Makale","state":"South Sulawesi","population":0,"lat":-3.1019,"lng":119.8539},{"city":"Maikawada","state":"East Nusa Tenggara","population":0,"lat":-8.2816,"lng":124.7128},{"city":"Magepanda","state":"East Nusa Tenggara","population":0,"lat":-8.5487,"lng":122.0486},{"city":"Lunyuk Ode","state":"West Nusa Tenggara","population":0,"lat":-8.9709,"lng":117.216},{"city":"Lopokloka","state":"West Nusa Tenggara","population":0,"lat":-8.608,"lng":117.5475},{"city":"Long Pujungan","state":"North Kalimantan","population":0,"lat":2.58769,"lng":115.79478},{"city":"Longnawang","state":"North Kalimantan","population":0,"lat":1.78931,"lng":114.9013},{"city":"Longkali","state":"East Kalimantan","population":0,"lat":-1.5218,"lng":116.3205},{"city":"Longikis","state":"East Kalimantan","population":0,"lat":-1.5834,"lng":116.2061},{"city":"Lolak","state":"North Sulawesi","population":0,"lat":0.8755,"lng":124.0098},{"city":"Loakulu","state":"East Kalimantan","population":0,"lat":-0.51489,"lng":117.01567},{"city":"Lirung","state":"North Sulawesi","population":0,"lat":3.93735,"lng":126.6957},{"city":"Limboto","state":"Gorontalo","population":0,"lat":0.627,"lng":122.9778},{"city":"Likupang","state":"North Sulawesi","population":0,"lat":1.6722,"lng":125.06104},{"city":"Lewobelen","state":"East Nusa Tenggara","population":0,"lat":-8.2731,"lng":123.3937},{"city":"Lewotobi","state":"East Nusa Tenggara","population":0,"lat":-8.576,"lng":122.836},{"city":"Lewotolok","state":"East Nusa Tenggara","population":0,"lat":-8.2647,"lng":123.4691},{"city":"Lewoeleng","state":"East Nusa Tenggara","population":0,"lat":-8.3359,"lng":123.6264},{"city":"Lewolaga","state":"East Nusa Tenggara","population":0,"lat":-8.4196,"lng":122.8094},{"city":"Lewohala","state":"East Nusa Tenggara","population":0,"lat":-8.2834,"lng":122.954},{"city":"Lenangguar","state":"West Nusa Tenggara","population":0,"lat":-8.7356,"lng":117.3653},{"city":"Lemito","state":"Gorontalo","population":0,"lat":0.5424,"lng":121.5713},{"city":"Lembongan Kawan","state":"Bali","population":0,"lat":-8.6902,"lng":115.4397},{"city":"Lelogama","state":"East Nusa Tenggara","population":0,"lat":-9.7114,"lng":123.954},{"city":"Lela","state":"East Nusa Tenggara","population":0,"lat":-8.7289,"lng":122.1726},{"city":"Lekong","state":"West Nusa Tenggara","population":0,"lat":-8.5346,"lng":116.9657},{"city":"Lekebai","state":"East Nusa Tenggara","population":0,"lat":-8.712,"lng":122.0762},{"city":"Lawonda","state":"East Nusa Tenggara","population":0,"lat":-9.5252,"lng":119.5923},{"city":"Lohayong","state":"East Nusa Tenggara","population":0,"lat":-8.4345,"lng":123.0688},{"city":"Latuna","state":"East Nusa Tenggara","population":0,"lat":-8.39234,"lng":124.05583},{"city":"Lasehao","state":"Southeast Sulawesi","population":0,"lat":-5.0068,"lng":122.4943},{"city":"Larompong","state":"South Sulawesi","population":0,"lat":-3.515,"lng":120.3704},{"city":"Larantuka","state":"East Nusa Tenggara","population":0,"lat":-8.3468,"lng":122.9771},{"city":"Lampihung","state":"South Kalimantan","population":0,"lat":-2.3809,"lng":115.5277},{"city":"Langnga","state":"South Sulawesi","population":0,"lat":-3.8459,"lng":119.5222},{"city":"Langara","state":"Southeast Sulawesi","population":0,"lat":-4.0248,"lng":122.9906},{"city":"Lamalera","state":"East Nusa Tenggara","population":0,"lat":-8.5748,"lng":123.4239},{"city":"Lamakera Satu","state":"East Nusa Tenggara","population":0,"lat":-8.4358,"lng":123.1646},{"city":"Labuhansumbawa","state":"West Nusa Tenggara","population":0,"lat":-8.4726,"lng":117.4014},{"city":"Labuhanmapin","state":"West Nusa Tenggara","population":0,"lat":-8.5193,"lng":116.9398},{"city":"Labuhanlalar","state":"West Nusa Tenggara","population":0,"lat":-8.8146,"lng":116.8157},{"city":"Labuhankananga","state":"West Nusa Tenggara","population":0,"lat":-8.1391,"lng":117.7714},{"city":"Labuhanjambu","state":"West Nusa Tenggara","population":0,"lat":-8.6962,"lng":118.0205},{"city":"Labuhanaji","state":"West Nusa Tenggara","population":0,"lat":-8.21889,"lng":117.48611},{"city":"Labala","state":"East Nusa Tenggara","population":0,"lat":-8.5147,"lng":123.4912},{"city":"Komi","state":"East Nusa Tenggara","population":0,"lat":-9.4299,"lng":119.3029},{"city":"Kute","state":"West Nusa Tenggara","population":0,"lat":-8.892,"lng":116.2776},{"city":"Banjar Kampungislamkusamba","state":"Bali","population":0,"lat":-8.56288,"lng":115.45125},{"city":"Kuma","state":"North Sulawesi","population":0,"lat":3.57261,"lng":125.57428},{"city":"Kubu","state":"Bali","population":0,"lat":-8.2524,"lng":115.5666},{"city":"Kwandang","state":"Gorontalo","population":0,"lat":0.8348,"lng":122.915},{"city":"Kotabunan","state":"North Sulawesi","population":0,"lat":0.81217,"lng":124.65546},{"city":"Kotabaru Hilir","state":"South Kalimantan","population":0,"lat":-3.24267,"lng":116.22514},{"city":"Kopang Satu","state":"West Nusa Tenggara","population":0,"lat":-8.6335,"lng":116.3517},{"city":"Konga","state":"East Nusa Tenggara","population":0,"lat":-8.451,"lng":122.7756},{"city":"Kolonodale","state":"Central Sulawesi","population":0,"lat":-1.9825,"lng":121.3364},{"city":"Kokar","state":"East Nusa Tenggara","population":0,"lat":-8.1629,"lng":124.4473},{"city":"Kelua","state":"South Kalimantan","population":0,"lat":-2.2048,"lng":115.3993},{"city":"Kikilai","state":"East Nusa Tenggara","population":0,"lat":-8.2646,"lng":124.5228},{"city":"Kerang","state":"East Kalimantan","population":0,"lat":-2.2333,"lng":116.0718},{"city":"Kendahe","state":"North Sulawesi","population":0,"lat":3.68745,"lng":125.40176},{"city":"Kema","state":"North Sulawesi","population":0,"lat":1.36574,"lng":125.07484},{"city":"Kediri","state":"West Nusa Tenggara","population":0,"lat":-8.6343,"lng":116.1515},{"city":"Marica","state":"East Nusa Tenggara","population":0,"lat":-8.34884,"lng":123.96628},{"city":"Kawangu","state":"East Nusa Tenggara","population":0,"lat":-9.6728,"lng":120.3409},{"city":"Kawangkoan","state":"North Sulawesi","population":0,"lat":1.20525,"lng":124.78218},{"city":"Kasiguncu","state":"Central Sulawesi","population":0,"lat":-1.42114,"lng":120.6554},{"city":"Kasarangan","state":"South Kalimantan","population":0,"lat":-2.62636,"lng":115.29739},{"city":"Karumbu","state":"West Nusa Tenggara","population":0,"lat":-8.6949,"lng":118.8304},{"city":"Karangintan","state":"South Kalimantan","population":0,"lat":-3.4116,"lng":115.0134},{"city":"Kapan","state":"East Nusa Tenggara","population":0,"lat":-9.7348,"lng":124.2739},{"city":"Kandangan","state":"South Kalimantan","population":0,"lat":-2.7837,"lng":115.2772},{"city":"Malaju","state":"West Nusa Tenggara","population":0,"lat":-8.3104,"lng":118.394},{"city":"Hampang","state":"South Kalimantan","population":0,"lat":-2.918,"lng":115.8373},{"city":"Kambu","state":"West Nusa Tenggara","population":0,"lat":-8.3861,"lng":118.3212},{"city":"Kalikasa","state":"East Nusa Tenggara","population":0,"lat":-8.4338,"lng":123.4678},{"city":"Kiraman","state":"East Nusa Tenggara","population":0,"lat":-8.40044,"lng":124.75059},{"city":"Kahale","state":"East Nusa Tenggara","population":0,"lat":-9.6962,"lng":119.1047},{"city":"Kahala","state":"East Kalimantan","population":0,"lat":-0.01545,"lng":116.36329},{"city":"Kabir","state":"East Nusa Tenggara","population":0,"lat":-8.2545,"lng":124.2145},{"city":"Jorong","state":"South Kalimantan","population":0,"lat":-3.986,"lng":114.9518},{"city":"Jeneponto","state":"South Sulawesi","population":0,"lat":-5.6765,"lng":119.7484},{"city":"Jalang","state":"South Sulawesi","population":0,"lat":-4.0383,"lng":120.3216},{"city":"Isimu","state":"Gorontalo","population":0,"lat":0.6446,"lng":122.8614},{"city":"Alung","state":"South Kalimantan","population":0,"lat":-2.5161,"lng":115.4275},{"city":"Ili","state":"East Nusa Tenggara","population":0,"lat":-8.6748,"lng":122.266},{"city":"Hinga","state":"East Nusa Tenggara","population":0,"lat":-8.3085,"lng":123.2288},{"city":"Haruyan","state":"South Kalimantan","population":0,"lat":-2.69169,"lng":115.34992},{"city":"Haruai","state":"South Kalimantan","population":0,"lat":-2.0154,"lng":115.5072},{"city":"Hadakewa","state":"East Nusa Tenggara","population":0,"lat":-8.3698,"lng":123.5473},{"city":"Gunungbatubesar","state":"South Kalimantan","population":0,"lat":-2.6211,"lng":116.2931},{"city":"Godo","state":"West Nusa Tenggara","population":0,"lat":-8.56114,"lng":118.66647},{"city":"Gisiliba","state":"East Nusa Tenggara","population":0,"lat":-8.83126,"lng":121.05243},{"city":"Gilimanuk","state":"Bali","population":0,"lat":-8.1716,"lng":114.4344},{"city":"Gianyar","state":"Bali","population":0,"lat":-8.5435,"lng":115.3272},{"city":"Gerung","state":"West Nusa Tenggara","population":0,"lat":-8.683,"lng":116.1253},{"city":"Galunggalung","state":"West Sulawesi","population":0,"lat":-3.489,"lng":118.896},{"city":"Kalumpang","state":"West Sulawesi","population":0,"lat":-2.4781,"lng":119.4859},{"city":"Essang","state":"North Sulawesi","population":0,"lat":4.45752,"lng":126.7319},{"city":"Enrekang","state":"South Sulawesi","population":0,"lat":-3.56508,"lng":119.77025},{"city":"Enemawira","state":"North Sulawesi","population":0,"lat":3.6565,"lng":125.5612},{"city":"Elopada","state":"East Nusa Tenggara","population":0,"lat":-9.5686,"lng":119.3172},{"city":"Dumoga","state":"North Sulawesi","population":0,"lat":0.6096,"lng":124.0826},{"city":"Dulolong","state":"East Nusa Tenggara","population":0,"lat":-8.2547,"lng":124.4476},{"city":"Soro","state":"West Nusa Tenggara","population":0,"lat":-8.5573,"lng":118.2381},{"city":"Kesi","state":"West Nusa Tenggara","population":0,"lat":-8.5338,"lng":118.1922},{"city":"Kempo","state":"West Nusa Tenggara","population":0,"lat":-8.54286,"lng":118.24821},{"city":"Taloko","state":"West Nusa Tenggara","population":0,"lat":-8.4012,"lng":118.3165},{"city":"Donggala","state":"Central Sulawesi","population":0,"lat":-0.6723,"lng":119.7402},{"city":"Camming","state":"South Sulawesi","population":0,"lat":-4.8118,"lng":120.0771},{"city":"Cakke","state":"South Sulawesi","population":0,"lat":-3.4101,"lng":119.7985},{"city":"Buriwutung","state":"East Nusa Tenggara","population":0,"lat":-8.1832,"lng":123.8088},{"city":"Buraga","state":"East Nusa Tenggara","population":0,"lat":-8.4205,"lng":124.4871},{"city":"Buol","state":"Central Sulawesi","population":0,"lat":1.15631,"lng":121.43805},{"city":"Bulukumba","state":"South Sulawesi","population":0,"lat":-5.55,"lng":120.18333},{"city":"Karangbugis","state":"West Nusa Tenggara","population":0,"lat":-8.4966,"lng":117.4219},{"city":"Banjar Bugbug","state":"Bali","population":0,"lat":-8.4889,"lng":115.5935},{"city":"Bualu","state":"Bali","population":0,"lat":-8.796,"lng":115.2172},{"city":"Boroko","state":"North Sulawesi","population":0,"lat":0.9083,"lng":123.2679},{"city":"Bunobogu","state":"Central Sulawesi","population":0,"lat":1.0407,"lng":121.6126},{"city":"Bonebone","state":"South Sulawesi","population":0,"lat":-2.6005,"lng":120.5195},{"city":"Bondokodi","state":"East Nusa Tenggara","population":0,"lat":-9.5943,"lng":118.9934},{"city":"Boleng","state":"East Nusa Tenggara","population":0,"lat":-8.3831,"lng":123.2954},{"city":"Bolaang","state":"North Sulawesi","population":0,"lat":0.9411,"lng":124.1556},{"city":"Bolangitang","state":"North Sulawesi","population":0,"lat":0.9068,"lng":123.3067},{"city":"Bola","state":"East Nusa Tenggara","population":0,"lat":-8.7419,"lng":122.2958},{"city":"Bokong Timur","state":"East Nusa Tenggara","population":0,"lat":-9.9727,"lng":124.0611},{"city":"Bokat","state":"Central Sulawesi","population":0,"lat":1.08848,"lng":121.50238},{"city":"Boawae","state":"East Nusa Tenggara","population":0,"lat":-8.7639,"lng":121.1694},{"city":"Boafeo","state":"East Nusa Tenggara","population":0,"lat":-8.6903,"lng":121.626},{"city":"Belimbingdesa","state":"Bali","population":0,"lat":-8.407,"lng":115.0366},{"city":"Baranusa","state":"East Nusa Tenggara","population":0,"lat":-8.3622,"lng":124.0888},{"city":"Birayang","state":"South Kalimantan","population":0,"lat":-2.5328,"lng":115.4549},{"city":"Binuang","state":"South Kalimantan","population":0,"lat":-3.0707,"lng":115.1638},{"city":"Bilungala","state":"Gorontalo","population":0,"lat":0.3815,"lng":123.2135},{"city":"Beo","state":"North Sulawesi","population":0,"lat":4.22665,"lng":126.79194},{"city":"Benteng","state":"South Sulawesi","population":0,"lat":-6.1184,"lng":120.4605},{"city":"Belopa","state":"South Sulawesi","population":0,"lat":-3.3849,"lng":120.3676},{"city":"Belimbing","state":"South Kalimantan","population":0,"lat":-2.9823,"lng":115.3502},{"city":"Mentarang","state":"North Kalimantan","population":0,"lat":3.60626,"lng":116.16786},{"city":"Bebandem","state":"Bali","population":0,"lat":-8.43907,"lng":115.56092},{"city":"Bayan","state":"West Nusa Tenggara","population":0,"lat":-8.2689,"lng":116.4255},{"city":"Baturotok","state":"West Nusa Tenggara","population":0,"lat":-8.6651,"lng":117.146},{"city":"Baturiti","state":"Bali","population":0,"lat":-8.3248,"lng":115.1859},{"city":"Batur","state":"Bali","population":0,"lat":-8.2535,"lng":115.332},{"city":"Batumandi","state":"South Kalimantan","population":0,"lat":-2.4218,"lng":115.4409},{"city":"Batumadeg Kaja","state":"Bali","population":0,"lat":-8.7465,"lng":115.5069},{"city":"Batulicin","state":"South Kalimantan","population":0,"lat":-3.42022,"lng":116.00611},{"city":"Batudulang","state":"West Nusa Tenggara","population":0,"lat":-8.5873,"lng":117.2809},{"city":"Batibati","state":"South Kalimantan","population":0,"lat":-3.6184,"lng":114.7166},{"city":"Batauga","state":"Southeast Sulawesi","population":0,"lat":-5.5882,"lng":122.5964},{"city":"Barru","state":"South Sulawesi","population":0,"lat":-4.412,"lng":119.618},{"city":"Bareng","state":"East Nusa Tenggara","population":0,"lat":-8.1731,"lng":123.7744},{"city":"Bari","state":"East Nusa Tenggara","population":0,"lat":-8.3518,"lng":120.1822},{"city":"Bantaeng","state":"South Sulawesi","population":0,"lat":-5.5475,"lng":119.9509},{"city":"Banjarbaru","state":"South Kalimantan","population":0,"lat":-3.4406,"lng":114.8365},{"city":"Bangli","state":"Bali","population":0,"lat":-8.4542,"lng":115.3545},{"city":"Bangkir","state":"Central Sulawesi","population":0,"lat":0.78049,"lng":120.22799},{"city":"Banggai","state":"Central Sulawesi","population":0,"lat":-1.5887,"lng":123.4992},{"city":"Bama","state":"East Nusa Tenggara","population":0,"lat":-8.3761,"lng":122.8808},{"city":"Baluk","state":"East Nusa Tenggara","population":0,"lat":-8.7426,"lng":122.3044},{"city":"Balauring","state":"East Nusa Tenggara","population":0,"lat":-8.2336,"lng":123.706},{"city":"Bajo","state":"South Sulawesi","population":0,"lat":-3.3788,"lng":120.3102},{"city":"Bajawa","state":"East Nusa Tenggara","population":0,"lat":-8.7848,"lng":120.9744},{"city":"Labuhanbadas","state":"West Nusa Tenggara","population":0,"lat":-8.4637,"lng":117.3681},{"city":"Babirik","state":"South Kalimantan","population":0,"lat":-2.5409,"lng":115.1588},{"city":"Babana","state":"West Sulawesi","population":0,"lat":-2.0779,"lng":119.1986},{"city":"Atap","state":"North Kalimantan","population":0,"lat":3.85714,"lng":117.04654},{"city":"Asera","state":"Southeast Sulawesi","population":0,"lat":-3.4746,"lng":122.0669},{"city":"Banjar Angseri","state":"Bali","population":0,"lat":-8.3579,"lng":115.1637},{"city":"Anggana","state":"East Kalimantan","population":0,"lat":-0.5705,"lng":117.2844},{"city":"Andoolo","state":"Southeast Sulawesi","population":0,"lat":-4.3273,"lng":122.2522},{"city":"Ampana","state":"Central Sulawesi","population":0,"lat":-0.86901,"lng":121.58367},{"city":"Banjar Ambengan","state":"Bali","population":0,"lat":-8.1689,"lng":115.1193},{"city":"Aluhaluh","state":"South Kalimantan","population":0,"lat":-3.4991,"lng":114.5443},{"city":"Alabio","state":"South Kalimantan","population":0,"lat":-2.4542,"lng":115.2445},{"city":"Banjar Yehsatang","state":"Bali","population":0,"lat":-8.3932,"lng":114.8028},{"city":"Airmadidi","state":"North Sulawesi","population":0,"lat":1.42804,"lng":124.97774},{"city":"Aimere","state":"East Nusa Tenggara","population":0,"lat":-8.8431,"lng":120.8579},{"city":"Lewolere","state":"East Nusa Tenggara","population":0,"lat":-8.348,"lng":122.9598},{"city":"Atawutung","state":"East Nusa Tenggara","population":0,"lat":-8.24326,"lng":123.49478},{"city":"Leramatang","state":"East Nusa Tenggara","population":0,"lat":-8.3647,"lng":123.5718},{"city":"Riangderi","state":"East Nusa Tenggara","population":0,"lat":-8.3628,"lng":123.3026},{"city":"Tabunganen","state":"South Kalimantan","population":0,"lat":-3.4103,"lng":114.4829},{"city":"Belawang","state":"South Kalimantan","population":0,"lat":-3.0715,"lng":114.6604},{"city":"Totok","state":"East Nusa Tenggara","population":0,"lat":-9.4828,"lng":119.306},{"city":"Belanting","state":"West Nusa Tenggara","population":0,"lat":-8.3053,"lng":116.6275},{"city":"Penyaring Bawah","state":"West Nusa Tenggara","population":0,"lat":-8.4701,"lng":117.4663},{"city":"Obelobel","state":"West Nusa Tenggara","population":0,"lat":-8.2654,"lng":116.5491},{"city":"Kowo","state":"West Nusa Tenggara","population":0,"lat":-8.5352,"lng":119.0061},{"city":"Betun","state":"East Nusa Tenggara","population":0,"lat":-9.56722,"lng":124.9075},{"city":"Nilulat","state":"East Nusa Tenggara","population":0,"lat":-9.5005,"lng":124.3294},{"city":"Nunpo","state":"East Nusa Tenggara","population":0,"lat":-9.4853,"lng":124.3561},{"city":"Basan","state":"East Nusa Tenggara","population":0,"lat":-9.4809,"lng":124.3737},{"city":"Sasi","state":"East Nusa Tenggara","population":0,"lat":-9.49917,"lng":124.49278},{"city":"Kali","state":"Central Sulawesi","population":0,"lat":1.16232,"lng":121.42923},{"city":"Lamadong","state":"Central Sulawesi","population":0,"lat":1.1175,"lng":121.4142},{"city":"Kauditan","state":"North Sulawesi","population":0,"lat":1.39132,"lng":125.03436},{"city":"Ogotua","state":"Central Sulawesi","population":0,"lat":0.95928,"lng":120.26367},{"city":"Sidomulyo","state":"Gorontalo","population":0,"lat":0.6496,"lng":122.6152},{"city":"Tompasobaru","state":"North Sulawesi","population":0,"lat":0.9202,"lng":124.4689},{"city":"Tobadak","state":"West Sulawesi","population":0,"lat":-2.08944,"lng":119.34722},{"city":"Rantepang","state":"South Sulawesi","population":0,"lat":-2.9252,"lng":119.9413},{"city":"Rindingallo","state":"South Sulawesi","population":0,"lat":-2.8979,"lng":119.8138},{"city":"Sukamaju","state":"South Sulawesi","population":0,"lat":-2.6098,"lng":120.4664},{"city":"Lamasi","state":"South Sulawesi","population":0,"lat":-2.8166,"lng":120.1763},{"city":"Walenrang","state":"South Sulawesi","population":0,"lat":-2.8417,"lng":120.1222},{"city":"Malunda","state":"West Sulawesi","population":0,"lat":-3.013,"lng":118.8559},{"city":"Lampa","state":"South Sulawesi","population":0,"lat":-3.6634,"lng":119.5334},{"city":"Majennang","state":"South Sulawesi","population":0,"lat":-3.9728,"lng":119.6091},{"city":"Uluale","state":"South Sulawesi","population":0,"lat":-3.9072,"lng":119.7441},{"city":"Amparita","state":"South Sulawesi","population":0,"lat":-3.9937,"lng":119.8122},{"city":"Sidenreng","state":"South Sulawesi","population":0,"lat":-3.92753,"lng":119.7993},{"city":"Baranti","state":"South Sulawesi","population":0,"lat":-3.8398,"lng":119.7838},{"city":"Teppo","state":"South Sulawesi","population":0,"lat":-3.7065,"lng":119.67},{"city":"Baraka","state":"South Sulawesi","population":0,"lat":-3.4079,"lng":119.8559},{"city":"Getengan","state":"South Sulawesi","population":0,"lat":-3.1813,"lng":119.8839},{"city":"Beringinjaya","state":"South Sulawesi","population":0,"lat":-3.0072,"lng":120.2057},{"city":"Beuma","state":"South Sulawesi","population":0,"lat":-3.2115,"lng":120.0527},{"city":"Padangsappa","state":"South Sulawesi","population":0,"lat":-3.2347,"lng":120.3005},{"city":"Lempokasi","state":"South Sulawesi","population":0,"lat":-3.4557,"lng":120.3661},{"city":"Unaaha","state":"Southeast Sulawesi","population":0,"lat":-3.8539,"lng":122.042},{"city":"Tancung","state":"South Sulawesi","population":0,"lat":-4.0525,"lng":120.0288},{"city":"Maroanging","state":"South Sulawesi","population":0,"lat":-4.1961,"lng":120.0984},{"city":"Kotabaru","state":"South Sulawesi","population":0,"lat":-4.2137,"lng":120.0096},{"city":"Matango","state":"South Sulawesi","population":0,"lat":-4.6619,"lng":120.014},{"city":"Apala","state":"South Sulawesi","population":0,"lat":-4.6125,"lng":120.3136},{"city":"Kadai","state":"South Sulawesi","population":0,"lat":-4.8083,"lng":120.3423},{"city":"Bulubulu","state":"South Sulawesi","population":0,"lat":-4.9127,"lng":120.2817},{"city":"Bilalang","state":"North Sulawesi","population":0,"lat":0.77292,"lng":124.30103},{"city":"Modayag","state":"North Sulawesi","population":0,"lat":0.7105,"lng":124.3838},{"city":"Batuputih","state":"South Sulawesi","population":0,"lat":-2.9582,"lng":120.181},{"city":"Wahang Dua","state":"East Nusa Tenggara","population":0,"lat":-10.095,"lng":120.028},{"city":"Olafulihaa","state":"East Nusa Tenggara","population":0,"lat":-10.631,"lng":123.2347},{"city":"Tuatuka","state":"East Nusa Tenggara","population":0,"lat":-10.1551,"lng":123.836},{"city":"Tuamese","state":"East Nusa Tenggara","population":0,"lat":-10.2455,"lng":123.8749},{"city":"Seda","state":"East Nusa Tenggara","population":0,"lat":-10.7694,"lng":123.2157},{"city":"Seba","state":"East Nusa Tenggara","population":0,"lat":-10.4933,"lng":121.8393},{"city":"Pukdale","state":"East Nusa Tenggara","population":0,"lat":-10.1201,"lng":123.8319},{"city":"Pitai","state":"East Nusa Tenggara","population":0,"lat":-10.0108,"lng":123.6442},{"city":"Pariti","state":"East Nusa Tenggara","population":0,"lat":-10.0148,"lng":123.7448},{"city":"Praingkareha","state":"East Nusa Tenggara","population":0,"lat":-10.0129,"lng":120.0453},{"city":"Sepedale","state":"East Nusa Tenggara","population":0,"lat":-10.2892,"lng":123.395},{"city":"Uitiuhtuan","state":"East Nusa Tenggara","population":0,"lat":-10.2834,"lng":123.3177},{"city":"Oesao","state":"East Nusa Tenggara","population":0,"lat":-10.1201,"lng":123.8115},{"city":"Oesapa","state":"East Nusa Tenggara","population":0,"lat":-10.1485,"lng":123.647},{"city":"Oelamasi","state":"East Nusa Tenggara","population":0,"lat":-10.0642,"lng":123.8787},{"city":"Oekabiti","state":"East Nusa Tenggara","population":0,"lat":-10.2152,"lng":123.8253},{"city":"Oebelo","state":"East Nusa Tenggara","population":0,"lat":-10.1098,"lng":123.7534},{"city":"Nemberala","state":"East Nusa Tenggara","population":0,"lat":-10.8861,"lng":122.8257},{"city":"Namosain","state":"East Nusa Tenggara","population":0,"lat":-10.1733,"lng":123.5585},{"city":"Mbueaian","state":"East Nusa Tenggara","population":0,"lat":-10.807,"lng":122.8295},{"city":"Maulafa","state":"East Nusa Tenggara","population":0,"lat":-10.1861,"lng":123.6227},{"city":"Manulai","state":"East Nusa Tenggara","population":0,"lat":-10.2327,"lng":123.566},{"city":"Lailunggi","state":"East Nusa Tenggara","population":0,"lat":-10.1716,"lng":120.1174},{"city":"Kolbano","state":"East Nusa Tenggara","population":0,"lat":-10.03473,"lng":124.52209},{"city":"Kelapalima","state":"East Nusa Tenggara","population":0,"lat":-10.1499,"lng":123.6194},{"city":"Keoen Satu","state":"East Nusa Tenggara","population":0,"lat":-10.6125,"lng":123.2944},{"city":"Kananggar","state":"East Nusa Tenggara","population":0,"lat":-10.0432,"lng":120.3622},{"city":"Kakaek","state":"East Nusa Tenggara","population":0,"lat":-10.7322,"lng":123.2581},{"city":"Oekiu","state":"East Nusa Tenggara","population":0,"lat":-10.0687,"lng":124.3022},{"city":"Feapopi","state":"East Nusa Tenggara","population":0,"lat":-10.6777,"lng":123.1116},{"city":"Eahun","state":"East Nusa Tenggara","population":0,"lat":-10.6146,"lng":123.3852},{"city":"Camplong","state":"East Nusa Tenggara","population":0,"lat":-10.0376,"lng":123.9234},{"city":"Baun","state":"East Nusa Tenggara","population":0,"lat":-10.29393,"lng":123.72513},{"city":"Baumata","state":"East Nusa Tenggara","population":0,"lat":-10.1983,"lng":123.6886},{"city":"Batuidu","state":"East Nusa Tenggara","population":0,"lat":-10.6235,"lng":123.4053},{"city":"Baing","state":"East Nusa Tenggara","population":0,"lat":-10.2209,"lng":120.5592},{"city":"Babau","state":"East Nusa Tenggara","population":0,"lat":-10.1054,"lng":123.7863},{"city":"Ba","state":"East Nusa Tenggara","population":0,"lat":-10.4771,"lng":121.9882},{"city":"Bahoi","state":"North Sulawesi","population":0,"lat":2.36191,"lng":125.37335},{"city":"Bungalawang","state":"North Sulawesi","population":0,"lat":3.61049,"lng":125.47588},{"city":"Bentung","state":"North Sulawesi","population":0,"lat":3.52025,"lng":125.61949},{"city":"Tutuyan","state":"North Sulawesi","population":0,"lat":0.7654,"lng":124.6144},{"city":"Lolayan","state":"North Sulawesi","population":0,"lat":0.646,"lng":124.3074},{"city":"Poigar","state":"North Sulawesi","population":0,"lat":0.9957,"lng":124.2827},{"city":"Peneng","state":"Bali","population":0,"lat":-8.3795,"lng":115.1942},{"city":"Tua","state":"Bali","population":0,"lat":-8.4114,"lng":115.1806},{"city":"Empalan","state":"Bali","population":0,"lat":-8.3952,"lng":115.1512},{"city":"Luwus","state":"Bali","population":0,"lat":-8.3984,"lng":115.1956},{"city":"Banjar Buahan","state":"Bali","population":0,"lat":-8.3948,"lng":115.2367},{"city":"Pangsan","state":"Bali","population":0,"lat":-8.4146,"lng":115.2209},{"city":"Tuka","state":"Bali","population":0,"lat":-8.4322,"lng":115.1981},{"city":"Pergan","state":"Bali","population":0,"lat":-8.4266,"lng":115.1948},{"city":"Pohgending Kangin","state":"Bali","population":0,"lat":-8.4316,"lng":115.1455},{"city":"Pohgending Kawan","state":"Bali","population":0,"lat":-8.4359,"lng":115.1426},{"city":"Payangan Tengah","state":"Bali","population":0,"lat":-8.4361,"lng":115.1673},{"city":"Petiga","state":"Bali","population":0,"lat":-8.4358,"lng":115.1772},{"city":"Penatahan Kaja","state":"Bali","population":0,"lat":-8.436,"lng":115.1257},{"city":"Bayad","state":"Bali","population":0,"lat":-8.4472,"lng":115.2415},{"city":"Pemijian","state":"Bali","population":0,"lat":-8.4499,"lng":115.2193},{"city":"Baleagung","state":"Bali","population":0,"lat":-8.4526,"lng":115.1323},{"city":"Bunutan","state":"Bali","population":0,"lat":-8.4649,"lng":115.248},{"city":"Dajanpeken","state":"Bali","population":0,"lat":-8.4696,"lng":115.1837},{"city":"Buruan Tengah","state":"Bali","population":0,"lat":-8.4582,"lng":115.1386},{"city":"Tembau","state":"Bali","population":0,"lat":-8.4692,"lng":115.1683},{"city":"Wanasari Baleran","state":"Bali","population":0,"lat":-8.4849,"lng":115.1348},{"city":"Kuwumkumambal","state":"Bali","population":0,"lat":-8.4879,"lng":115.1696},{"city":"Kekeran","state":"Bali","population":0,"lat":-8.4906,"lng":115.1777},{"city":"Brahmana","state":"Bali","population":0,"lat":-8.4867,"lng":115.2101},{"city":"Pegongan","state":"Bali","population":0,"lat":-8.4855,"lng":115.2265},{"city":"Basa","state":"Bali","population":0,"lat":-8.4741,"lng":115.1685},{"city":"Tunjuk Selatan","state":"Bali","population":0,"lat":-8.4755,"lng":115.1518},{"city":"Banjar Tengah","state":"Bali","population":0,"lat":-8.4985,"lng":115.1942},{"city":"Pengembunan","state":"Bali","population":0,"lat":-8.4954,"lng":115.1542},{"city":"Buahan Tengah","state":"Bali","population":0,"lat":-8.4947,"lng":115.1497},{"city":"Beaung Tengah","state":"Bali","population":0,"lat":-8.4215,"lng":115.161},{"city":"Melinggih","state":"Bali","population":0,"lat":-8.43131,"lng":115.24466},{"city":"Petang","state":"Bali","population":0,"lat":-8.3963,"lng":115.2187},{"city":"Keli","state":"West Nusa Tenggara","population":0,"lat":-8.3899,"lng":118.7992},{"city":"Lela","state":"West Nusa Tenggara","population":0,"lat":-8.4405,"lng":118.7512},{"city":"Penaraga","state":"West Nusa Tenggara","population":0,"lat":-8.4657,"lng":118.7575},{"city":"Pisang","state":"West Nusa Tenggara","population":0,"lat":-8.47,"lng":118.7574},{"city":"Rontu","state":"West Nusa Tenggara","population":0,"lat":-8.4797,"lng":118.7539},{"city":"Kumbe","state":"West Nusa Tenggara","population":0,"lat":-8.4847,"lng":118.7701},{"city":"Kendo Satu","state":"West Nusa Tenggara","population":0,"lat":-8.4685,"lng":118.78},{"city":"Penanae","state":"West Nusa Tenggara","population":0,"lat":-8.4604,"lng":118.7638},{"city":"Dodu Dua","state":"West Nusa Tenggara","population":0,"lat":-8.4892,"lng":118.7962},{"city":"Nungga","state":"West Nusa Tenggara","population":0,"lat":-8.4829,"lng":118.793},{"city":"Ntobo","state":"West Nusa Tenggara","population":0,"lat":-8.4498,"lng":118.7794},{"city":"Rato","state":"West Nusa Tenggara","population":0,"lat":-8.4744,"lng":118.7649},{"city":"Tengah","state":"Bali","population":0,"lat":-8.2628,"lng":115.0313},{"city":"Taman","state":"Bali","population":0,"lat":-8.2593,"lng":115.0348},{"city":"Banjar Belok","state":"Bali","population":0,"lat":-8.2858,"lng":115.2428},{"city":"Banjar Tohjiwo","state":"Bali","population":0,"lat":-8.3266,"lng":115.1978},{"city":"Banjar Batunya","state":"Bali","population":0,"lat":-8.314,"lng":115.187},{"city":"Banjar Apuan","state":"Bali","population":0,"lat":-8.3693,"lng":115.1781},{"city":"Banjar Bangli","state":"Bali","population":0,"lat":-8.3341,"lng":115.1775},{"city":"Banjar Senganan Kangin","state":"Bali","population":0,"lat":-8.3689,"lng":115.1614},{"city":"Banjar Gunungbau","state":"Bali","population":0,"lat":-8.2591,"lng":115.2788},{"city":"Banjar Tandangbuanasari","state":"Bali","population":0,"lat":-8.25103,"lng":115.33021},{"city":"Banjar Pempatan","state":"Bali","population":0,"lat":-8.3799,"lng":115.4181},{"city":"Banjar Besakih Kangin","state":"Bali","population":0,"lat":-8.3797,"lng":115.4462},{"city":"Banjar Sebudi","state":"Bali","population":0,"lat":-8.4089,"lng":115.4835},{"city":"Banjar Metra Tengah","state":"Bali","population":0,"lat":-8.4072,"lng":115.3851},{"city":"Menanga","state":"Bali","population":0,"lat":-8.4099,"lng":115.421},{"city":"Banjar Karangsuung Kaja","state":"Bali","population":0,"lat":-8.4193,"lng":115.3977},{"city":"Banjar Penida Kaja","state":"Bali","population":0,"lat":-8.4334,"lng":115.3856},{"city":"Pringalot","state":"Bali","population":0,"lat":-8.4267,"lng":115.4195},{"city":"Banjar Gede","state":"Bali","population":0,"lat":-8.4264,"lng":115.4449},{"city":"Duda","state":"Bali","population":0,"lat":-8.4422,"lng":115.4875},{"city":"Umasari Kauh","state":"Bali","population":0,"lat":-8.4355,"lng":115.4635},{"city":"Banjar Jehem Kaja","state":"Bali","population":0,"lat":-8.4384,"lng":115.3761},{"city":"Banjar Bangbang","state":"Bali","population":0,"lat":-8.4467,"lng":115.4035},{"city":"Banjar Dalam","state":"Bali","population":0,"lat":-8.44659,"lng":115.49341},{"city":"Sangkangunung","state":"Bali","population":0,"lat":-8.4577,"lng":115.4337},{"city":"Banjar Kawan","state":"Bali","population":0,"lat":-8.4641,"lng":115.3807},{"city":"Banjar Tengah","state":"Bali","population":0,"lat":-8.4612,"lng":115.3962},{"city":"Banjar Pesaban Kawan","state":"Bali","population":0,"lat":-8.4695,"lng":115.4031},{"city":"Banjar Sidakaria","state":"Bali","population":0,"lat":-8.4657,"lng":115.4483},{"city":"Banjar Kaleran","state":"Bali","population":0,"lat":-8.4806,"lng":115.3841},{"city":"Kangin","state":"Bali","population":0,"lat":-8.4903,"lng":115.3891},{"city":"Banjar Tengah","state":"Bali","population":0,"lat":-8.4936,"lng":115.4044},{"city":"Banjar Selat","state":"Bali","population":0,"lat":-8.4985,"lng":115.4036},{"city":"Banjar Tangkup Anyar","state":"Bali","population":0,"lat":-8.4969,"lng":115.4159},{"city":"Banjar Binyan","state":"Bali","population":0,"lat":-8.2725,"lng":115.2644},{"city":"Banjar Ulian","state":"Bali","population":0,"lat":-8.2764,"lng":115.2731},{"city":"Banjar Belancan","state":"Bali","population":0,"lat":-8.2805,"lng":115.3091},{"city":"Banjar Manikliyu","state":"Bali","population":0,"lat":-8.2792,"lng":115.2871},{"city":"Banjar Mengani","state":"Bali","population":0,"lat":-8.2873,"lng":115.2548},{"city":"Banjar Lembean","state":"Bali","population":0,"lat":-8.2915,"lng":115.279},{"city":"Banjar Bayungcerik","state":"Bali","population":0,"lat":-8.2969,"lng":115.2888},{"city":"Banjar Bunutin","state":"Bali","population":0,"lat":-8.301,"lng":115.2627},{"city":"Banjar Mangguh","state":"Bali","population":0,"lat":-8.3078,"lng":115.2942},{"city":"Banjar Sekardadi","state":"Bali","population":0,"lat":-8.3121,"lng":115.3489},{"city":"Banjar Bonyoh","state":"Bali","population":0,"lat":-8.3098,"lng":115.3229},{"city":"Banjar Katung","state":"Bali","population":0,"lat":-8.3104,"lng":115.3047},{"city":"Banjar Langgahan Kangin","state":"Bali","population":0,"lat":-8.3143,"lng":115.2714},{"city":"Banjar Banua","state":"Bali","population":0,"lat":-8.3238,"lng":115.2948},{"city":"Banjar Abuan","state":"Bali","population":0,"lat":-8.3206,"lng":115.3126},{"city":"Banjar Sekaan","state":"Bali","population":0,"lat":-8.3188,"lng":115.3299},{"city":"Banjar Pengotan","state":"Bali","population":0,"lat":-8.3257,"lng":115.3623},{"city":"Banjar Kerta","state":"Bali","population":0,"lat":-8.3384,"lng":115.2868},{"city":"Banjar Belanga","state":"Bali","population":0,"lat":-8.2494,"lng":115.2675},{"city":"Banjar Negari","state":"Bali","population":0,"lat":-8.5664,"lng":115.3775},{"city":"Banjar Gegelang","state":"Bali","population":0,"lat":-8.5017,"lng":115.4809},{"city":"Banjar Pasek","state":"Bali","population":0,"lat":-8.5087,"lng":115.3816},{"city":"Banjar Kaleran","state":"Bali","population":0,"lat":-8.5119,"lng":115.3927},{"city":"Banjar Tihingan","state":"Bali","population":0,"lat":-8.5316,"lng":115.3833},{"city":"Semarapura","state":"Bali","population":0,"lat":-8.5346,"lng":115.4022},{"city":"Banjar Pekandelan","state":"Bali","population":0,"lat":-8.5379,"lng":115.399},{"city":"Banjar Umesalakan","state":"Bali","population":0,"lat":-8.5538,"lng":115.3847},{"city":"Banjar Kawan","state":"Bali","population":0,"lat":-8.55639,"lng":115.3966},{"city":"Banjar Pekandelan","state":"Bali","population":0,"lat":-8.516,"lng":115.4014},{"city":"Banjar Lebah","state":"Bali","population":0,"lat":-8.5331,"lng":115.4063},{"city":"Banjar Kanginan","state":"Bali","population":0,"lat":-8.5336,"lng":115.4156},{"city":"Banjar Jabon","state":"Bali","population":0,"lat":-8.5386,"lng":115.4147},{"city":"Banjar Ulumsul","state":"Bali","population":0,"lat":-8.5434,"lng":115.4173},{"city":"Banjar Nyamping","state":"Bali","population":0,"lat":-8.5432,"lng":115.4233},{"city":"Tubanan","state":"Bali","population":0,"lat":-8.5519,"lng":115.4084},{"city":"Banjar Pegatepan","state":"Bali","population":0,"lat":-8.554,"lng":115.407},{"city":"Banjar Peken","state":"Bali","population":0,"lat":-8.5558,"lng":115.4206},{"city":"Banjar Tojan Kelod","state":"Bali","population":0,"lat":-8.5557,"lng":115.4018},{"city":"Banjar Kawan","state":"Bali","population":0,"lat":-8.5708,"lng":115.4175},{"city":"Banjar Getakan","state":"Bali","population":0,"lat":-8.5174,"lng":115.3751},{"city":"Banjar Tengah","state":"Bali","population":0,"lat":-8.5382,"lng":115.4446},{"city":"Banjar Pancingan","state":"Bali","population":0,"lat":-8.5605,"lng":115.45143},{"city":"Banjar Kawan","state":"Bali","population":0,"lat":-8.5173,"lng":115.4524},{"city":"Banjar Kanginan","state":"Bali","population":0,"lat":-8.5509,"lng":115.4614},{"city":"Banjar Kaler","state":"Bali","population":0,"lat":-8.5153,"lng":115.4898},{"city":"Dawan","state":"Bali","population":0,"lat":-8.5408,"lng":115.4425},{"city":"Dajanrurung","state":"Bali","population":0,"lat":-8.2015,"lng":114.8899},{"city":"Umbanyar","state":"Bali","population":0,"lat":-8.1947,"lng":114.9181},{"city":"Purwa","state":"Bali","population":0,"lat":-8.1874,"lng":114.9293},{"city":"Tamansari","state":"Bali","population":0,"lat":-8.1963,"lng":114.9445},{"city":"Tangguwisia","state":"Bali","population":0,"lat":-8.1976,"lng":114.9466},{"city":"Kelodan","state":"Bali","population":0,"lat":-8.203,"lng":114.9535},{"city":"Banjar Dawan","state":"Bali","population":0,"lat":-8.2002,"lng":114.9591},{"city":"Ambian","state":"Bali","population":0,"lat":-8.1999,"lng":114.9687},{"city":"Tampekan","state":"Bali","population":0,"lat":-8.2021,"lng":114.9734},{"city":"Pegayaman","state":"Bali","population":0,"lat":-8.18355,"lng":114.98692},{"city":"Pangkungparuk","state":"Bali","population":0,"lat":-8.215,"lng":114.8869},{"city":"Yatnyaketi","state":"Bali","population":0,"lat":-8.2371,"lng":114.93},{"city":"Kajanan","state":"Bali","population":0,"lat":-8.2201,"lng":114.9407},{"city":"Lebahseri","state":"Bali","population":0,"lat":-8.2499,"lng":114.9306},{"city":"Baleagung","state":"Bali","population":0,"lat":-8.2492,"lng":114.931},{"city":"Kertanadi","state":"Bali","population":0,"lat":-8.234,"lng":114.9503},{"city":"Bestala","state":"Bali","population":0,"lat":-8.246,"lng":114.9778},{"city":"Banjarsari","state":"Bali","population":0,"lat":-8.2449,"lng":114.9866},{"city":"Dajanpura","state":"Bali","population":0,"lat":-8.2177,"lng":114.9963},{"city":"Banjar Trunyan","state":"Bali","population":0,"lat":-8.2524,"lng":115.4255},{"city":"Banjar Kedisan","state":"Bali","population":0,"lat":-8.2799,"lng":115.3809},{"city":"Banjar Buahan","state":"Bali","population":0,"lat":-8.287,"lng":115.39},{"city":"Banjar Suter","state":"Bali","population":0,"lat":-8.3073,"lng":115.3953},{"city":"Banjar Bias","state":"Bali","population":0,"lat":-8.31687,"lng":115.39618},{"city":"Sengkerang Tiga","state":"West Nusa Tenggara","population":0,"lat":-8.7679,"lng":116.3735},{"city":"Rangah","state":"West Nusa Tenggara","population":0,"lat":-8.7819,"lng":116.3511},{"city":"Tamanbumigora","state":"West Nusa Tenggara","population":0,"lat":-8.7751,"lng":116.307},{"city":"Ketara","state":"West Nusa Tenggara","population":0,"lat":-8.789,"lng":116.2805},{"city":"Pengembur Dua","state":"West Nusa Tenggara","population":0,"lat":-8.8073,"lng":116.2626},{"city":"Tanakawu Dua","state":"West Nusa Tenggara","population":0,"lat":-8.7741,"lng":116.2678},{"city":"Teruwai","state":"West Nusa Tenggara","population":0,"lat":-8.8124,"lng":116.3375},{"city":"Pagutan","state":"West Nusa Tenggara","population":0,"lat":-8.6275,"lng":116.284},{"city":"Barabali","state":"West Nusa Tenggara","population":0,"lat":-8.6259,"lng":116.3091},{"city":"Bodak","state":"West Nusa Tenggara","population":0,"lat":-8.6538,"lng":116.3102},{"city":"Montongbelok","state":"West Nusa Tenggara","population":0,"lat":-8.6312,"lng":116.3293},{"city":"Montonggamang","state":"West Nusa Tenggara","population":0,"lat":-8.6343,"lng":116.3714},{"city":"Darmaji","state":"West Nusa Tenggara","population":0,"lat":-8.6719,"lng":116.3364},{"city":"Barejulat","state":"West Nusa Tenggara","population":0,"lat":-8.659,"lng":116.2519},{"city":"Semayan","state":"West Nusa Tenggara","population":0,"lat":-8.7191,"lng":116.284},{"city":"Bagiktinggang","state":"West Nusa Tenggara","population":0,"lat":-8.7482,"lng":116.3038},{"city":"Majan","state":"West Nusa Tenggara","population":0,"lat":-8.73,"lng":116.3119},{"city":"Beraim","state":"West Nusa Tenggara","population":0,"lat":-8.7068,"lng":116.3396},{"city":"Meringkik","state":"West Nusa Tenggara","population":0,"lat":-8.8165,"lng":116.5307},{"city":"Sukamulia","state":"West Nusa Tenggara","population":0,"lat":-8.6286,"lng":116.5125},{"city":"Gubuk Timuk","state":"West Nusa Tenggara","population":0,"lat":-8.633,"lng":116.5035},{"city":"Bongkemalik","state":"West Nusa Tenggara","population":0,"lat":-8.6306,"lng":116.5275},{"city":"Muhajirin","state":"West Nusa Tenggara","population":0,"lat":-8.6455,"lng":116.5205},{"city":"Peresak Barat","state":"West Nusa Tenggara","population":0,"lat":-8.6577,"lng":116.5519},{"city":"Denggen Daya","state":"West Nusa Tenggara","population":0,"lat":-8.6659,"lng":116.5103},{"city":"Timba Timuk","state":"West Nusa Tenggara","population":0,"lat":-8.6648,"lng":116.5571},{"city":"Bebae","state":"West Nusa Tenggara","population":0,"lat":-8.6898,"lng":116.5506},{"city":"Gereneng","state":"West Nusa Tenggara","population":0,"lat":-8.6874,"lng":116.5118},{"city":"Paoqpampang","state":"West Nusa Tenggara","population":0,"lat":-8.6966,"lng":116.5697},{"city":"Lepak","state":"West Nusa Tenggara","population":0,"lat":-8.7048,"lng":116.5005},{"city":"Timukpeken","state":"West Nusa Tenggara","population":0,"lat":-8.7217,"lng":116.5264},{"city":"Mandikbatu","state":"West Nusa Tenggara","population":0,"lat":-8.72,"lng":116.505},{"city":"Gubuk Daya","state":"West Nusa Tenggara","population":0,"lat":-8.5246,"lng":116.5734},{"city":"Batubasong Lauk","state":"West Nusa Tenggara","population":0,"lat":-8.5276,"lng":116.5833},{"city":"Montonggedeng","state":"West Nusa Tenggara","population":0,"lat":-8.5388,"lng":116.5917},{"city":"Selaparang Timur","state":"West Nusa Tenggara","population":0,"lat":-8.548,"lng":116.6012},{"city":"Dasanlian Lauk","state":"West Nusa Tenggara","population":0,"lat":-8.5514,"lng":116.5189},{"city":"Kembangkerang Lauk Timur","state":"West Nusa Tenggara","population":0,"lat":-8.5583,"lng":116.5378},{"city":"Jorong Lauk","state":"West Nusa Tenggara","population":0,"lat":-8.5666,"lng":116.5751},{"city":"Aikmel","state":"West Nusa Tenggara","population":0,"lat":-8.5678,"lng":116.5305},{"city":"Bagikkedok Lauk","state":"West Nusa Tenggara","population":0,"lat":-8.572,"lng":116.6058},{"city":"Gubuk Daya","state":"West Nusa Tenggara","population":0,"lat":-8.5693,"lng":116.6242},{"city":"Karangranjong","state":"West Nusa Tenggara","population":0,"lat":-8.5817,"lng":116.512},{"city":"Gelumpang","state":"West Nusa Tenggara","population":0,"lat":-8.5964,"lng":116.5246},{"city":"Anjani Barat","state":"West Nusa Tenggara","population":0,"lat":-8.6038,"lng":116.5056},{"city":"Gubuk Leuk","state":"West Nusa Tenggara","population":0,"lat":-8.6182,"lng":116.6078},{"city":"Tumbukebon","state":"Bali","population":0,"lat":-8.445,"lng":115.6243},{"city":"Banjar Tengah","state":"Bali","population":0,"lat":-8.4992,"lng":115.5069},{"city":"Banjar Geriana Kangin","state":"Bali","population":0,"lat":-8.4335,"lng":115.5012},{"city":"Banjar Wates Tengah","state":"Bali","population":0,"lat":-8.4484,"lng":115.5011},{"city":"Ulakan","state":"Bali","population":0,"lat":-8.4978,"lng":115.5129},{"city":"Banjar Jungutan","state":"Bali","population":0,"lat":-8.4335,"lng":115.5367},{"city":"Banjar Tengah","state":"Bali","population":0,"lat":-8.4458,"lng":115.5373},{"city":"Banjar Tengah","state":"Bali","population":0,"lat":-8.4749,"lng":115.5375},{"city":"Banjar Kawan","state":"Bali","population":0,"lat":-8.4889,"lng":115.5241},{"city":"Banjar Desa Tengah","state":"Bali","population":0,"lat":-8.44008,"lng":115.56293},{"city":"Banjar Kelodan","state":"Bali","population":0,"lat":-8.4691,"lng":115.5491},{"city":"Banjar Bau Kawan","state":"Bali","population":0,"lat":-8.3803,"lng":115.5843},{"city":"Banjar Ababi","state":"Bali","population":0,"lat":-8.4056,"lng":115.5853},{"city":"Banjar Budakeling","state":"Bali","population":0,"lat":-8.4278,"lng":115.5718},{"city":"Banjar Beji","state":"Bali","population":0,"lat":-8.45825,"lng":115.58228},{"city":"Banjar Pegeringsingan","state":"Bali","population":0,"lat":-8.4758,"lng":115.5671},{"city":"Tistagede","state":"Bali","population":0,"lat":-8.3792,"lng":115.609},{"city":"Abang","state":"Bali","population":0,"lat":-8.3866,"lng":115.6013},{"city":"Tiyingtali Kelod","state":"Bali","population":0,"lat":-8.41124,"lng":115.61546},{"city":"Banjar Danginsema","state":"Bali","population":0,"lat":-8.45045,"lng":115.61617},{"city":"Subagan","state":"Bali","population":0,"lat":-8.4503,"lng":115.6065},{"city":"Banjar Genteng","state":"Bali","population":0,"lat":-8.4559,"lng":115.6011},{"city":"Banjar Timbrah","state":"Bali","population":0,"lat":-8.4774,"lng":115.597},{"city":"Alanga","state":"East Nusa Tenggara","population":0,"lat":-9.5386,"lng":119.753},{"city":"Lokuuy","state":"East Nusa Tenggara","population":0,"lat":-9.5663,"lng":119.8145},{"city":"Pahomba","state":"East Nusa Tenggara","population":0,"lat":-9.6239,"lng":119.7998},{"city":"Lengkoajang","state":"East Nusa Tenggara","population":0,"lat":-8.5074,"lng":120.679},{"city":"Buti","state":"East Nusa Tenggara","population":0,"lat":-8.5015,"lng":120.7052},{"city":"Ntaram","state":"East Nusa Tenggara","population":0,"lat":-8.5281,"lng":120.6937},{"city":"Mombok","state":"East Nusa Tenggara","population":0,"lat":-8.5271,"lng":120.7293},{"city":"Watunggong","state":"East Nusa Tenggara","population":0,"lat":-8.5418,"lng":120.6733},{"city":"Rantang","state":"East Nusa Tenggara","population":0,"lat":-8.5485,"lng":120.7419},{"city":"Ngkolong","state":"East Nusa Tenggara","population":0,"lat":-8.5513,"lng":120.7163},{"city":"Ngkodal","state":"East Nusa Tenggara","population":0,"lat":-8.5648,"lng":120.718},{"city":"Ngkiong","state":"East Nusa Tenggara","population":0,"lat":-8.5675,"lng":120.6568},{"city":"Jawa","state":"East Nusa Tenggara","population":0,"lat":-8.562,"lng":120.6371},{"city":"Biting","state":"East Nusa Tenggara","population":0,"lat":-8.5966,"lng":120.6341},{"city":"Pamakoe","state":"East Nusa Tenggara","population":0,"lat":-8.7592,"lng":121.2501},{"city":"Lena","state":"East Nusa Tenggara","population":0,"lat":-8.7613,"lng":121.301},{"city":"Bhokadoke","state":"East Nusa Tenggara","population":0,"lat":-8.802,"lng":121.3118},{"city":"Lokatadho","state":"East Nusa Tenggara","population":0,"lat":-8.8143,"lng":121.2744},{"city":"Wolowada","state":"East Nusa Tenggara","population":0,"lat":-8.8555,"lng":121.2755},{"city":"Pau","state":"East Nusa Tenggara","population":0,"lat":-8.8555,"lng":121.2993},{"city":"Mbeku","state":"East Nusa Tenggara","population":0,"lat":-8.8667,"lng":121.2864},{"city":"Boanio","state":"East Nusa Tenggara","population":0,"lat":-8.6373,"lng":121.3234},{"city":"Doma","state":"East Nusa Tenggara","population":0,"lat":-8.6846,"lng":121.3278},{"city":"Jawatiwa","state":"East Nusa Tenggara","population":0,"lat":-8.7073,"lng":121.2809},{"city":"Aegela","state":"East Nusa Tenggara","population":0,"lat":-8.7323,"lng":121.3372},{"city":"Tibakisa","state":"East Nusa Tenggara","population":0,"lat":-8.7393,"lng":121.3054},{"city":"Banjar Meliling Kawan","state":"Bali","population":0,"lat":-8.5092,"lng":115.0822},{"city":"Banjar Delodrurung","state":"Bali","population":0,"lat":-8.5003,"lng":115.0188},{"city":"Bajera","state":"Bali","population":0,"lat":-8.5038,"lng":115.0258},{"city":"Banjar Baleagung","state":"Bali","population":0,"lat":-8.5066,"lng":115.0353},{"city":"Banjar Bantasbaleagung","state":"Bali","population":0,"lat":-8.5042,"lng":115.0689},{"city":"Banjar Batuaji Kaja","state":"Bali","population":0,"lat":-8.5132,"lng":115.1099},{"city":"Banjar Sembunggede","state":"Bali","population":0,"lat":-8.509,"lng":115.0877},{"city":"Banjar Gablogan","state":"Bali","population":0,"lat":-8.5107,"lng":115.0286},{"city":"Banjar Soka Kaja","state":"Bali","population":0,"lat":-8.5244,"lng":115.0087},{"city":"Banjar Mambanggede","state":"Bali","population":0,"lat":-8.5246,"lng":115.0631},{"city":"Banjar Mandung","state":"Bali","population":0,"lat":-8.5179,"lng":115.0919},{"city":"Banjar Jambe Baleran","state":"Bali","population":0,"lat":-8.5324,"lng":115.1246},{"city":"Banjar Tegalmengkeb Kaja","state":"Bali","population":0,"lat":-8.5328,"lng":115.0338},{"city":"Banjar Kebon","state":"Bali","population":0,"lat":-8.5403,"lng":115.0526},{"city":"Banjar Baturiti Kaja","state":"Bali","population":0,"lat":-8.5408,"lng":115.0833},{"city":"Banjar Penyalin","state":"Bali","population":0,"lat":-8.5332,"lng":115.1085},{"city":"Banjar Tegal Belodan","state":"Bali","population":0,"lat":-8.5408,"lng":115.1191},{"city":"Banjar Pangkungkarung Kangin","state":"Bali","population":0,"lat":-8.5437,"lng":115.1036},{"city":"Banjar Pekandelan","state":"Bali","population":0,"lat":-8.5477,"lng":115.0798},{"city":"Banjar Dauhpangkung","state":"Bali","population":0,"lat":-8.5453,"lng":115.0752},{"city":"Banjar Belumbang Tengah","state":"Bali","population":0,"lat":-8.5488,"lng":115.0629},{"city":"Banjar Beraban Kangin","state":"Bali","population":0,"lat":-8.5569,"lng":115.0421},{"city":"Banjar Tonja","state":"Bali","population":0,"lat":-8.5518,"lng":115.1043},{"city":"Banjar Bongangede","state":"Bali","population":0,"lat":-8.5576,"lng":115.1196},{"city":"Banjar Tibubiyu Kaja","state":"Bali","population":0,"lat":-8.5588,"lng":115.0498},{"city":"Banjar Dukuh","state":"Bali","population":0,"lat":-8.5733,"lng":115.0623},{"city":"Banjar Pejaten","state":"Bali","population":0,"lat":-8.5759,"lng":115.1069},{"city":"Banjar Sengguan","state":"Bali","population":0,"lat":-8.5802,"lng":115.1112},{"city":"Banjar Belatung","state":"Bali","population":0,"lat":-8.5893,"lng":115.1224},{"city":"Banjar Bengkelgede","state":"Bali","population":0,"lat":-8.5882,"lng":115.0943},{"city":"Banjar Pangkungtibah Selatan","state":"Bali","population":0,"lat":-8.5943,"lng":115.0906},{"city":"Banjar Dauhrurung","state":"Bali","population":0,"lat":-8.5954,"lng":115.096},{"city":"Banjar Delodsema","state":"Bali","population":0,"lat":-8.5979,"lng":115.1233},{"city":"Banjar Batanbuah","state":"Bali","population":0,"lat":-8.6026,"lng":115.1053},{"city":"Banjar Pemangkalan","state":"Bali","population":0,"lat":-8.6243,"lng":115.2003},{"city":"Banjar Batanyuh Kaja","state":"Bali","population":0,"lat":-8.508,"lng":115.1678},{"city":"Banjar Sayanbaleran","state":"Bali","population":0,"lat":-8.506,"lng":115.1804},{"city":"Banjar Badung Tengah","state":"Bali","population":0,"lat":-8.5067,"lng":115.1994},{"city":"Banjar Teguan","state":"Bali","population":0,"lat":-8.50572,"lng":115.22991},{"city":"Banjar Ulapan Satu","state":"Bali","population":0,"lat":-8.50978,"lng":115.21436},{"city":"Banjar Tengahbelayu","state":"Bali","population":0,"lat":-8.514,"lng":115.1673},{"city":"Banjar Subamiabaleagung","state":"Bali","population":0,"lat":-8.5142,"lng":115.1271},{"city":"Banjar Tuakilangbaleran","state":"Bali","population":0,"lat":-8.5195,"lng":115.1289},{"city":"Banjar Kedua","state":"Bali","population":0,"lat":-8.5184,"lng":115.1865},{"city":"Banjar Kertasari","state":"Bali","population":0,"lat":-8.62194,"lng":115.2099},{"city":"Banjar Keraman","state":"Bali","population":0,"lat":-8.52804,"lng":115.21167},{"city":"Banjar Cemenggon","state":"Bali","population":0,"lat":-8.5391,"lng":115.1995},{"city":"Banjar Lebahsari","state":"Bali","population":0,"lat":-8.5453,"lng":115.1755},{"city":"Banjar Banjaranyar","state":"Bali","population":0,"lat":-8.5453,"lng":115.1445},{"city":"Banjar Paangkelod","state":"Bali","population":0,"lat":-8.62376,"lng":115.23996},{"city":"Banjar Abiantuwung","state":"Bali","population":0,"lat":-8.55755,"lng":115.14886},{"city":"Banjar Jumbayah","state":"Bali","population":0,"lat":-8.56487,"lng":115.1655},{"city":"Banjar Puseh","state":"Bali","population":0,"lat":-8.5652,"lng":115.1371},{"city":"Banjar Sedang","state":"Bali","population":0,"lat":-8.5707,"lng":115.2389},{"city":"Banjar Desa","state":"Bali","population":0,"lat":-8.5825,"lng":115.2404},{"city":"Banjar Parekan","state":"Bali","population":0,"lat":-8.5763,"lng":115.2164},{"city":"Banjar Pekenjelodan","state":"Bali","population":0,"lat":-8.5752,"lng":115.1777},{"city":"Banjar Danginpangkung","state":"Bali","population":0,"lat":-8.5754,"lng":115.1645},{"city":"Banjar Mundeh","state":"Bali","population":0,"lat":-8.5803,"lng":115.1392},{"city":"Banjar Laing","state":"Bali","population":0,"lat":-8.5793,"lng":115.1334},{"city":"Banjar Dauh Peken","state":"Bali","population":0,"lat":-8.5909,"lng":115.1427},{"city":"Banjar Cice","state":"Bali","population":0,"lat":-8.59,"lng":115.1707},{"city":"Banjar Bucu","state":"Bali","population":0,"lat":-8.58565,"lng":115.20608},{"city":"Banjar Jabejero","state":"Bali","population":0,"lat":-8.5988,"lng":115.2401},{"city":"Banjar Lalangpasek","state":"Bali","population":0,"lat":-8.5985,"lng":115.1455},{"city":"Banjar Karangsuling","state":"Bali","population":0,"lat":-8.5998,"lng":115.1952},{"city":"Banjar Kayangan","state":"Bali","population":0,"lat":-8.6227,"lng":115.2295},{"city":"Banjar Gunungpande","state":"Bali","population":0,"lat":-8.616,"lng":115.1448},{"city":"Banjar Kerobokan","state":"Bali","population":0,"lat":-8.6185,"lng":115.1276},{"city":"Banjar Kembangsari","state":"Bali","population":0,"lat":-8.5096,"lng":115.211},{"city":"Banjar Tebongkang","state":"Bali","population":0,"lat":-8.529,"lng":115.24367},{"city":"Banjar Serangan","state":"Bali","population":0,"lat":-8.5432,"lng":115.1708},{"city":"Banjar Jagasatru","state":"Bali","population":0,"lat":-8.5611,"lng":115.1391},{"city":"Denuma","state":"Bali","population":0,"lat":-8.4155,"lng":115.1223},{"city":"Riang Tengah","state":"Bali","population":0,"lat":-8.4932,"lng":115.1238},{"city":"Megati Kelod","state":"Bali","population":0,"lat":-8.4978,"lng":115.0562},{"city":"Angkahgede","state":"Bali","population":0,"lat":-8.4635,"lng":115.0159},{"city":"Laleng","state":"Bali","population":0,"lat":-8.4483,"lng":115.0467},{"city":"Wanagiri","state":"Bali","population":0,"lat":-8.41,"lng":115.0556},{"city":"Dalangdesa","state":"Bali","population":0,"lat":-8.4401,"lng":115.0807},{"city":"Apityeh","state":"Bali","population":0,"lat":-8.4525,"lng":115.0714},{"city":"Carik","state":"Bali","population":0,"lat":-8.4834,"lng":115.0769},{"city":"Delodpeken","state":"Bali","population":0,"lat":-8.4923,"lng":115.0907},{"city":"Wongaya Kaja","state":"Bali","population":0,"lat":-8.3904,"lng":115.1112},{"city":"Rejasa Kaja","state":"Bali","population":0,"lat":-8.4609,"lng":115.1173},{"city":"Kesiutkawan Kaja","state":"Bali","population":0,"lat":-8.4801,"lng":115.1088},{"city":"Selemadeg Kelod","state":"Bali","population":0,"lat":-8.496,"lng":115.041},{"city":"Jorowaru Daya","state":"West Nusa Tenggara","population":0,"lat":-8.7872,"lng":116.4814},{"city":"Pemongkong","state":"West Nusa Tenggara","population":0,"lat":-8.8447,"lng":116.482},{"city":"Ganti Dua","state":"West Nusa Tenggara","population":0,"lat":-8.7692,"lng":116.3953},{"city":"Batugulung","state":"West Nusa Tenggara","population":0,"lat":-8.7956,"lng":116.3916},{"city":"Sagikmateng","state":"West Nusa Tenggara","population":0,"lat":-8.8279,"lng":116.4079},{"city":"Penimbung Barat","state":"West Nusa Tenggara","population":0,"lat":-8.5475,"lng":116.1352},{"city":"Mambalan","state":"West Nusa Tenggara","population":0,"lat":-8.5495,"lng":116.1281},{"city":"Dasangeria Selatan","state":"West Nusa Tenggara","population":0,"lat":-8.5561,"lng":116.148},{"city":"Dumandesa","state":"West Nusa Tenggara","population":0,"lat":-8.5643,"lng":116.1492},{"city":"Kekeri","state":"West Nusa Tenggara","population":0,"lat":-8.557,"lng":116.1278},{"city":"Sayang Lauq","state":"West Nusa Tenggara","population":0,"lat":-8.5694,"lng":116.1325},{"city":"Selagalas","state":"West Nusa Tenggara","population":0,"lat":-8.5811,"lng":116.1436},{"city":"Sindu","state":"West Nusa Tenggara","population":0,"lat":-8.5832,"lng":116.1351},{"city":"Karangkecicang","state":"West Nusa Tenggara","population":0,"lat":-8.59547,"lng":116.13128},{"city":"Karangparwa","state":"West Nusa Tenggara","population":0,"lat":-8.6034,"lng":116.1271},{"city":"Babakan Barat","state":"West Nusa Tenggara","population":0,"lat":-8.60218,"lng":116.1371},{"city":"Jejelok","state":"West Nusa Tenggara","population":0,"lat":-8.61205,"lng":116.16567},{"city":"Tanaktepong","state":"West Nusa Tenggara","population":0,"lat":-8.5957,"lng":116.2112},{"city":"Batukuta","state":"West Nusa Tenggara","population":0,"lat":-8.60269,"lng":116.19966},{"city":"Selat","state":"West Nusa Tenggara","population":0,"lat":-8.5816,"lng":116.2101},{"city":"Lingsar","state":"West Nusa Tenggara","population":0,"lat":-8.5729,"lng":116.1824},{"city":"Tanakbeak Daye","state":"West Nusa Tenggara","population":0,"lat":-8.6068,"lng":116.2028},{"city":"Sintung Timur","state":"West Nusa Tenggara","population":0,"lat":-8.60988,"lng":116.22222},{"city":"Sesaot Lauq","state":"West Nusa Tenggara","population":0,"lat":-8.5408,"lng":116.2448},{"city":"Bengkel Utara","state":"West Nusa Tenggara","population":0,"lat":-8.6159,"lng":116.1482},{"city":"Karangsubagan","state":"West Nusa Tenggara","population":0,"lat":-8.4067,"lng":116.1019},{"city":"Redakodi","state":"East Nusa Tenggara","population":0,"lat":-9.4542,"lng":119.2271},{"city":"Maredakamau","state":"East Nusa Tenggara","population":0,"lat":-9.435,"lng":119.1866},{"city":"Radamata","state":"East Nusa Tenggara","population":0,"lat":-9.4258,"lng":119.2446},{"city":"Nangapanda","state":"East Nusa Tenggara","population":0,"lat":-8.7928,"lng":121.4691},{"city":"Wakaseko","state":"East Nusa Tenggara","population":0,"lat":-8.6376,"lng":121.4704},{"city":"Kamubheka","state":"East Nusa Tenggara","population":0,"lat":-8.6632,"lng":121.4888},{"city":"Oja","state":"East Nusa Tenggara","population":0,"lat":-8.692,"lng":121.4325},{"city":"Puukau","state":"East Nusa Tenggara","population":0,"lat":-8.7249,"lng":121.4293},{"city":"Kuekobo","state":"East Nusa Tenggara","population":0,"lat":-8.7158,"lng":121.3926},{"city":"Arwea","state":"East Nusa Tenggara","population":0,"lat":-8.7378,"lng":121.4867},{"city":"Lando","state":"East Nusa Tenggara","population":0,"lat":-8.4967,"lng":120.079},{"city":"Pau","state":"East Nusa Tenggara","population":0,"lat":-8.4402,"lng":120.1931},{"city":"Sasa","state":"East Nusa Tenggara","population":0,"lat":-8.4388,"lng":120.1809},{"city":"Kembo","state":"East Nusa Tenggara","population":0,"lat":-8.3971,"lng":120.8808},{"city":"Mbarungkeli","state":"East Nusa Tenggara","population":0,"lat":-8.4052,"lng":120.9965},{"city":"Wate","state":"East Nusa Tenggara","population":0,"lat":-8.4988,"lng":120.9599},{"city":"Kombandaru","state":"East Nusa Tenggara","population":0,"lat":-8.7869,"lng":121.6033},{"city":"Puubheto","state":"East Nusa Tenggara","population":0,"lat":-8.7918,"lng":121.5904},{"city":"Maunggora","state":"East Nusa Tenggara","population":0,"lat":-8.8043,"lng":121.5146},{"city":"Baraiwena","state":"East Nusa Tenggara","population":0,"lat":-8.8204,"lng":121.6041},{"city":"Mbomba","state":"East Nusa Tenggara","population":0,"lat":-8.8283,"lng":121.6201},{"city":"Puutura","state":"East Nusa Tenggara","population":0,"lat":-8.8644,"lng":121.5214},{"city":"Roa","state":"East Nusa Tenggara","population":0,"lat":-8.7568,"lng":121.7183},{"city":"Kengga","state":"East Nusa Tenggara","population":0,"lat":-8.7596,"lng":121.7138},{"city":"Aefeo","state":"East Nusa Tenggara","population":0,"lat":-8.7633,"lng":121.6739},{"city":"Saga","state":"East Nusa Tenggara","population":0,"lat":-8.7694,"lng":121.7349},{"city":"Detumbawa","state":"East Nusa Tenggara","population":0,"lat":-8.786,"lng":121.6722},{"city":"Puuperi","state":"East Nusa Tenggara","population":0,"lat":-8.7945,"lng":121.6482},{"city":"Nuasepu","state":"East Nusa Tenggara","population":0,"lat":-8.7955,"lng":121.6347},{"city":"Puutuga","state":"East Nusa Tenggara","population":0,"lat":-8.8026,"lng":121.723},{"city":"Aemura","state":"East Nusa Tenggara","population":0,"lat":-8.8087,"lng":121.6685},{"city":"Lokoboko","state":"East Nusa Tenggara","population":0,"lat":-8.8195,"lng":121.6804},{"city":"Nuakota","state":"East Nusa Tenggara","population":0,"lat":-8.8294,"lng":121.6974},{"city":"Ndona","state":"East Nusa Tenggara","population":0,"lat":-8.8338,"lng":121.6862},{"city":"Wolowona","state":"East Nusa Tenggara","population":0,"lat":-8.8322,"lng":121.6765},{"city":"Wolonio","state":"East Nusa Tenggara","population":0,"lat":-8.8265,"lng":121.6428},{"city":"Onewitu","state":"East Nusa Tenggara","population":0,"lat":-8.8397,"lng":121.6449},{"city":"Onekore","state":"East Nusa Tenggara","population":0,"lat":-8.8366,"lng":121.6518},{"city":"Mautapaga Bawah","state":"East Nusa Tenggara","population":0,"lat":-8.845,"lng":121.6718},{"city":"Potulando","state":"East Nusa Tenggara","population":0,"lat":-8.8469,"lng":121.6521},{"city":"Mbongawani","state":"East Nusa Tenggara","population":0,"lat":-8.8467,"lng":121.6447},{"city":"Rukunlima Bawah","state":"East Nusa Tenggara","population":0,"lat":-8.8512,"lng":121.6439},{"city":"Paupanda Bawah","state":"East Nusa Tenggara","population":0,"lat":-8.8559,"lng":121.6432},{"city":"Tetandara","state":"East Nusa Tenggara","population":0,"lat":-8.8526,"lng":121.658},{"city":"Ngalupolo","state":"East Nusa Tenggara","population":0,"lat":-8.8716,"lng":121.7352},{"city":"Detuwane","state":"East Nusa Tenggara","population":0,"lat":-8.5137,"lng":121.793},{"city":"Jalasenga","state":"East Nusa Tenggara","population":0,"lat":-8.5302,"lng":121.8051},{"city":"Maurole","state":"East Nusa Tenggara","population":0,"lat":-8.511,"lng":121.8023},{"city":"Nggesa","state":"East Nusa Tenggara","population":0,"lat":-8.6028,"lng":121.8186},{"city":"Kanganara","state":"East Nusa Tenggara","population":0,"lat":-8.6237,"lng":121.8411},{"city":"Nuamuri","state":"East Nusa Tenggara","population":0,"lat":-8.5871,"lng":121.8612},{"city":"Lendangtampel Daya","state":"West Nusa Tenggara","population":0,"lat":-8.6128,"lng":116.2875},{"city":"Kembangkerang Satu","state":"West Nusa Tenggara","population":0,"lat":-8.5972,"lng":116.2981},{"city":"Mantang","state":"West Nusa Tenggara","population":0,"lat":-8.6155,"lng":116.3137},{"city":"Selebung Satu","state":"West Nusa Tenggara","population":0,"lat":-8.6024,"lng":116.323},{"city":"Pediti","state":"West Nusa Tenggara","population":0,"lat":-8.5878,"lng":116.3298},{"city":"Lilin Satu","state":"West Nusa Tenggara","population":0,"lat":-8.6193,"lng":116.3645},{"city":"Lendangara Satu","state":"West Nusa Tenggara","population":0,"lat":-8.609,"lng":116.3722},{"city":"Peseng","state":"West Nusa Tenggara","population":0,"lat":-8.58,"lng":116.374},{"city":"Banjar Pasekan","state":"Bali","population":0,"lat":-8.6329,"lng":115.284},{"city":"Banjar Kertajiwa","state":"Bali","population":0,"lat":-8.6402,"lng":115.2618},{"city":"Banjar Batanpoh","state":"Bali","population":0,"lat":-8.6761,"lng":115.2579},{"city":"Banjar Taman","state":"Bali","population":0,"lat":-8.6818,"lng":115.2564},{"city":"Banjar Medura","state":"Bali","population":0,"lat":-8.6926,"lng":115.2533},{"city":"Banjar Cempaga","state":"Bali","population":0,"lat":-8.2217,"lng":115.0103},{"city":"Banjar Tamansari","state":"Bali","population":0,"lat":-8.2456,"lng":115.0017},{"city":"Banjar Bunutpanggang","state":"Bali","population":0,"lat":-8.16556,"lng":115.01943},{"city":"Banjar Dauhpura","state":"Bali","population":0,"lat":-8.2019,"lng":115.0232},{"city":"Banjar Pedawa","state":"Bali","population":0,"lat":-8.2367,"lng":115.0258},{"city":"Banjar Banyualit","state":"Bali","population":0,"lat":-8.1584,"lng":115.0386},{"city":"Banjar Kayuputih","state":"Bali","population":0,"lat":-8.1833,"lng":115.0418},{"city":"Banjar Dauhmargi","state":"Bali","population":0,"lat":-8.1367,"lng":115.0653},{"city":"Banjar Dharmasemedi","state":"Bali","population":0,"lat":-8.1462,"lng":115.0596},{"city":"Banjar Anyar","state":"Bali","population":0,"lat":-8.151,"lng":115.0552},{"city":"Banjar Tegallinggah","state":"Bali","population":0,"lat":-8.156,"lng":115.071},{"city":"Banjar Galiran","state":"Bali","population":0,"lat":-8.1295,"lng":115.0738},{"city":"Banjar Selat","state":"Bali","population":0,"lat":-8.1757,"lng":115.0662},{"city":"Banjar Tegalsari","state":"Bali","population":0,"lat":-8.1256,"lng":115.0926},{"city":"Banjar Liligundi","state":"Bali","population":0,"lat":-8.1276,"lng":115.09843},{"city":"Banjar Sambangan","state":"Bali","population":0,"lat":-8.1461,"lng":115.0968},{"city":"Banjar Dauhpura","state":"Bali","population":0,"lat":-8.1485,"lng":115.0862},{"city":"Banjar Beratan","state":"Bali","population":0,"lat":-8.1321,"lng":115.0993},{"city":"Banjar Pondok","state":"Bali","population":0,"lat":-8.14,"lng":115.1246},{"city":"Banjar Padangbulia","state":"Bali","population":0,"lat":-8.1584,"lng":115.1246},{"city":"Meraran","state":"West Nusa Tenggara","population":0,"lat":-8.6882,"lng":116.8493},{"city":"Seteluk Tengah","state":"West Nusa Tenggara","population":0,"lat":-8.6263,"lng":116.8641},{"city":"Seteluk Atas","state":"West Nusa Tenggara","population":0,"lat":-8.6282,"lng":116.8695},{"city":"Rempe","state":"West Nusa Tenggara","population":0,"lat":-8.6472,"lng":116.8663},{"city":"Airsuning","state":"West Nusa Tenggara","population":0,"lat":-8.6508,"lng":116.8547},{"city":"Bugis","state":"West Nusa Tenggara","population":0,"lat":-8.7422,"lng":116.842},{"city":"Motong","state":"West Nusa Tenggara","population":0,"lat":-8.7433,"lng":116.8532},{"city":"Dalam","state":"West Nusa Tenggara","population":0,"lat":-8.7417,"lng":116.8486},{"city":"Sampir","state":"West Nusa Tenggara","population":0,"lat":-8.742,"lng":116.8564},{"city":"Juranalas","state":"West Nusa Tenggara","population":0,"lat":-8.52296,"lng":116.99728},{"city":"Mapinkebak","state":"West Nusa Tenggara","population":0,"lat":-8.5496,"lng":116.9417},{"city":"Mapinrea","state":"West Nusa Tenggara","population":0,"lat":-8.5596,"lng":116.9463},{"city":"Luar","state":"West Nusa Tenggara","population":0,"lat":-8.519,"lng":116.9933},{"city":"Dalam","state":"West Nusa Tenggara","population":0,"lat":-8.5155,"lng":116.9953},{"city":"Baru","state":"West Nusa Tenggara","population":0,"lat":-8.5229,"lng":116.9928},{"city":"Kalimango","state":"West Nusa Tenggara","population":0,"lat":-8.52212,"lng":116.9954},{"city":"Batutering","state":"West Nusa Tenggara","population":0,"lat":-8.6664,"lng":117.4795},{"city":"Sebasang","state":"West Nusa Tenggara","population":0,"lat":-8.6502,"lng":117.4461},{"city":"Banjar Ponggang","state":"Bali","population":0,"lat":-8.3893,"lng":115.2605},{"city":"Banjar Taro Kelod","state":"Bali","population":0,"lat":-8.3849,"lng":115.2794},{"city":"Banjar Tiga","state":"Bali","population":0,"lat":-8.3825,"lng":115.3535},{"city":"Banjar Kayubihi","state":"Bali","population":0,"lat":-8.3972,"lng":115.3634},{"city":"Banjar Dujung Kaja","state":"Bali","population":0,"lat":-8.4008,"lng":115.2886},{"city":"Banjar Bukian","state":"Bali","population":0,"lat":-8.40687,"lng":115.26512},{"city":"Banjar Manukayaanyar","state":"Bali","population":0,"lat":-8.4083,"lng":115.3124},{"city":"Sulahan","state":"Bali","population":0,"lat":-8.421,"lng":115.3479},{"city":"Banjar Kedisan Kelod","state":"Bali","population":0,"lat":-8.4222,"lng":115.2924},{"city":"Banjar Kubu","state":"Bali","population":0,"lat":-8.4282,"lng":115.3629},{"city":"Banjar Triwangsakelusa","state":"Bali","population":0,"lat":-8.4406,"lng":115.2582},{"city":"Banjar Petak","state":"Bali","population":0,"lat":-8.4448,"lng":115.3195},{"city":"Banjar Cempaga","state":"Bali","population":0,"lat":-8.4442,"lng":115.3567},{"city":"Banjar Demulih","state":"Bali","population":0,"lat":-8.4534,"lng":115.3407},{"city":"Banjar Triwangsakeliki","state":"Bali","population":0,"lat":-8.452,"lng":115.262},{"city":"Banjar Sandinggianyar","state":"Bali","population":0,"lat":-8.4629,"lng":115.2992},{"city":"Banjar Mulung","state":"Bali","population":0,"lat":-8.4786,"lng":115.3107},{"city":"Banjar Petuludesa","state":"Bali","population":0,"lat":-8.4869,"lng":115.2742},{"city":"Banjar Pesalakan","state":"Bali","population":0,"lat":-8.4812,"lng":115.3025},{"city":"Banjar Abuan","state":"Bali","population":0,"lat":-8.4625,"lng":115.335},{"city":"Banjar Bebalang","state":"Bali","population":0,"lat":-8.4718,"lng":115.353},{"city":"Banjar Apuan Kaja","state":"Bali","population":0,"lat":-8.4766,"lng":115.3296},{"city":"Banjar Madangan Kaja","state":"Bali","population":0,"lat":-8.475,"lng":115.3238},{"city":"Karangkebon Timur","state":"West Nusa Tenggara","population":0,"lat":-8.62691,"lng":116.13752},{"city":"Karang Kuripan","state":"West Nusa Tenggara","population":0,"lat":-8.6347,"lng":116.154},{"city":"Pendaleman","state":"West Nusa Tenggara","population":0,"lat":-8.6844,"lng":116.2404},{"city":"Batutulis","state":"West Nusa Tenggara","population":0,"lat":-8.6911,"lng":116.2139},{"city":"Blong Daye","state":"West Nusa Tenggara","population":0,"lat":-8.6931,"lng":116.2257},{"city":"Ampanlolat","state":"West Nusa Tenggara","population":0,"lat":-8.7198,"lng":116.1983},{"city":"Ranggagata","state":"West Nusa Tenggara","population":0,"lat":-8.7224,"lng":116.1847},{"city":"Karangdalam","state":"West Nusa Tenggara","population":0,"lat":-8.7384,"lng":116.2431},{"city":"Bangekdewa","state":"West Nusa Tenggara","population":0,"lat":-8.7476,"lng":116.1921},{"city":"Karang Daye","state":"West Nusa Tenggara","population":0,"lat":-8.7448,"lng":116.2413},{"city":"Permas","state":"West Nusa Tenggara","population":0,"lat":-8.7376,"lng":116.2078},{"city":"Tetebatu","state":"West Nusa Tenggara","population":0,"lat":-8.5535,"lng":116.4198},{"city":"Perian Selatan","state":"West Nusa Tenggara","population":0,"lat":-8.5641,"lng":116.393},{"city":"Gubukjero Timuk","state":"West Nusa Tenggara","population":0,"lat":-8.5605,"lng":116.4792},{"city":"Keroak","state":"West Nusa Tenggara","population":0,"lat":-8.5705,"lng":116.498},{"city":"Sepolong Timur","state":"West Nusa Tenggara","population":0,"lat":-8.585,"lng":116.4539},{"city":"Kampungmasjid","state":"West Nusa Tenggara","population":0,"lat":-8.5984,"lng":116.4498},{"city":"Rempungtimur Utara","state":"West Nusa Tenggara","population":0,"lat":-8.6118,"lng":116.4991},{"city":"Danger Utara","state":"West Nusa Tenggara","population":0,"lat":-8.6121,"lng":116.4594},{"city":"Timba Lauk","state":"West Nusa Tenggara","population":0,"lat":-8.621,"lng":116.4446},{"city":"Dayanpeken","state":"West Nusa Tenggara","population":0,"lat":-8.592,"lng":116.4209},{"city":"Dalamdesa Selatan","state":"West Nusa Tenggara","population":0,"lat":-8.5938,"lng":116.4115},{"city":"Mujur","state":"West Nusa Tenggara","population":0,"lat":-8.6036,"lng":116.4012},{"city":"Kelungkung","state":"West Nusa Tenggara","population":0,"lat":-8.5518,"lng":117.3368},{"city":"Ngeru","state":"West Nusa Tenggara","population":0,"lat":-8.5171,"lng":117.5158},{"city":"Jorok Dalam","state":"West Nusa Tenggara","population":0,"lat":-8.4112,"lng":117.1353},{"city":"Orong","state":"West Nusa Tenggara","population":0,"lat":-8.413,"lng":117.1296},{"city":"Satowebrang","state":"West Nusa Tenggara","population":0,"lat":-8.416,"lng":117.1266},{"city":"Motong Barat","state":"West Nusa Tenggara","population":0,"lat":-8.4152,"lng":117.1311},{"city":"Tengah Satu","state":"West Nusa Tenggara","population":0,"lat":-8.4183,"lng":117.1308},{"city":"Rhee Beru","state":"West Nusa Tenggara","population":0,"lat":-8.4182,"lng":117.236},{"city":"Sebedo","state":"West Nusa Tenggara","population":0,"lat":-8.4287,"lng":117.1631},{"city":"Seseng","state":"West Nusa Tenggara","population":0,"lat":-8.4675,"lng":117.2304},{"city":"Tolotangga","state":"West Nusa Tenggara","population":0,"lat":-8.7642,"lng":118.6353},{"city":"Lantebaru","state":"West Nusa Tenggara","population":0,"lat":-8.6321,"lng":118.7736},{"city":"Doro Oo","state":"West Nusa Tenggara","population":0,"lat":-8.6864,"lng":118.7631},{"city":"Rupe","state":"West Nusa Tenggara","population":0,"lat":-8.6953,"lng":118.8384},{"city":"Kalodu","state":"West Nusa Tenggara","population":0,"lat":-8.6589,"lng":118.8384},