{"timezone":"Asia/Sakhalin","countries":{"Russia":[{"city":"Yuzhno-Sakhalinsk","state":"Sakhalin Oblast","population":198973,"lat":46.9543,"lng":142.73559},{"city":"Korsakov","state":"Sakhalin Oblast","population":35091,"lat":46.63528,"lng":142.77583},{"city":"Kholmsk","state":"Sakhalin Oblast","population":32681,"lat":47.04612,"lng":142.04938},{"city":"Okha","state":"Sakhalin Oblast","population":26560,"lat":53.59398,"lng":142.95279},{"city":"Nevel’sk","state":"Sakhalin Oblast","population":17000,"lat":46.67956,"lng":141.85587},{"city":"Poronaysk","state":"Sakhalin Oblast","population":16677,"lat":49.22045,"lng":143.0912},{"city":"Uglegorsk","state":"Sakhalin Oblast","population":12669,"lat":49.0799,"lng":142.06875},{"city":"Aleksandrovsk-Sakhalinskiy","state":"Sakhalin Oblast","population":12024,"lat":50.89632,"lng":142.16337},{"city":"Dolinsk","state":"Sakhalin Oblast","population":11989,"lat":47.32837,"lng":142.79626},{"city":"Shakhtërsk","state":"Sakhalin Oblast","population":10100,"lat":49.16804,"lng":142.11571},{"city":"Nogliki","state":"Sakhalin Oblast","population":10098,"lat":51.79681,"lng":143.13645},{"city":"Tymovskoye","state":"Sakhalin Oblast","population":8030,"lat":50.84767,"lng":142.66256},{"city":"Aniva","state":"Sakhalin Oblast","population":7963,"lat":46.71576,"lng":142.53244},{"city":"Yuzhno-Kurilsk","state":"Sakhalin Oblast","population":7777,"lat":44.02734,"lng":145.86146},{"city":"Smirnykh","state":"Sakhalin Oblast","population":7116,"lat":49.74425,"lng":142.83441},{"city":"Makarov","state":"Sakhalin Oblast","population":6663,"lat":48.62557,"lng":142.77863},{"city":"Gornozavodsk","state":"Sakhalin Oblast","population":5579,"lat":46.55984,"lng":141.84358},{"city":"Tomari","state":"Sakhalin Oblast","population":4910,"lat":47.76596,"lng":142.06551},{"city":"Bykov","state":"Sakhalin Oblast","population":4672,"lat":47.31816,"lng":142.56565},{"city":"Chekhov","state":"Sakhalin Oblast","population":4653,"lat":47.44951,"lng":141.99181},{"city":"Krasnogorsk","state":"Sakhalin Oblast","population":3304,"lat":48.41212,"lng":142.09286},{"city":"Sokol","state":"Sakhalin Oblast","population":3228,"lat":47.24404,"lng":142.75376},{"city":"Troitskoye","state":"Sakhalin Oblast","population":3176,"lat":46.92025,"lng":142.63759},{"city":"Vakhrushev","state":"Sakhalin Oblast","population":2884,"lat":48.99399,"lng":142.85892},{"city":"Vostok","state":"Sakhalin Oblast","population":2779,"lat":48.97715,"lng":142.91556},{"city":"Sinegorsk","state":"Sakhalin Oblast","population":2444,"lat":47.17223,"lng":142.51811},{"city":"Pravda","state":"Sakhalin Oblast","population":2412,"lat":46.941,"lng":142.00774},{"city":"Yablochnyy","state":"Sakhalin Oblast","population":2062,"lat":47.15156,"lng":142.0571},{"city":"Mgachi","state":"Sakhalin Oblast","population":1632,"lat":51.04764,"lng":142.27251},{"city":"Uglezavodsk","state":"Sakhalin Oblast","population":1610,"lat":47.32415,"lng":142.6326},{"city":"Boshnyakovo","state":"Sakhalin Oblast","population":1491,"lat":49.64572,"lng":142.17047},{"city":"Tungor","state":"Sakhalin Oblast","population":1322,"lat":53.39121,"lng":142.95755},{"city":"Leonidovo","state":"Sakhalin Oblast","population":1283,"lat":49.28712,"lng":142.87205},{"city":"Shebunino","state":"Sakhalin Oblast","population":1177,"lat":46.4301,"lng":141.85699},{"city":"Gastello","state":"Sakhalin Oblast","population":1042,"lat":49.10193,"lng":142.94386},{"city":"Vostochnyy","state":"Sakhalin Oblast","population":936,"lat":48.27228,"lng":142.62492},{"city":"Katangli","state":"Sakhalin Oblast","population":850,"lat":51.70679,"lng":143.2283},{"city":"Val","state":"Sakhalin Oblast","population":826,"lat":52.33841,"lng":143.06434},{"city":"Tikhmenevo","state":"Sakhalin Oblast","population":808,"lat":49.20123,"lng":142.89296},{"city":"Vzmor’ye","state":"Sakhalin Oblast","population":805,"lat":47.8502,"lng":142.51572},{"city":"Novikovo","state":"Sakhalin Oblast","population":803,"lat":46.36486,"lng":143.36667},{"city":"Udarnyy","state":"Sakhalin Oblast","population":518,"lat":49.1153,"lng":142.13874},{"city":"Ekhabi","state":"Sakhalin Oblast","population":507,"lat":53.51115,"lng":142.96819}]}}