{"timezone":"Asia/Aqtobe","countries":{"Kazakhstan":[{"city":"Aktobe","state":"Aktyubinskaya Oblast’","population":500757,"lat":50.27969,"lng":57.20718},{"city":"Kandyagash","state":"Aktyubinskaya Oblast’","population":28196,"lat":49.46917,"lng":57.41865},{"city":"Shalqar","state":"Aktyubinskaya Oblast’","population":27399,"lat":47.83154,"lng":59.61926},{"city":"Khromtau","state":"Aktyubinskaya Oblast’","population":23715,"lat":50.25161,"lng":58.43574},{"city":"Embi","state":"Aktyubinskaya Oblast’","population":18760,"lat":48.82981,"lng":58.15042},{"city":"Shubarkuduk","state":"Aktyubinskaya Oblast’","population":11733,"lat":49.14391,"lng":56.48196},{"city":"Shubarshi","state":"Aktyubinskaya Oblast’","population":8651,"lat":48.58022,"lng":57.18289},{"city":"Martuk","state":"Aktyubinskaya Oblast’","population":7756,"lat":50.74746,"lng":56.50611},{"city":"Bayganin","state":"Aktyubinskaya Oblast’","population":7657,"lat":48.68975,"lng":55.87512},{"city":"Badamsha","state":"Aktyubinskaya Oblast’","population":5668,"lat":50.56183,"lng":58.2772},{"city":"Yrghyz","state":"Aktyubinskaya Oblast’","population":4673,"lat":48.61958,"lng":61.26067},{"city":"Temir","state":"Aktyubinskaya Oblast’","population":2560,"lat":49.14284,"lng":57.12736},{"city":"Uil","state":"Aktyubinskaya Oblast’","population":0,"lat":49.0725,"lng":54.66304},{"city":"Qobda","state":"Aktyubinskaya Oblast’","population":0,"lat":50.14928,"lng":55.66889},{"city":"Algha","state":"Aktyubinskaya Oblast’","population":0,"lat":49.89863,"lng":57.32787},{"city":"Selo Temirbeka Zhurgenova","state":"Aktyubinskaya Oblast’","population":0,"lat":50.43326,"lng":60.5004}]}}