{"timezone":"Asia/Novosibirsk","countries":{"Russia":[{"city":"Novosibirsk","state":"Novosibirsk Oblast","population":1612833,"lat":55.02259,"lng":82.93175},{"city":"Berdsk","state":"Novosibirsk Oblast","population":90250,"lat":54.75352,"lng":83.09624},{"city":"Iskitim","state":"Novosibirsk Oblast","population":61827,"lat":54.64261,"lng":83.30353},{"city":"Akademgorodok","state":"Novosibirsk Oblast","population":50000,"lat":54.8523,"lng":83.106},{"city":"Kuybyshev","state":"Novosibirsk Oblast","population":48308,"lat":55.44783,"lng":78.31907},{"city":"Barabinsk","state":"Novosibirsk Oblast","population":31508,"lat":55.35072,"lng":78.35873},{"city":"Karasuk","state":"Novosibirsk Oblast","population":28589,"lat":53.73953,"lng":78.04387},{"city":"Tatarsk","state":"Novosibirsk Oblast","population":25150,"lat":55.2213,"lng":75.98154},{"city":"Ob’","state":"Novosibirsk Oblast","population":24238,"lat":54.98877,"lng":82.71337},{"city":"Toguchin","state":"Novosibirsk Oblast","population":21886,"lat":55.238,"lng":84.40282},{"city":"Linëvo","state":"Novosibirsk Oblast","population":21816,"lat":54.4589,"lng":83.3764},{"city":"Cherepanovo","state":"Novosibirsk Oblast","population":20125,"lat":54.2239,"lng":83.38056},{"city":"Bolotnoye","state":"Novosibirsk Oblast","population":17704,"lat":55.67344,"lng":84.39463},{"city":"Krasnoobsk","state":"Novosibirsk Oblast","population":16894,"lat":54.9198,"lng":82.9909},{"city":"Kochenëvo","state":"Novosibirsk Oblast","population":16446,"lat":55.01356,"lng":82.20783},{"city":"Kupino","state":"Novosibirsk Oblast","population":16333,"lat":54.36677,"lng":77.3068},{"city":"Suzun","state":"Novosibirsk Oblast","population":15365,"lat":53.78457,"lng":82.31595},{"city":"Maslyanino","state":"Novosibirsk Oblast","population":13000,"lat":54.34263,"lng":84.21179},{"city":"Chulym","state":"Novosibirsk Oblast","population":11975,"lat":55.08977,"lng":80.97022},{"city":"Kargat","state":"Novosibirsk Oblast","population":10881,"lat":55.1929,"lng":80.28261},{"city":"Kolyvan’","state":"Novosibirsk Oblast","population":10807,"lat":55.30891,"lng":82.74196},{"city":"Moshkovo","state":"Novosibirsk Oblast","population":10541,"lat":55.30546,"lng":83.61324},{"city":"Krasnozërskoye","state":"Novosibirsk Oblast","population":10339,"lat":53.986,"lng":79.23999},{"city":"Ordynskoye","state":"Novosibirsk Oblast","population":10314,"lat":54.36225,"lng":81.88658},{"city":"Kol’tsovo","state":"Novosibirsk Oblast","population":9976,"lat":54.94204,"lng":83.19192},{"city":"Gornyy","state":"Novosibirsk Oblast","population":9808,"lat":55.1153,"lng":83.9059},{"city":"Krivodanovka","state":"Novosibirsk Oblast","population":9006,"lat":55.0881,"lng":82.6551},{"city":"Chany","state":"Novosibirsk Oblast","population":8923,"lat":55.31193,"lng":76.76024},{"city":"Vengerovo","state":"Novosibirsk Oblast","population":7073,"lat":55.68278,"lng":76.74531},{"city":"Dovol’noye","state":"Novosibirsk Oblast","population":6774,"lat":54.49457,"lng":79.66766},{"city":"Prokudskoye","state":"Novosibirsk Oblast","population":6043,"lat":55.0089,"lng":82.4574},{"city":"Ubinskoye","state":"Novosibirsk Oblast","population":5882,"lat":55.30713,"lng":79.68169},{"city":"Bagan","state":"Novosibirsk Oblast","population":5803,"lat":54.09949,"lng":77.66691},{"city":"Sokur","state":"Novosibirsk Oblast","population":5753,"lat":55.2093,"lng":83.319},{"city":"Kyshtovka","state":"Novosibirsk Oblast","population":5724,"lat":56.55555,"lng":76.63029},{"city":"Verkh-Tula","state":"Novosibirsk Oblast","population":5625,"lat":54.8839,"lng":82.7762},{"city":"Zdvinsk","state":"Novosibirsk Oblast","population":5539,"lat":54.70473,"lng":78.67026},{"city":"Severnoye","state":"Novosibirsk Oblast","population":5373,"lat":56.35023,"lng":78.36481},{"city":"Chistoozërnoye","state":"Novosibirsk Oblast","population":5332,"lat":54.71125,"lng":76.58227},{"city":"Yarkovo","state":"Novosibirsk Oblast","population":5149,"lat":54.8056,"lng":82.5989},{"city":"Chik","state":"Novosibirsk Oblast","population":5094,"lat":54.9928,"lng":82.4311},{"city":"Baryshevo","state":"Novosibirsk Oblast","population":5024,"lat":54.9564,"lng":83.1822},{"city":"Stantsionno-Oyashinskiy","state":"Novosibirsk Oblast","population":4689,"lat":55.4664,"lng":83.8245},{"city":"Ust’-Tarka","state":"Novosibirsk Oblast","population":4325,"lat":55.56704,"lng":75.70557},{"city":"Kochki","state":"Novosibirsk Oblast","population":4101,"lat":54.33208,"lng":80.49338},{"city":"Kudryashovskiy","state":"Novosibirsk Oblast","population":3935,"lat":55.0974,"lng":82.7742},{"city":"Tolmachëvo","state":"Novosibirsk Oblast","population":3921,"lat":54.9824,"lng":82.7363},{"city":"Dorogino","state":"Novosibirsk Oblast","population":3762,"lat":54.3598,"lng":83.3198},{"city":"Polovinnoye","state":"Novosibirsk Oblast","population":3530,"lat":53.75671,"lng":79.24327},{"city":"Tashara","state":"Novosibirsk Oblast","population":3364,"lat":55.5195,"lng":83.5094},{"city":"Mochishche","state":"Novosibirsk Oblast","population":3314,"lat":55.1586,"lng":83.1229},{"city":"Novolugovoye","state":"Novosibirsk Oblast","population":3308,"lat":54.9792,"lng":83.1138},{"city":"Listvyanskiy","state":"Novosibirsk Oblast","population":2673,"lat":54.4399,"lng":83.4984},{"city":"Sadovyy","state":"Novosibirsk Oblast","population":2199,"lat":55.1361,"lng":82.9659},{"city":"Elitnyy","state":"Novosibirsk Oblast","population":1572,"lat":54.9118,"lng":82.9539},{"city":"Dubrovino","state":"Novosibirsk Oblast","population":1405,"lat":55.4718,"lng":83.2907},{"city":"Tagan","state":"Novosibirsk Oblast","population":894,"lat":54.95145,"lng":77.28702},{"city":"Bol’shoy Oyësh","state":"Novosibirsk Oblast","population":669,"lat":55.2864,"lng":82.7072},{"city":"Katkovo","state":"Novosibirsk Oblast","population":511,"lat":55.1218,"lng":82.5448}]}}