{"timezone":"Asia/Dushanbe","countries":{"Tajikistan":[{"city":"Dushanbe","state":"Dushanbe","population":679400,"lat":38.53575,"lng":68.77905},{"city":"Isfara","state":"Sughd","population":274000,"lat":40.12649,"lng":70.62526},{"city":"Istaravshan","state":"Sughd","population":273500,"lat":39.9142,"lng":69.00328},{"city":"Kŭlob","state":"Khatlon Province","population":214700,"lat":37.91459,"lng":69.78454},{"city":"Konibodom","state":"Sughd","population":211100,"lat":40.29414,"lng":70.43122},{"city":"Khujand","state":"Sughd","population":191000,"lat":40.28256,"lng":69.62216},{"city":"Bokhtar","state":"Khatlon Province","population":110800,"lat":37.83654,"lng":68.77762},{"city":"Qayroqqum","state":"Sughd","population":49200,"lat":40.26598,"lng":69.79585},{"city":"Vahdat","state":"Republican Subordination","population":45693,"lat":38.55632,"lng":69.01354},{"city":"Tursunzoda","state":"Republican Subordination","population":37000,"lat":38.51271,"lng":68.23163},{"city":"Buston","state":"Sughd","population":36900,"lat":40.23417,"lng":69.69481},{"city":"Panjakent","state":"Sughd","population":35085,"lat":39.49524,"lng":67.60931},{"city":"Zarhalol","state":"Khatlon Province","population":30689,"lat":37.46471,"lng":68.16947},{"city":"Khorugh","state":"Gorno-Badakhshan","population":30500,"lat":37.49039,"lng":71.55337},{"city":"Muchun","state":"Sughd","population":27835,"lat":39.88148,"lng":69.18219},{"city":"Ishqoshim","state":"Gorno-Badakhshan","population":26000,"lat":36.72484,"lng":71.61331},{"city":"Hisor","state":"Republican Subordination","population":23978,"lat":38.52504,"lng":68.55124},{"city":"Boshkengash","state":"Dushanbe","population":23696,"lat":38.46613,"lng":68.80533},{"city":"Dalyoni Bolo","state":"Sughd","population":23670,"lat":39.74897,"lng":68.99566},{"city":"Danghara","state":"Khatlon Province","population":22824,"lat":38.09578,"lng":69.33998},{"city":"Moskovskiy","state":"Khatlon Province","population":22100,"lat":37.60931,"lng":68.58094},{"city":"Hulbuk","state":"Khatlon Province","population":21736,"lat":37.80542,"lng":69.64516},{"city":"Farkhor","state":"Khatlon Province","population":21736,"lat":37.49219,"lng":69.40356},{"city":"Chubek","state":"Khatlon Province","population":19563,"lat":37.61453,"lng":69.70525},{"city":"Kolkhozobod","state":"Khatlon Province","population":18476,"lat":37.58823,"lng":68.65886},{"city":"Norak","state":"Khatlon Province","population":18122,"lat":38.38917,"lng":69.32272},{"city":"Istiqlol","state":"Sughd","population":17600,"lat":40.57017,"lng":69.64175},{"city":"Yovon","state":"Khatlon Province","population":17471,"lat":38.31408,"lng":69.03784},{"city":"Proletar","state":"Sughd","population":16441,"lat":40.16713,"lng":69.50163},{"city":"Vakhsh","state":"Khatlon Province","population":15215,"lat":37.71485,"lng":68.83456},{"city":"Nov","state":"Sughd","population":13833,"lat":40.1522,"lng":69.37076},{"city":"Amondara","state":"Sughd","population":13380,"lat":39.51435,"lng":67.8108},{"city":"Adrasmon","state":"Sughd","population":13372,"lat":40.64928,"lng":69.98472},{"city":"Bŭston","state":"Sughd","population":13043,"lat":40.52286,"lng":69.33307},{"city":"Shahritus","state":"Khatlon Province","population":13042,"lat":37.26206,"lng":68.13849},{"city":"Mŭ’minobod","state":"Khatlon Province","population":11955,"lat":38.10714,"lng":70.03213},{"city":"Shaydon","state":"Sughd","population":11705,"lat":40.66992,"lng":70.3502},{"city":"Murghob","state":"Gorno-Badakhshan","population":10815,"lat":38.17023,"lng":73.96674},{"city":"Rasht","state":"Republican Subordination","population":10771,"lat":39.02871,"lng":70.37446},{"city":"Avzikent","state":"Khatlon Province","population":10373,"lat":37.80333,"lng":69.27722},{"city":"Nijoní","state":"Sughd","population":10350,"lat":39.95943,"lng":68.92421},{"city":"Abdurahmoni Jomí","state":"Khatlon Province","population":9943,"lat":37.94636,"lng":68.80878},{"city":"Khodzha-Maston","state":"Republican Subordination","population":9781,"lat":38.74457,"lng":68.62702},{"city":"Dŭstí","state":"Khatlon Province","population":8700,"lat":37.34812,"lng":68.66398},{"city":"Sovet","state":"Khatlon Province","population":8695,"lat":38.0467,"lng":69.58822},{"city":"Gharavŭtí","state":"Khatlon Province","population":8474,"lat":37.56703,"lng":68.44668},{"city":"Pakhtakoron","state":"Sughd","population":8220,"lat":40.15709,"lng":68.74659},{"city":"Panj","state":"Khatlon Province","population":8019,"lat":37.23634,"lng":69.09911},{"city":"Bokhtariyon","state":"Khatlon Province","population":7900,"lat":37.88176,"lng":68.7297},{"city":"Roghun","state":"Republican Subordination","population":7731,"lat":38.78257,"lng":69.87081},{"city":"Kirov","state":"Khatlon Province","population":7696,"lat":37.81908,"lng":68.85905},{"city":"Obigarm","state":"Republican Subordination","population":7400,"lat":38.71731,"lng":69.70885},{"city":"Chorbogh","state":"Sughd","population":6357,"lat":39.42621,"lng":67.76025},{"city":"Tavildara","state":"Republican Subordination","population":6071,"lat":38.69529,"lng":70.48422},{"city":"Konsoy","state":"Sughd","population":6000,"lat":40.49155,"lng":69.70245},{"city":"Orzu","state":"Khatlon Province","population":5988,"lat":37.5582,"lng":68.81952},{"city":"Sarikhosor","state":"Khatlon Province","population":5894,"lat":38.53852,"lng":69.83077},{"city":"Jilikŭl","state":"Khatlon Province","population":5434,"lat":37.49167,"lng":68.53106},{"city":"Shahrinav","state":"Republican Subordination","population":5385,"lat":38.57085,"lng":68.33498},{"city":"Novobod","state":"Republican Subordination","population":5352,"lat":39.01084,"lng":70.15082},{"city":"Panji Poyon","state":"Khatlon Province","population":5303,"lat":37.19443,"lng":68.57721},{"city":"Bŭstonqal’a","state":"Khatlon Province","population":4900,"lat":37.84783,"lng":68.83125},{"city":"Oltintopkan","state":"Sughd","population":4823,"lat":40.65425,"lng":69.59811},{"city":"Neftobod","state":"Sughd","population":4603,"lat":40.21524,"lng":70.57193},{"city":"Boshchorbogh","state":"Khatlon Province","population":4237,"lat":37.52027,"lng":68.12825},{"city":"Rŭshon","state":"Gorno-Badakhshan","population":4031,"lat":37.94487,"lng":71.55745},{"city":"Shhriston","state":"Republican Subordination","population":4029,"lat":38.55571,"lng":68.98987},{"city":"Vorukh","state":"Sughd","population":3836,"lat":39.85125,"lng":70.58012},{"city":"Quruqsoy","state":"Sughd","population":3400,"lat":40.57648,"lng":69.37962},{"city":"Palos","state":"Sughd","population":3288,"lat":40.31628,"lng":69.73743},{"city":"Shŭrob","state":"Sughd","population":2900,"lat":40.04605,"lng":70.54117},{"city":"Karakenja","state":"Republican Subordination","population":2899,"lat":39.23585,"lng":71.52412},{"city":"Vanj","state":"Gorno-Badakhshan","population":2636,"lat":38.37078,"lng":71.45474},{"city":"Tagob","state":"Republican Subordination","population":2565,"lat":38.83827,"lng":68.89847},{"city":"Tartiki","state":"Khatlon Province","population":2342,"lat":37.58221,"lng":68.13347},{"city":"Zarxoq","state":"Sughd","population":2216,"lat":40.26665,"lng":70.56596},{"city":"Varzob","state":"Republican Subordination","population":2154,"lat":38.77369,"lng":68.81776},{"city":"Ayní","state":"Sughd","population":2128,"lat":39.39406,"lng":68.53766},{"city":"Qalaikhumb","state":"Gorno-Badakhshan","population":1611,"lat":38.45373,"lng":70.78902},{"city":"Kim","state":"Sughd","population":1600,"lat":40.20798,"lng":70.46882},{"city":"Darband","state":"Republican Subordination","population":1115,"lat":38.86776,"lng":69.96642},{"city":"Navgarzan","state":"Sughd","population":877,"lat":40.99827,"lng":70.42749},{"city":"Tajikobod","state":"Republican Subordination","population":0,"lat":39.12405,"lng":70.84009},{"city":"Shŭrobod","state":"Khatlon Province","population":0,"lat":37.84137,"lng":70.04865},{"city":"Shahriston","state":"Sughd","population":0,"lat":39.77447,"lng":68.80929},{"city":"Roshtqal’a","state":"Gorno-Badakhshan","population":0,"lat":37.25827,"lng":71.82591},{"city":"Ismoili Somoní","state":"Khatlon Province","population":0,"lat":37.76627,"lng":68.80126},{"city":"Obikiik","state":"Khatlon Province","population":0,"lat":38.16033,"lng":68.66605},{"city":"Moskva","state":"Khatlon Province","population":0,"lat":37.66101,"lng":69.62849},{"city":"Somoniyon","state":"Republican Subordination","population":0,"lat":38.44173,"lng":68.77458},{"city":"Khovaling","state":"Khatlon Province","population":0,"lat":38.34194,"lng":69.97531},{"city":"Levakant","state":"Khatlon Province","population":0,"lat":37.87136,"lng":68.92233},{"city":"Qubodiyon","state":"Khatlon Province","population":0,"lat":37.40973,"lng":68.18644},{"city":"Ghonchí","state":"Sughd","population":0,"lat":39.96238,"lng":69.12966},{"city":"Fayzobod","state":"Republican Subordination","population":0,"lat":38.54731,"lng":69.3198},{"city":"Jirghatol","state":"Republican Subordination","population":0,"lat":39.21966,"lng":71.19155},{"city":"Baljuvon","state":"Khatlon Province","population":0,"lat":38.30838,"lng":69.67672},{"city":"Roghun","state":"Republican Subordination","population":0,"lat":38.69331,"lng":69.73692},{"city":"Bahorí","state":"Khatlon Province","population":0,"lat":37.40195,"lng":67.99446},{"city":"Zafarobod","state":"Sughd","population":0,"lat":40.17603,"lng":68.84679},{"city":"Ghafurov","state":"Sughd","population":0,"lat":40.21571,"lng":69.72867},{"city":"Mehron","state":"Sughd","population":0,"lat":39.41691,"lng":69.28677}]}}