{"timezone":"Asia/Kuching","countries":{"Malaysia":[{"city":"Kota Kinabalu","state":"Sabah","population":500421,"lat":5.9749,"lng":116.0724},{"city":"Sandakan","state":"Sabah","population":439050,"lat":5.8402,"lng":118.1179},{"city":"Kuching","state":"Sarawak","population":402738,"lat":1.55,"lng":110.33333},{"city":"Tawau","state":"Sabah","population":372615,"lat":4.24482,"lng":117.89115},{"city":"Miri","state":"Sarawak","population":300543,"lat":4.39928,"lng":113.99163},{"city":"Sibu","state":"Sarawak","population":198239,"lat":2.3,"lng":111.81667},{"city":"Bintulu","state":"Sarawak","population":151617,"lat":3.16667,"lng":113.03333},{"city":"Lahad Datu","state":"Sabah","population":105622,"lat":5.02298,"lng":118.32897},{"city":"Marudi","state":"Sarawak","population":90100,"lat":4.18333,"lng":114.31667},{"city":"Putatan","state":"Sabah","population":78340,"lat":5.9258,"lng":116.06094},{"city":"Donggongon","state":"Sabah","population":78086,"lat":5.90702,"lng":116.10146},{"city":"Keningau","state":"Sabah","population":77650,"lat":5.3378,"lng":116.1602},{"city":"Semporna","state":"Sabah","population":62641,"lat":4.48178,"lng":118.61119},{"city":"Serian","state":"Sarawak","population":58059,"lat":1.16667,"lng":110.56667},{"city":"Bandar Labuan","state":"Sabah","population":54752,"lat":5.28319,"lng":115.25371},{"city":"Bau","state":"Sarawak","population":52643,"lat":1.41667,"lng":110.15},{"city":"Niah","state":"Sarawak","population":48875,"lat":3.86203,"lng":113.71521},{"city":"Sri Aman","state":"Sarawak","population":47313,"lat":1.24722,"lng":111.45278},{"city":"Sarikei","state":"Sarawak","population":44039,"lat":2.11667,"lng":111.51667},{"city":"Sipitang","state":"Sabah","population":39300,"lat":5.07903,"lng":115.54964},{"city":"Limbang","state":"Sarawak","population":38093,"lat":4.75477,"lng":115.01011},{"city":"Betong","state":"Sarawak","population":36303,"lat":1.4,"lng":111.51667},{"city":"Petagas","state":"Sabah","population":35844,"lat":5.91161,"lng":116.04991},{"city":"Sibu Jaya","state":"Sarawak","population":35000,"lat":2.24026,"lng":111.97135},{"city":"Mukah","state":"Sarawak","population":33478,"lat":2.89435,"lng":112.09145},{"city":"Kapit","state":"Sarawak","population":33014,"lat":1.99546,"lng":112.93254},{"city":"Kudat","state":"Sabah","population":32393,"lat":6.88732,"lng":116.82364},{"city":"Tatau","state":"Sarawak","population":31920,"lat":2.88333,"lng":112.85},{"city":"Bandar Nabawan","state":"Sabah","population":31807,"lat":5.0393,"lng":116.4274},{"city":"Sebauh","state":"Sarawak","population":29606,"lat":3.11667,"lng":113.26667},{"city":"Tambunan","state":"Sabah","population":29294,"lat":5.71667,"lng":116.4},{"city":"Beluru","state":"Sarawak","population":28695,"lat":3.98333,"lng":114.1},{"city":"Siburan","state":"Sarawak","population":27286,"lat":1.36667,"lng":110.4},{"city":"Lundu","state":"Sarawak","population":26372,"lat":1.67439,"lng":109.85171},{"city":"Lawas","state":"Sarawak","population":26002,"lat":4.8604,"lng":115.409},{"city":"Tebedu","state":"Sarawak","population":25232,"lat":1.02656,"lng":110.36331},{"city":"Kanowit","state":"Sarawak","population":24700,"lat":2.1,"lng":112.15},{"city":"Kuala Penyu","state":"Sabah","population":24200,"lat":5.5714,"lng":115.5984},{"city":"Simunjan","state":"Sarawak","population":23011,"lat":1.38333,"lng":110.75},{"city":"Belaga","state":"Sarawak","population":22502,"lat":2.7,"lng":113.78333},{"city":"Dalat","state":"Sarawak","population":21147,"lat":2.66667,"lng":112.08333},{"city":"Maradong","state":"Sarawak","population":20299,"lat":2.08333,"lng":111.61667},{"city":"Selangau","state":"Sarawak","population":19844,"lat":2.52477,"lng":112.32543},{"city":"Daro","state":"Sarawak","population":19477,"lat":2.51688,"lng":111.43002},{"city":"Ranau","state":"Sabah","population":19294,"lat":5.9538,"lng":116.6641},{"city":"Papar","state":"Sabah","population":19278,"lat":5.73333,"lng":115.93333},{"city":"Saratok","state":"Sarawak","population":19009,"lat":1.73333,"lng":111.33333},{"city":"Beaufort","state":"Sabah","population":15855,"lat":5.3473,"lng":115.7455},{"city":"Kinarut","state":"Sabah","population":15716,"lat":5.8231,"lng":116.0466},{"city":"Pakan","state":"Sarawak","population":15462,"lat":1.88333,"lng":111.68333},{"city":"Julau","state":"Sarawak","population":15333,"lat":2.01667,"lng":111.91667},{"city":"Engkilili","state":"Sarawak","population":15031,"lat":1.13864,"lng":111.66665},{"city":"Pusa","state":"Sarawak","population":14273,"lat":1.58333,"lng":111.25},{"city":"Kampung Kunak","state":"Sabah","population":13823,"lat":4.68577,"lng":118.24908},{"city":"Matu","state":"Sarawak","population":13327,"lat":2.68333,"lng":111.53333},{"city":"Sebuyau","state":"Sarawak","population":13200,"lat":1.51667,"lng":110.93333},{"city":"Kota Belud","state":"Sabah","population":12825,"lat":6.351,"lng":116.4305},{"city":"Kota Samarahan","state":"Sarawak","population":12724,"lat":1.46031,"lng":110.48821},{"city":"Kobang","state":"Sabah","population":11682,"lat":4.44188,"lng":118.69287},{"city":"Kampung Kundassang","state":"Sabah","population":11251,"lat":5.9824,"lng":116.5712},{"city":"Spaoh","state":"Sarawak","population":11063,"lat":1.5,"lng":111.5},{"city":"Kinabatangan","state":"Sabah","population":10256,"lat":5.58602,"lng":117.85083},{"city":"Taman Rajawali","state":"Sabah","population":10000,"lat":5.89477,"lng":118.04576},{"city":"Song","state":"Sarawak","population":9961,"lat":2.01667,"lng":112.55},{"city":"Pantu","state":"Sarawak","population":9852,"lat":1.13968,"lng":111.11771},{"city":"Lubok Antu","state":"Sarawak","population":9542,"lat":1.04186,"lng":111.83398},{"city":"Balingian","state":"Sarawak","population":8797,"lat":2.93057,"lng":112.54135},{"city":"Bandau","state":"Sabah","population":8716,"lat":6.5205,"lng":116.7534},{"city":"Binatang","state":"Sarawak","population":7912,"lat":2.16667,"lng":111.63333},{"city":"Debak","state":"Sarawak","population":7907,"lat":1.56667,"lng":111.41667},{"city":"Sematan","state":"Sarawak","population":7107,"lat":1.8,"lng":109.76667},{"city":"Nanga Medamit","state":"Sarawak","population":6968,"lat":4.46667,"lng":114.91667},{"city":"Sundar","state":"Sarawak","population":6806,"lat":4.9,"lng":115.2},{"city":"Roban","state":"Sarawak","population":6722,"lat":1.91667,"lng":111.33333},{"city":"Oya","state":"Sarawak","population":6027,"lat":2.86667,"lng":111.88333},{"city":"Long Lama","state":"Sarawak","population":5870,"lat":3.76667,"lng":114.4},{"city":"Bongawan","state":"Sabah","population":5594,"lat":5.53333,"lng":115.85},{"city":"Maludam","state":"Sarawak","population":5284,"lat":1.65,"lng":111.03333},{"city":"Tenom","state":"Sabah","population":5148,"lat":5.11922,"lng":115.93719},{"city":"Long Bedian","state":"Sarawak","population":4107,"lat":3.8,"lng":114.73333},{"city":"Budu","state":"Sarawak","population":4096,"lat":1.76667,"lng":111.5},{"city":"Lingga","state":"Sarawak","population":4073,"lat":1.35,"lng":111.16667},{"city":"Kampong Menumbok","state":"Sabah","population":4000,"lat":5.30316,"lng":115.36997},{"city":"Trusan","state":"Sarawak","population":3796,"lat":4.7849,"lng":115.2728},{"city":"Inanam","state":"Sabah","population":3604,"lat":5.9922,"lng":116.1321},{"city":"Data Kakus","state":"Sarawak","population":3350,"lat":2.65465,"lng":113.62249},{"city":"Beluran","state":"Sabah","population":3132,"lat":5.8956,"lng":117.5557},{"city":"Nanga Merit","state":"Sarawak","population":3016,"lat":2.28333,"lng":113.13333},{"city":"Igan","state":"Sarawak","population":2989,"lat":2.82281,"lng":111.70794},{"city":"Wallace Bay","state":"Sabah","population":2987,"lat":4.2555,"lng":117.6678},{"city":"Belawai","state":"Sarawak","population":2823,"lat":2.23333,"lng":111.21667},{"city":"Mulu","state":"Sarawak","population":2706,"lat":1.68333,"lng":111.38333},{"city":"Kuala Baram","state":"Sarawak","population":2600,"lat":4.5855,"lng":113.98974},{"city":"Kampung Kuala Matu","state":"Sarawak","population":2423,"lat":2.71667,"lng":111.46667},{"city":"Lidung Jelo","state":"Sarawak","population":1900,"lat":2.64848,"lng":114.78653},{"city":"Long Ampan Aing or Abanang","state":"Sarawak","population":1850,"lat":2.65671,"lng":114.73675},{"city":"Metro City New Township","state":"Sarawak","population":1500,"lat":1.56798,"lng":110.30588},{"city":"Bekenu","state":"Sarawak","population":1113,"lat":4.05392,"lng":113.84407},{"city":"Empaong","state":"Sarawak","population":1015,"lat":1.41667,"lng":111.53333},{"city":"Batu Niah","state":"Sarawak","population":1000,"lat":3.8,"lng":113.75},{"city":"Kg Ramayah","state":"Sabah","population":600,"lat":5.88434,"lng":116.09319}]}}