{"timezone":"Europe/Stockholm","countries":{"Sweden":[{"city":"Stockholm","state":"Stockholm","population":1515017,"lat":59.32938,"lng":18.06871},{"city":"Göteborg","state":"Västra Götaland","population":608462,"lat":57.70716,"lng":11.96679},{"city":"Malmö","state":"Skåne","population":362133,"lat":55.60587,"lng":13.00073},{"city":"Uppsala","state":"Uppsala","population":177074,"lat":59.85882,"lng":17.63889},{"city":"Linköping","state":"Östergötland","population":166673,"lat":58.41086,"lng":15.62157},{"city":"Örebro","state":"Örebro","population":155989,"lat":59.27412,"lng":15.2066},{"city":"Sollentuna","state":"Stockholm","population":139606,"lat":59.42804,"lng":17.95093},{"city":"Umeå","state":"Västerbotten","population":130224,"lat":63.82842,"lng":20.25972},{"city":"Västerås","state":"Västmanland","population":127799,"lat":59.61617,"lng":16.55276},{"city":"Södermalm","state":"Stockholm","population":127323,"lat":59.31278,"lng":18.07577},{"city":"Jönköping","state":"Jönköping","population":112766,"lat":57.78145,"lng":14.15618},{"city":"Helsingborg","state":"Skåne","population":104250,"lat":56.04673,"lng":12.69437},{"city":"Norrköping","state":"Östergötland","population":93765,"lat":58.59419,"lng":16.1826},{"city":"Huddinge","state":"Stockholm","population":90182,"lat":59.23705,"lng":17.98192},{"city":"Lund","state":"Skåne","population":87244,"lat":55.70584,"lng":13.19321},{"city":"Luleå","state":"Norrbotten","population":77832,"lat":65.58415,"lng":22.15465},{"city":"Haninge","state":"Stockholm","population":74968,"lat":59.16775,"lng":18.14478},{"city":"Gävle","state":"Gävleborg","population":74884,"lat":60.67452,"lng":17.14174},{"city":"Bromma","state":"Stockholm","population":72000,"lat":59.34,"lng":17.94},{"city":"Borås","state":"Västra Götaland","population":71700,"lat":57.72101,"lng":12.9401},{"city":"Växjö","state":"Kronoberg","population":71282,"lat":56.87767,"lng":14.80906},{"city":"Södertälje","state":"Stockholm","population":70777,"lat":59.19554,"lng":17.62525},{"city":"Halmstad","state":"Halland","population":70480,"lat":56.67446,"lng":12.85676},{"city":"Kungsholmen","state":"Stockholm","population":69363,"lat":59.33183,"lng":18.04118},{"city":"Eskilstuna","state":"Södermanland","population":67359,"lat":59.36661,"lng":16.5077},{"city":"Solna","state":"Stockholm","population":66909,"lat":59.36004,"lng":18.00086},{"city":"Karlskrona","state":"Blekinge","population":66675,"lat":56.16156,"lng":15.58661},{"city":"Karlstad","state":"Värmland","population":61492,"lat":59.3793,"lng":13.50357},{"city":"Mölndal","state":"Västra Götaland","population":59430,"lat":57.6554,"lng":12.01378},{"city":"Vasastaden","state":"Stockholm","population":58458,"lat":59.35,"lng":18.03333},{"city":"Täby","state":"Stockholm","population":58123,"lat":59.4439,"lng":18.06872},{"city":"Sundsvall","state":"Västernorrland","population":57606,"lat":62.39129,"lng":17.3063},{"city":"Östersund","state":"Jämtland","population":49806,"lat":63.1792,"lng":14.63566},{"city":"Trollhättan","state":"Västra Götaland","population":48573,"lat":58.28365,"lng":12.28864},{"city":"Lidingö","state":"Stockholm","population":42466,"lat":59.36667,"lng":18.13333},{"city":"Borlänge","state":"Dalarna","population":41955,"lat":60.4858,"lng":15.43714},{"city":"Tumba","state":"Stockholm","population":40832,"lat":59.19858,"lng":17.83317},{"city":"Kristianstad","state":"Skåne","population":39762,"lat":56.03129,"lng":14.15242},{"city":"Nyköping","state":"Södermanland","population":38780,"lat":58.753,"lng":17.00788},{"city":"Kalmar","state":"Kalmar","population":38408,"lat":56.66157,"lng":16.36163},{"city":"Falun","state":"Dalarna","population":37291,"lat":60.60357,"lng":15.62597},{"city":"Skövde","state":"Västra Götaland","population":36842,"lat":58.39118,"lng":13.84506},{"city":"Upplands Väsby","state":"Stockholm","population":36534,"lat":59.51839,"lng":17.91128},{"city":"Östermalm","state":"Stockholm","population":36418,"lat":59.33879,"lng":18.08487},{"city":"Skellefteå","state":"Västerbotten","population":35516,"lat":64.75067,"lng":20.95279},{"city":"Uddevalla","state":"Västra Götaland","population":34781,"lat":58.34784,"lng":11.9424},{"city":"Sundbyberg","state":"Stockholm","population":34529,"lat":59.36128,"lng":17.97114},{"city":"Varberg","state":"Halland","population":34248,"lat":57.10557,"lng":12.25078},{"city":"Åkersberga","state":"Stockholm","population":32659,"lat":59.47944,"lng":18.29967},{"city":"Örnsköldsvik","state":"Västernorrland","population":32493,"lat":63.29091,"lng":18.71525},{"city":"Danderyd","state":"Stockholm","population":32425,"lat":59.40398,"lng":18.02376},{"city":"Landskrona","state":"Skåne","population":32229,"lat":55.8708,"lng":12.83016},{"city":"Vallentuna","state":"Stockholm","population":31937,"lat":59.53436,"lng":18.07758},{"city":"Motala","state":"Östergötland","population":30944,"lat":58.53706,"lng":15.03649},{"city":"Trelleborg","state":"Skåne","population":29316,"lat":55.37514,"lng":13.15691},{"city":"Majorna","state":"Västra Götaland","population":29254,"lat":57.69195,"lng":11.91605},{"city":"Partille","state":"Västra Götaland","population":28648,"lat":57.7395,"lng":12.10642},{"city":"Karlskoga","state":"Örebro","population":27490,"lat":59.32667,"lng":14.52386},{"city":"Märsta","state":"Stockholm","population":27034,"lat":59.62157,"lng":17.85476},{"city":"Lerum","state":"Västra Götaland","population":26913,"lat":57.77051,"lng":12.26904},{"city":"Alingsås","state":"Västra Götaland","population":26329,"lat":57.93033,"lng":12.53345},{"city":"Nacka","state":"Stockholm","population":25170,"lat":59.31053,"lng":18.16372},{"city":"Härnösand","state":"Västernorrland","population":25012,"lat":62.63228,"lng":17.93794},{"city":"Sandviken","state":"Gävleborg","population":24724,"lat":60.61667,"lng":16.76667},{"city":"Kungälv","state":"Västra Götaland","population":24101,"lat":57.87096,"lng":11.98054},{"city":"Falkenberg","state":"Halland","population":24099,"lat":56.90552,"lng":12.49118},{"city":"Boo","state":"Stockholm","population":24052,"lat":59.33333,"lng":18.28333},{"city":"Jakobsberg","state":"Stockholm","population":24046,"lat":59.42268,"lng":17.83508},{"city":"Visby","state":"Gotland","population":23402,"lat":57.64089,"lng":18.29602},{"city":"Katrineholm","state":"Södermanland","population":23283,"lat":58.99587,"lng":16.20721},{"city":"Ängelholm","state":"Skåne","population":23240,"lat":56.2428,"lng":12.86219},{"city":"Vänersborg","state":"Västra Götaland","population":23119,"lat":58.38075,"lng":12.3234},{"city":"Björlanda","state":"Västra Götaland","population":23088,"lat":57.76667,"lng":11.83333},{"city":"Piteå","state":"Norrbotten","population":23067,"lat":65.31717,"lng":21.47944},{"city":"Lidköping","state":"Västra Götaland","population":22988,"lat":58.50517,"lng":13.15765},{"city":"Enköping","state":"Uppsala","population":22553,"lat":59.63607,"lng":17.07768},{"city":"Huskvarna","state":"Jönköping","population":21500,"lat":57.78596,"lng":14.30214},{"city":"Västervik","state":"Kalmar","population":21178,"lat":57.7584,"lng":16.63733},{"city":"Gustavsberg","state":"Stockholm","population":20774,"lat":59.32684,"lng":18.38975},{"city":"Karlshamn","state":"Blekinge","population":20112,"lat":56.1706,"lng":14.86188},{"city":"Norrtälje","state":"Stockholm","population":19365,"lat":59.75799,"lng":18.70496},{"city":"Rinkeby","state":"Stockholm","population":19349,"lat":59.38708,"lng":17.92754},{"city":"Hässleholm","state":"Skåne","population":19309,"lat":56.15905,"lng":13.76638},{"city":"Värnamo","state":"Jönköping","population":19061,"lat":57.18604,"lng":14.04001},{"city":"Hässelby Villastad","state":"Stockholm","population":19000,"lat":59.38,"lng":17.80867},{"city":"Ystad","state":"Skåne","population":18806,"lat":55.42966,"lng":13.82041},{"city":"Kungsbacka","state":"Halland","population":18698,"lat":57.48719,"lng":12.07612},{"city":"Eslöv","state":"Skåne","population":18592,"lat":55.83928,"lng":13.30393},{"city":"Kristinehamn","state":"Värmland","population":18557,"lat":59.30978,"lng":14.10808},{"city":"Köping","state":"Västmanland","population":18355,"lat":59.51404,"lng":15.99255},{"city":"Oskarshamn","state":"Kalmar","population":18287,"lat":57.26455,"lng":16.44837},{"city":"Gamla Uppsala","state":"Uppsala","population":17973,"lat":59.89817,"lng":17.63386},{"city":"Nässjö","state":"Jönköping","population":17719,"lat":57.65307,"lng":14.69676},{"city":"Mölnlycke","state":"Västra Götaland","population":17579,"lat":57.65893,"lng":12.11792},{"city":"Falköping","state":"Västra Götaland","population":17170,"lat":58.17347,"lng":13.55068},{"city":"Tensta","state":"Stockholm","population":17083,"lat":59.3939,"lng":17.90111},{"city":"Kiruna","state":"Norrbotten","population":17037,"lat":67.85572,"lng":20.22513},{"city":"Råsunda","state":"Stockholm","population":16877,"lat":59.36588,"lng":17.99569},{"city":"Boden","state":"Norrbotten","population":16830,"lat":65.82518,"lng":21.68864},{"city":"Årsta","state":"Stockholm","population":16807,"lat":59.2978,"lng":18.0514},{"city":"Kumla","state":"Örebro","population":16663,"lat":59.1277,"lng":15.14341},{"city":"Mariestad","state":"Västra Götaland","population":16122,"lat":58.70971,"lng":13.82367},{"city":"Hudiksvall","state":"Gävleborg","population":16081,"lat":61.72744,"lng":17.10558},{"city":"Tullinge","state":"Stockholm","population":16000,"lat":59.2,"lng":17.9},{"city":"Västra Frölunda","state":"Västra Götaland","population":15924,"lat":57.64667,"lng":11.92944},{"city":"Ljungby","state":"Kronoberg","population":15785,"lat":56.83324,"lng":13.94082},{"city":"Staffanstorp","state":"Skåne","population":15373,"lat":55.64277,"lng":13.20638},{"city":"Ludvika","state":"Dalarna","population":15245,"lat":60.14959,"lng":15.18776},{"city":"Kinna","state":"Västra Götaland","population":15019,"lat":57.50728,"lng":12.69463},{"city":"Höllviken","state":"Skåne","population":14889,"lat":55.40982,"lng":12.9558},{"city":"Billdal","state":"Västra Götaland","population":14874,"lat":57.56667,"lng":11.93333},{"city":"Höganäs","state":"Skåne","population":14778,"lat":56.19971,"lng":12.55795},{"city":"Tranås","state":"Jönköping","population":14550,"lat":58.03717,"lng":14.9782},{"city":"Nynäshamn","state":"Stockholm","population":14532,"lat":58.90337,"lng":17.94793},{"city":"Arvika","state":"Värmland","population":13926,"lat":59.65528,"lng":12.58518},{"city":"Bollnäs","state":"Gävleborg","population":13716,"lat":61.34817,"lng":16.39464},{"city":"Strängnäs","state":"Södermanland","population":13693,"lat":59.37741,"lng":17.03119},{"city":"Skoghall","state":"Värmland","population":13605,"lat":59.32324,"lng":13.46552},{"city":"Vetlanda","state":"Jönköping","population":13430,"lat":57.42887,"lng":15.07762},{"city":"Bålsta","state":"Uppsala","population":13138,"lat":59.5671,"lng":17.52781},{"city":"Stenungsund","state":"Västra Götaland","population":13093,"lat":58.07046,"lng":11.8181},{"city":"Sala","state":"Västmanland","population":13087,"lat":59.91993,"lng":16.60655},{"city":"Bunkeflostrand","state":"Skåne","population":13048,"lat":55.54478,"lng":12.92375},{"city":"Nybro","state":"Kalmar","population":13039,"lat":56.74461,"lng":15.90714},{"city":"Mjölby","state":"Östergötland","population":12858,"lat":58.32595,"lng":15.12365},{"city":"Finspång","state":"Östergötland","population":12807,"lat":58.70578,"lng":15.76739},{"city":"Oxie","state":"Skåne","population":12665,"lat":55.54014,"lng":13.09605},{"city":"Ronneby","state":"Blekinge","population":12612,"lat":56.20999,"lng":15.27602},{"city":"Mora","state":"Dalarna","population":12602,"lat":61.00704,"lng":14.54316},{"city":"Lomma","state":"Skåne","population":12368,"lat":55.67244,"lng":13.06849},{"city":"Onsala","state":"Halland","population":12275,"lat":57.42531,"lng":12.02903},{"city":"Söderhamn","state":"Gävleborg","population":12259,"lat":61.30373,"lng":17.05921},{"city":"Höör","state":"Skåne","population":12152,"lat":55.93444,"lng":13.5385},{"city":"Avesta","state":"Dalarna","population":11949,"lat":60.14274,"lng":16.16295},{"city":"Fagersta","state":"Västmanland","population":11936,"lat":60.00418,"lng":15.79316},{"city":"Svedala","state":"Skåne","population":11796,"lat":55.50788,"lng":13.23515},{"city":"Handen","state":"Stockholm","population":11524,"lat":59.16809,"lng":18.13796},{"city":"Ekerö","state":"Stockholm","population":11505,"lat":59.291,"lng":17.81212},{"city":"Skara","state":"Västra Götaland","population":11437,"lat":58.38659,"lng":13.43836},{"city":"Alby","state":"Stockholm","population":11400,"lat":59.2335,"lng":17.8538},{"city":"Oxelösund","state":"Södermanland","population":11157,"lat":58.67057,"lng":17.10152},{"city":"Lindome","state":"Västra Götaland","population":10942,"lat":57.56667,"lng":12.08333},{"city":"Arboga","state":"Västmanland","population":10841,"lat":59.39387,"lng":15.83882},{"city":"Hallstahammar","state":"Västmanland","population":10787,"lat":59.61395,"lng":16.22846},{"city":"Jordbro","state":"Stockholm","population":10757,"lat":59.14972,"lng":18.11667},{"city":"Ulricehamn","state":"Västra Götaland","population":10629,"lat":57.79159,"lng":13.41422},{"city":"Bjuv","state":"Skåne","population":10602,"lat":56.08372,"lng":12.91914},{"city":"Segeltorp","state":"Stockholm","population":10536,"lat":59.27597,"lng":17.93072},{"city":"Timrå","state":"Västernorrland","population":10495,"lat":62.48654,"lng":17.32613},{"city":"Gällivare","state":"Norrbotten","population":10362,"lat":67.13387,"lng":20.65278},{"city":"Kista","state":"Stockholm","population":10254,"lat":59.40316,"lng":17.94479},{"city":"Gislaved","state":"Jönköping","population":10180,"lat":57.3044,"lng":13.54078},{"city":"Eksjö","state":"Jönköping","population":10157,"lat":57.66643,"lng":14.97205},{"city":"Kungsängen","state":"Stockholm","population":10151,"lat":59.47857,"lng":17.74834},{"city":"Torslanda","state":"Västra Götaland","population":10129,"lat":57.72432,"lng":11.77013},{"city":"Vårby","state":"Stockholm","population":10115,"lat":59.26671,"lng":17.88407},{"city":"Bjärred","state":"Skåne","population":9844,"lat":55.71667,"lng":13.01667},{"city":"Åhus","state":"Skåne","population":9840,"lat":55.91667,"lng":14.28333},{"city":"Sävja","state":"Uppsala","population":9723,"lat":59.81872,"lng":17.69958},{"city":"Lindesberg","state":"Örebro","population":9571,"lat":59.59202,"lng":15.2304},{"city":"Älmhult","state":"Kronoberg","population":9495,"lat":56.55146,"lng":14.13827},{"city":"Saltsjöbaden","state":"Stockholm","population":9477,"lat":59.28333,"lng":18.3},{"city":"Åmål","state":"Västra Götaland","population":9373,"lat":59.051,"lng":12.70492},{"city":"Kävlinge","state":"Skåne","population":9320,"lat":55.79188,"lng":13.11021},{"city":"Älta","state":"Stockholm","population":9274,"lat":59.26667,"lng":18.18333},{"city":"Åstorp","state":"Skåne","population":9215,"lat":56.13566,"lng":12.9443},{"city":"Säffle","state":"Värmland","population":9150,"lat":59.13229,"lng":12.92888},{"city":"Arlöv","state":"Skåne","population":9108,"lat":55.63248,"lng":13.07141},{"city":"Sigtuna","state":"Stockholm","population":9074,"lat":59.61731,"lng":17.72361},{"city":"Sölvesborg","state":"Blekinge","population":8972,"lat":56.05205,"lng":14.57525},{"city":"Torshälla","state":"Södermanland","population":8928,"lat":59.41667,"lng":16.46667},{"city":"Djursholm","state":"Stockholm","population":8856,"lat":59.39926,"lng":18.05619},{"city":"Landvetter","state":"Västra Götaland","population":8839,"lat":57.68665,"lng":12.21169},{"city":"Kvissleby","state":"Västernorrland","population":8785,"lat":62.29361,"lng":17.375},{"city":"Alvesta","state":"Kronoberg","population":8627,"lat":56.89935,"lng":14.55559},{"city":"Lycksele","state":"Västerbotten","population":8545,"lat":64.59537,"lng":18.67351},{"city":"Bankeryd","state":"Jönköping","population":8506,"lat":57.86021,"lng":14.124},{"city":"Klippan","state":"Skåne","population":8411,"lat":56.13559,"lng":13.13086},{"city":"Tibro","state":"Västra Götaland","population":8396,"lat":58.42453,"lng":14.16162},{"city":"Bro","state":"Stockholm","population":8266,"lat":59.51667,"lng":17.63333},{"city":"Tidaholm","state":"Västra Götaland","population":8175,"lat":58.18035,"lng":13.95824},{"city":"Akalla","state":"Stockholm","population":8153,"lat":59.41465,"lng":17.91398},{"city":"Hallsberg","state":"Örebro","population":8146,"lat":59.06463,"lng":15.10993},{"city":"Fisksätra","state":"Stockholm","population":8117,"lat":59.29153,"lng":18.2549},{"city":"Skurup","state":"Skåne","population":8040,"lat":55.47839,"lng":13.50186},{"city":"Vimmerby","state":"Kalmar","population":8037,"lat":57.66588,"lng":15.85515},{"city":"Gårdsten","state":"Västra Götaland","population":8025,"lat":57.8048,"lng":12.02883},{"city":"Brevik","state":"Stockholm","population":8024,"lat":59.35,"lng":18.2},{"city":"Knivsta","state":"Uppsala","population":7977,"lat":59.72564,"lng":17.78753},{"city":"Hammarkullen","state":"Västra Götaland","population":7914,"lat":57.78049,"lng":12.03604},{"city":"Sjöbo","state":"Skåne","population":7910,"lat":55.63135,"lng":13.70622},{"city":"Bromölla","state":"Skåne","population":7854,"lat":56.07551,"lng":14.46958},{"city":"Habo","state":"Jönköping","population":7740,"lat":57.91185,"lng":14.07444},{"city":"Lysekil","state":"Västra Götaland","population":7734,"lat":58.27429,"lng":11.43576},{"city":"Kil","state":"Värmland","population":7627,"lat":59.50234,"lng":13.31277},{"city":"Osby","state":"Skåne","population":7554,"lat":56.38165,"lng":13.99364},{"city":"Olofström","state":"Blekinge","population":7526,"lat":56.2773,"lng":14.53402},{"city":"Fittja","state":"Stockholm","population":7500,"lat":59.24868,"lng":17.85991},{"city":"Kalix","state":"Norrbotten","population":7495,"lat":65.85298,"lng":23.15645},{"city":"Mariastaden","state":"Skåne","population":7487,"lat":56.08492,"lng":12.69445},{"city":"Hörby","state":"Skåne","population":7459,"lat":55.85238,"lng":13.66094},{"city":"Söderköping","state":"Östergötland","population":7418,"lat":58.48057,"lng":16.32221},{"city":"Sollefteå","state":"Västernorrland","population":7399,"lat":63.16667,"lng":17.26667},{"city":"Hedemora","state":"Dalarna","population":7371,"lat":60.27973,"lng":15.98855},{"city":"Nykvarn","state":"Stockholm","population":7327,"lat":59.17718,"lng":17.4323},{"city":"Bergshamra","state":"Stockholm","population":7300,"lat":59.38083,"lng":18.03427},{"city":"Ljusdal","state":"Gävleborg","population":7259,"lat":61.82883,"lng":16.09126},{"city":"Degerfors","state":"Örebro","population":7190,"lat":59.23797,"lng":14.43077},{"city":"Strömstad","state":"Västra Götaland","population":7176,"lat":58.93945,"lng":11.1712},{"city":"Valbo","state":"Gävleborg","population":7147,"lat":60.65,"lng":17.03333},{"city":"Lövgärdet","state":"Västra Götaland","population":7113,"lat":57.81555,"lng":12.03861},{"city":"Skanör med Falsterbo","state":"Skåne","population":7077,"lat":55.4,"lng":12.85},{"city":"Åtvidaberg","state":"Östergötland","population":7014,"lat":58.20152,"lng":15.9977},{"city":"Åby","state":"Östergötland","population":6917,"lat":58.66667,"lng":16.18333},{"city":"Tomelilla","state":"Skåne","population":6826,"lat":55.54293,"lng":13.9546},{"city":"Kållered","state":"Västra Götaland","population":6784,"lat":57.60992,"lng":12.05106},{"city":"Simrishamn","state":"Skåne","population":6779,"lat":55.55653,"lng":14.35037},{"city":"Ljungsbro","state":"Östergötland","population":6763,"lat":58.51667,"lng":15.5},{"city":"Haparanda","state":"Norrbotten","population":6679,"lat":65.83549,"lng":24.13676},{"city":"Nora","state":"Örebro","population":6597,"lat":59.51926,"lng":15.03979},{"city":"Flen","state":"Södermanland","population":6594,"lat":59.05834,"lng":16.58781},{"city":"Kramfors","state":"Västernorrland","population":6582,"lat":62.93161,"lng":17.77646},{"city":"Laholm","state":"Halland","population":6527,"lat":56.51207,"lng":13.04371},{"city":"Vellinge","state":"Skåne","population":6496,"lat":55.47124,"lng":13.01971},{"city":"Löddeköpinge","state":"Skåne","population":6481,"lat":55.76667,"lng":13.01667},{"city":"Forshaga","state":"Värmland","population":6361,"lat":59.52541,"lng":13.48127},{"city":"Storvreta","state":"Uppsala","population":6340,"lat":59.95933,"lng":17.70588},{"city":"Södra Sandby","state":"Skåne","population":6306,"lat":55.71677,"lng":13.34659},{"city":"Dalby","state":"Skåne","population":6302,"lat":55.66655,"lng":13.34976},{"city":"Skutskär","state":"Uppsala","population":6279,"lat":60.62507,"lng":17.41552},{"city":"Surahammar","state":"Västmanland","population":6270,"lat":59.70725,"lng":16.22188},{"city":"Hjo","state":"Västra Götaland","population":6203,"lat":58.30133,"lng":14.28784},{"city":"Filipstad","state":"Värmland","population":6119,"lat":59.71236,"lng":14.16831},{"city":"Leksand","state":"Dalarna","population":6107,"lat":60.7303,"lng":14.99994},{"city":"Hofors","state":"Gävleborg","population":6090,"lat":60.54573,"lng":16.28668},{"city":"Åsa","state":"Halland","population":6084,"lat":57.35,"lng":12.11667},{"city":"Järna","state":"Stockholm","population":6038,"lat":59.09165,"lng":17.56615},{"city":"Nykvarn","state":"Stockholm","population":6032,"lat":59.8,"lng":18.3},{"city":"Gråbo","state":"Västra Götaland","population":6021,"lat":57.83625,"lng":12.29954},{"city":"Malmberget","state":"Norrbotten","population":6017,"lat":67.17529,"lng":20.65495},{"city":"Surte","state":"Västra Götaland","population":6003,"lat":57.82533,"lng":12.01604},{"city":"Holmsund","state":"Västerbotten","population":5962,"lat":63.70602,"lng":20.36409},{"city":"Åkarp","state":"Skåne","population":5959,"lat":55.65396,"lng":13.11107},{"city":"Södra Sandby","state":"Kalmar","population":5941,"lat":56.56667,"lng":16.61667},{"city":"Rydebäck","state":"Skåne","population":5904,"lat":55.96667,"lng":12.76667},{"city":"Kungsör","state":"Västmanland","population":5885,"lat":59.42245,"lng":16.09656},{"city":"Perstorp","state":"Skåne","population":5847,"lat":56.13829,"lng":13.39476},{"city":"Vi","state":"Västernorrland","population":5841,"lat":62.43333,"lng":17.41667},{"city":"Trosa","state":"Södermanland","population":5836,"lat":58.89621,"lng":17.54812},{"city":"Tierp","state":"Uppsala","population":5826,"lat":60.34269,"lng":17.51812},{"city":"Gnesta","state":"Södermanland","population":5772,"lat":59.04751,"lng":17.31191},{"city":"Lindsdal","state":"Kalmar","population":5709,"lat":56.73333,"lng":16.3},{"city":"Vadstena","state":"Östergötland","population":5674,"lat":58.44863,"lng":14.88969},{"city":"Färjestaden","state":"Kalmar","population":5645,"lat":56.6499,"lng":16.46859},{"city":"Viken","state":"Skåne","population":5610,"lat":56.15063,"lng":12.57429},{"city":"Mullsjö","state":"Jönköping","population":5584,"lat":57.9171,"lng":13.87831},{"city":"Hultsfred","state":"Kalmar","population":5510,"lat":57.48815,"lng":15.84357},{"city":"Skåre","state":"Värmland","population":5444,"lat":59.43333,"lng":13.43333},{"city":"Fristad","state":"Västra Götaland","population":5409,"lat":57.82483,"lng":13.01064},{"city":"Åkarp","state":"Västra Götaland","population":5393,"lat":58.23333,"lng":13.65},{"city":"Vårgårda","state":"Västra Götaland","population":5384,"lat":58.03706,"lng":12.80907},{"city":"Sävsjö","state":"Jönköping","population":5374,"lat":57.40327,"lng":14.66244},{"city":"Orsa","state":"Dalarna","population":5349,"lat":61.12034,"lng":14.6155},{"city":"Hönö","state":"Västra Götaland","population":5293,"lat":57.68972,"lng":11.64972},{"city":"Smedjebacken","state":"Dalarna","population":5258,"lat":60.14181,"lng":15.41416},{"city":"Ödåkra","state":"Skåne","population":5231,"lat":56.10412,"lng":12.7477},{"city":"Örkelljunga","state":"Skåne","population":5193,"lat":56.28338,"lng":13.27773},{"city":"Skåre","state":"Skåne","population":5173,"lat":55.38333,"lng":13.05},{"city":"Rättvik","state":"Dalarna","population":5160,"lat":60.88632,"lng":15.11787},{"city":"Båstad","state":"Skåne","population":5146,"lat":56.42689,"lng":12.85339},{"city":"Vaggeryd","state":"Jönköping","population":5122,"lat":57.49807,"lng":14.14842},{"city":"Anderstorp","state":"Jönköping","population":5076,"lat":57.28333,"lng":13.63333},{"city":"Malmslätt","state":"Östergötland","population":5074,"lat":58.41102,"lng":15.51647},{"city":"Krokek","state":"Östergötland","population":5053,"lat":58.67231,"lng":16.36741},{"city":"Grums","state":"Värmland","population":5040,"lat":59.35141,"lng":13.11105},{"city":"Götene","state":"Västra Götaland","population":5027,"lat":58.52824,"lng":13.49458},{"city":"Sunne","state":"Värmland","population":5026,"lat":59.83764,"lng":13.14302},{"city":"Enebyberg","state":"Stockholm","population":5000,"lat":59.43333,"lng":18.05},{"city":"Mönsterås","state":"Kalmar","population":4998,"lat":57.04134,"lng":16.44463},{"city":"Anderstorp","state":"Västra Götaland","population":4987,"lat":58.88333,"lng":14.28333},{"city":"Vargön","state":"Västra Götaland","population":4981,"lat":58.35599,"lng":12.3906},{"city":"Älvsbyn","state":"Norrbotten","population":4976,"lat":65.67624,"lng":21.00162},{"city":"Malung","state":"Dalarna","population":4927,"lat":60.68329,"lng":13.71542},{"city":"Gammelstad","state":"Norrbotten","population":4892,"lat":65.63931,"lng":22.01145},{"city":"Rimbo","state":"Stockholm","population":4882,"lat":59.75,"lng":18.36667},{"city":"Hagfors","state":"Värmland","population":4869,"lat":60.02378,"lng":13.67214},{"city":"Veberöd","state":"Skåne","population":4850,"lat":55.63333,"lng":13.48333},{"city":"Vaxholm","state":"Stockholm","population":4849,"lat":59.40225,"lng":18.35317},{"city":"Emmaboda","state":"Kalmar","population":4818,"lat":56.63268,"lng":15.53648},{"city":"Lindö","state":"Östergötland","population":4763,"lat":58.61667,"lng":16.25},{"city":"Älvängen","state":"Västra Götaland","population":4759,"lat":57.95872,"lng":12.1235},{"city":"Vi","state":"Västernorrland","population":4757,"lat":62.3,"lng":17.16667},{"city":"Hjärup","state":"Skåne","population":4744,"lat":55.6688,"lng":13.13931},{"city":"Östhammar","state":"Uppsala","population":4726,"lat":60.25909,"lng":18.37408},{"city":"Tyringe","state":"Skåne","population":4712,"lat":56.16037,"lng":13.59811},{"city":"Markaryd","state":"Kronoberg","population":4664,"lat":56.46135,"lng":13.59644},{"city":"Kallinge","state":"Blekinge","population":4664,"lat":56.24841,"lng":15.28721},{"city":"Arvidsjaur","state":"Norrbotten","population":4655,"lat":65.59033,"lng":19.16682},{"city":"Norberg","state":"Västmanland","population":4653,"lat":60.06505,"lng":15.92366},{"city":"Töreboda","state":"Västra Götaland","population":4626,"lat":58.70739,"lng":14.12597},{"city":"Säter","state":"Dalarna","population":4613,"lat":60.34778,"lng":15.75051},{"city":"Hemmesta","state":"Stockholm","population":4577,"lat":59.32273,"lng":18.48675},{"city":"Smålandsstenar","state":"Jönköping","population":4564,"lat":57.16241,"lng":13.41212},{"city":"Vingåker","state":"Södermanland","population":4548,"lat":59.0433,"lng":15.87374},{"city":"Hittarp","state":"Skåne","population":4545,"lat":56.1,"lng":12.63333},{"city":"Hallstavik","state":"Stockholm","population":4536,"lat":60.05,"lng":18.6},{"city":"Gnosjö","state":"Jönköping","population":4528,"lat":57.3585,"lng":13.73686},{"city":"Taberg","state":"Jönköping","population":4486,"lat":57.67722,"lng":14.08876},{"city":"Hällefors","state":"Örebro","population":4449,"lat":59.78388,"lng":14.52197},{"city":"Torsby","state":"Värmland","population":4419,"lat":60.13527,"lng":13.0082},{"city":"Öjersjö","state":"Västra Götaland","population":4394,"lat":57.69882,"lng":12.13448},{"city":"Björkskatan","state":"Norrbotten","population":4388,"lat":65.61373,"lng":22.17702},{"city":"Vännäs","state":"Västerbotten","population":4373,"lat":63.90676,"lng":19.75712},{"city":"Rannebergen","state":"Västra Götaland","population":4364,"lat":57.80236,"lng":12.07131},{"city":"Furulund","state":"Skåne","population":4359,"lat":55.7738,"lng":13.09022},{"city":"Borgholm","state":"Kalmar","population":4344,"lat":56.8793,"lng":16.65634},{"city":"Sålanda","state":"Västra Götaland","population":4240,"lat":57.98333,"lng":12.21667},{"city":"Edsbyn","state":"Gävleborg","population":4179,"lat":61.37692,"lng":15.81747},{"city":"Oskarström","state":"Halland","population":4172,"lat":56.8,"lng":12.96667},{"city":"Arnö","state":"Södermanland","population":4124,"lat":58.72675,"lng":17.02322},{"city":"Krylbo","state":"Dalarna","population":4072,"lat":60.13333,"lng":16.21667},{"city":"Vara","state":"Västra Götaland","population":4052,"lat":58.26234,"lng":12.95413},{"city":"Skärblacka","state":"Östergötland","population":4023,"lat":58.56667,"lng":15.9},{"city":"Askersund","state":"Örebro","population":3997,"lat":58.87988,"lng":14.9023},{"city":"Hyltebruk","state":"Halland","population":3992,"lat":56.99892,"lng":13.23958},{"city":"Vinslöv","state":"Skåne","population":3989,"lat":56.1,"lng":13.91667},{"city":"Herrljunga","state":"Västra Götaland","population":3982,"lat":58.07739,"lng":13.02662},{"city":"Skillingaryd","state":"Jönköping","population":3965,"lat":57.43044,"lng":14.09383},{"city":"Brunna","state":"Stockholm","population":3948,"lat":59.51667,"lng":17.75},{"city":"Vallda","state":"Halland","population":3929,"lat":57.4775,"lng":12.00139},{"city":"Arnö","state":"Stockholm","population":3925,"lat":60.11667,"lng":18.63333},{"city":"Brunflo","state":"Jämtland","population":3916,"lat":63.07586,"lng":14.83203},{"city":"Ursviken","state":"Västerbotten","population":3913,"lat":64.71261,"lng":21.1658},{"city":"Mariefred","state":"Södermanland","population":3911,"lat":59.25963,"lng":17.223},{"city":"Munkedal","state":"Västra Götaland","population":3910,"lat":58.46634,"lng":11.67345},{"city":"Mörrum","state":"Blekinge","population":3903,"lat":56.19281,"lng":14.74739},{"city":"Furulund","state":"Västra Götaland","population":3888,"lat":57.71667,"lng":12.13333},{"city":"Bollebygd","state":"Västra Götaland","population":3870,"lat":57.66866,"lng":12.57272},{"city":"Ösmo","state":"Stockholm","population":3866,"lat":58.98333,"lng":17.9},{"city":"Brunna","state":"Dalarna","population":3861,"lat":60.26255,"lng":16.01034},{"city":"Svalöv","state":"Skåne","population":3852,"lat":55.9134,"lng":13.10762},{"city":"Hittarp","state":"Skåne","population":3837,"lat":56.28333,"lng":14.11667},{"city":"Alsike","state":"Uppsala","population":3833,"lat":59.75324,"lng":17.77331},{"city":"Hofterup","state":"Skåne","population":3814,"lat":55.80485,"lng":12.9797},{"city":"Mellerud","state":"Västra Götaland","population":3797,"lat":58.69979,"lng":12.45312},{"city":"Mantorp","state":"Östergötland","population":3781,"lat":58.35,"lng":15.28333},{"city":"Kisa","state":"Östergötland","population":3776,"lat":57.98781,"lng":15.63303},{"city":"Lilla Edet","state":"Västra Götaland","population":3772,"lat":58.13333,"lng":12.13333},{"city":"Hjuvik","state":"Västra Götaland","population":3754,"lat":57.70167,"lng":11.71639},{"city":"Viken","state":"Västerbotten","population":3753,"lat":64.72587,"lng":20.91548},{"city":"Olofstorp","state":"Västra Götaland","population":3746,"lat":57.80444,"lng":12.17131},{"city":"Bara","state":"Skåne","population":3743,"lat":55.58155,"lng":13.17862},{"city":"Viskafors","state":"Västra Götaland","population":3701,"lat":57.62941,"lng":12.8489},{"city":"Strömsund","state":"Jämtland","population":3690,"lat":63.85206,"lng":15.55583},{"city":"Ljungskile","state":"Västra Götaland","population":3689,"lat":58.22452,"lng":11.92014},{"city":"Kungshamn","state":"Västra Götaland","population":3657,"lat":58.36305,"lng":11.25938},{"city":"Skultorp","state":"Västra Götaland","population":3644,"lat":58.35,"lng":13.83333},{"city":"Karlsborg","state":"Västra Götaland","population":3624,"lat":58.53724,"lng":14.5047},{"city":"Smedby","state":"Kalmar","population":3607,"lat":56.67413,"lng":16.2432},{"city":"Dalsjöfors","state":"Västra Götaland","population":3606,"lat":57.71667,"lng":13.08333},{"city":"Bergnäset","state":"Norrbotten","population":3604,"lat":65.57791,"lng":22.10844},{"city":"Svenljunga","state":"Västra Götaland","population":3592,"lat":57.49551,"lng":13.11078},{"city":"Stenhamra","state":"Stockholm","population":3588,"lat":59.3344,"lng":17.68842},{"city":"Vilhelmina","state":"Västerbotten","population":3572,"lat":64.62417,"lng":16.65596},{"city":"Öckerö","state":"Västra Götaland","population":3568,"lat":57.70814,"lng":11.65585},{"city":"Åre","state":"Jämtland","population":3552,"lat":63.39911,"lng":13.07995},{"city":"Smedby","state":"Dalarna","population":3530,"lat":60.7,"lng":15.05},{"city":"Rödeby","state":"Blekinge","population":3508,"lat":56.26078,"lng":15.62143},{"city":"Aneby","state":"Jönköping","population":3496,"lat":57.83895,"lng":14.81016},{"city":"Skärhamn","state":"Västra Götaland","population":3495,"lat":57.98665,"lng":11.55742},{"city":"Matfors","state":"Västernorrland","population":3437,"lat":62.34864,"lng":17.03173},{"city":"Tygelsjö","state":"Skåne","population":3420,"lat":55.51667,"lng":13.0},{"city":"Iggesund","state":"Gävleborg","population":3419,"lat":61.64219,"lng":17.07477},{"city":"Mellbystrand","state":"Halland","population":3412,"lat":56.48561,"lng":12.93958},{"city":"Tollarp","state":"Skåne","population":3404,"lat":55.93333,"lng":13.98333},{"city":"Vagnhärad","state":"Södermanland","population":3397,"lat":58.94587,"lng":17.48757},{"city":"Skultuna","state":"Västmanland","population":3378,"lat":59.71667,"lng":16.41667},{"city":"Kummelnäs","state":"Stockholm","population":3360,"lat":59.35,"lng":18.28333},{"city":"Skänninge","state":"Östergötland","population":3358,"lat":58.39427,"lng":15.08659},{"city":"Svärtinge","state":"Östergötland","population":3326,"lat":58.65507,"lng":16.02823},{"city":"Hällbybrunn","state":"Södermanland","population":3323,"lat":59.39152,"lng":16.42229},{"city":"Tallboda","state":"Östergötland","population":3311,"lat":58.42521,"lng":15.68154},{"city":"Hammar","state":"Skåne","population":3311,"lat":56.01667,"lng":14.21667},{"city":"Årjäng","state":"Värmland","population":3302,"lat":59.39217,"lng":12.13336},{"city":"Ekeby","state":"Skåne","population":3292,"lat":56.0,"lng":12.96667},{"city":"Råtorp","state":"Värmland","population":3287,"lat":59.40197,"lng":13.49144},{"city":"Nättraby","state":"Blekinge","population":3284,"lat":56.2,"lng":15.51667},{"city":"Bara","state":"Södermanland","population":3270,"lat":58.68333,"lng":17.06667},{"city":"Boxholm","state":"Östergötland","population":3269,"lat":58.19719,"lng":15.05376},{"city":"Resarö","state":"Stockholm","population":3249,"lat":59.4291,"lng":18.33386},{"city":"Skänninge","state":"Stockholm","population":3242,"lat":59.93333,"lng":18.48333},{"city":"Tranemo","state":"Västra Götaland","population":3224,"lat":57.48333,"lng":13.35},{"city":"Eriksberg","state":"Stockholm","population":3200,"lat":59.24241,"lng":17.81631},{"city":"Björklinge","state":"Uppsala","population":3186,"lat":60.03004,"lng":17.55203},{"city":"Tollarp1","state":"Skåne","population":3170,"lat":56.16667,"lng":14.28333},{"city":"Södra Sunderbyn","state":"Norrbotten","population":3162,"lat":65.65983,"lng":21.94004},{"city":"Munka-Ljungby","state":"Skåne","population":3148,"lat":56.25,"lng":12.96667},{"city":"Knislinge","state":"Skåne","population":3144,"lat":56.18333,"lng":14.08333},{"city":"Häljarp","state":"Skåne","population":3134,"lat":55.85,"lng":12.91667},{"city":"Laxå","state":"Örebro","population":3125,"lat":58.9863,"lng":14.61904},{"city":"Bengtsfors","state":"Västra Götaland","population":3125,"lat":59.02912,"lng":12.23207},{"city":"Tenhult","state":"Jönköping","population":3112,"lat":57.70761,"lng":14.32205},{"city":"Broby","state":"Skåne","population":3104,"lat":56.25521,"lng":14.07797},{"city":"Sävast","state":"Norrbotten","population":3093,"lat":65.77002,"lng":21.73113},{"city":"Tingsryd","state":"Kronoberg","population":3087,"lat":56.5247,"lng":14.97902},{"city":"Hovmantorp","state":"Kronoberg","population":3082,"lat":56.78685,"lng":15.14023},{"city":"Skelleftehamn","state":"Västerbotten","population":3069,"lat":64.68333,"lng":21.23333},{"city":"Kopparberg","state":"Örebro","population":3065,"lat":59.87597,"lng":14.99436},{"city":"Gamla Stan","state":"Stockholm","population":3000,"lat":59.32627,"lng":18.07251},{"city":"Ed","state":"Västra Götaland","population":2994,"lat":58.91247,"lng":11.93308},{"city":"Sandared","state":"Västra Götaland","population":2993,"lat":57.70992,"lng":12.79238},{"city":"Hökåsen","state":"Västmanland","population":2986,"lat":59.66667,"lng":16.58333},{"city":"Särö","state":"Halland","population":2982,"lat":57.50577,"lng":11.9321},{"city":"Sävar","state":"Västerbotten","population":2968,"lat":63.90383,"lng":20.55014},{"city":"Genarp","state":"Skåne","population":2962,"lat":55.59907,"lng":13.3982},{"city":"Grästorp","state":"Västra Götaland","population":2946,"lat":58.33219,"lng":12.68122},{"city":"Borensberg","state":"Östergötland","population":2942,"lat":58.56667,"lng":15.28333},{"city":"Påarp","state":"Skåne","population":2932,"lat":56.03333,"lng":12.81667},{"city":"Hindås","state":"Västra Götaland","population":2901,"lat":57.70338,"lng":12.44657},{"city":"Ånge","state":"Västernorrland","population":2889,"lat":62.52495,"lng":15.65904},{"city":"Ockelbo","state":"Gävleborg","population":2875,"lat":60.8912,"lng":16.71846},{"city":"Lessebo","state":"Kronoberg","population":2857,"lat":56.75185,"lng":15.26969},{"city":"Linghem","state":"Östergötland","population":2853,"lat":58.43333,"lng":15.78333},{"city":"Vålberg","state":"Värmland","population":2848,"lat":59.39145,"lng":13.18633},{"city":"Stora Höga","state":"Västra Götaland","population":2846,"lat":58.01667,"lng":11.83333},{"city":"Munkfors","state":"Värmland","population":2834,"lat":59.83856,"lng":13.54361},{"city":"Frillesås","state":"Halland","population":2832,"lat":57.31667,"lng":12.16667},{"city":"Hovsta","state":"Örebro","population":2831,"lat":59.35,"lng":15.21667},{"city":"Fyllinge","state":"Halland","population":2830,"lat":56.65,"lng":12.91667},{"city":"Irsta","state":"Västmanland","population":2809,"lat":59.6,"lng":16.7},{"city":"Jokkmokk","state":"Norrbotten","population":2794,"lat":66.60665,"lng":19.82324},{"city":"Billesholm","state":"Skåne","population":2794,"lat":56.05,"lng":13.0},{"city":"Olofstorp","state":"Västra Götaland","population":2783,"lat":58.25,"lng":14.0},{"city":"Vejbystrand","state":"Skåne","population":2764,"lat":56.31778,"lng":12.76722},{"city":"Gamleby","state":"Kalmar","population":2758,"lat":57.89485,"lng":16.40508},{"city":"Bjärnum","state":"Skåne","population":2755,"lat":56.29032,"lng":13.71128},{"city":"Bårslöv","state":"Skåne","population":2753,"lat":56.0091,"lng":12.8058},{"city":"Åkers Styckebruk","state":"Södermanland","population":2730,"lat":59.25,"lng":17.08333},{"city":"Gränna","state":"Jönköping","population":2726,"lat":58.01667,"lng":14.46667},{"city":"Heby","state":"Uppsala","population":2724,"lat":59.93815,"lng":16.86217},{"city":"Deje","state":"Värmland","population":2702,"lat":59.603,"lng":13.472},{"city":"Gimo","state":"Uppsala","population":2698,"lat":60.17304,"lng":18.18507},{"city":"Valdemarsvik","state":"Östergötland","population":2685,"lat":58.2031,"lng":16.60225},{"city":"Nordmaling","state":"Västerbotten","population":2671,"lat":63.56852,"lng":19.50244},{"city":"Odensjö","state":"Jönköping","population":2646,"lat":57.71667,"lng":14.16667},{"city":"Tvååker","state":"Halland","population":2640,"lat":57.04147,"lng":12.3995},{"city":"Jämjö","state":"Blekinge","population":2629,"lat":56.19187,"lng":15.84115},{"city":"Sjömarken","state":"Västra Götaland","population":2596,"lat":57.71533,"lng":12.83495},{"city":"Johannedal","state":"Västernorrland","population":2592,"lat":62.43424,"lng":17.37273},{"city":"Eriksbo","state":"Västra Götaland","population":2564,"lat":57.77141,"lng":12.04183},{"city":"Åseda","state":"Kronoberg","population":2557,"lat":57.1701,"lng":15.3443},{"city":"Ödeshög","state":"Östergötland","population":2554,"lat":58.22949,"lng":14.65294},{"city":"Sveg","state":"Jämtland","population":2543,"lat":62.03407,"lng":14.36577},{"city":"Irsta","state":"Uppsala","population":2534,"lat":59.7,"lng":16.93333},{"city":"Bureå","state":"Västerbotten","population":2533,"lat":64.61667,"lng":21.2},{"city":"Gånghester","state":"Västra Götaland","population":2533,"lat":57.7,"lng":13.01667},{"city":"Stockvik","state":"Västernorrland","population":2532,"lat":62.33667,"lng":17.36583},{"city":"Hörnefors","state":"Västerbotten","population":2514,"lat":63.62312,"lng":19.90856},{"city":"Alunda","state":"Uppsala","population":2506,"lat":60.06667,"lng":18.08333},{"city":"Ekängen","state":"Östergötland","population":2485,"lat":58.46667,"lng":15.63333},{"city":"Frövi","state":"Örebro","population":2480,"lat":59.46667,"lng":15.36667},{"city":"Vårsta","state":"Stockholm","population":2470,"lat":59.16528,"lng":17.79722},{"city":"Strömma","state":"Stockholm","population":2468,"lat":59.28333,"lng":18.53333},{"city":"Röbäck","state":"Västerbotten","population":2460,"lat":63.80879,"lng":20.18901},{"city":"Ljunghusen","state":"Skåne","population":2444,"lat":55.39793,"lng":12.92486},{"city":"Kolsva","state":"Västmanland","population":2440,"lat":59.6,"lng":15.83333},{"city":"Herrestad","state":"Östergötland","population":2412,"lat":58.38333,"lng":14.8},{"city":"Bälinge","state":"Uppsala","population":2406,"lat":59.95,"lng":17.53333},{"city":"Vindeln","state":"Västerbotten","population":2403,"lat":64.20175,"lng":19.71945},{"city":"Rottne","state":"Kronoberg","population":2395,"lat":57.01667,"lng":14.9},{"city":"Förslöv","state":"Skåne","population":2386,"lat":56.35,"lng":12.81667},{"city":"Fjärås kyrkby","state":"Halland","population":2385,"lat":57.45913,"lng":12.17508},{"city":"Skinnskatteberg","state":"Västmanland","population":2383,"lat":59.83028,"lng":15.69337},{"city":"Blomstermåla","state":"Kalmar","population":2380,"lat":56.98333,"lng":16.33333},{"city":"Kåge","state":"Västerbotten","population":2376,"lat":64.83571,"lng":20.98453},{"city":"Söråker","state":"Västernorrland","population":2374,"lat":62.50561,"lng":17.51032},{"city":"Charlottenberg","state":"Värmland","population":2368,"lat":59.88422,"lng":12.30398},{"city":"Alfta","state":"Gävleborg","population":2348,"lat":61.34675,"lng":16.07499},{"city":"Vikingstad","state":"Östergötland","population":2335,"lat":58.38304,"lng":15.43201},{"city":"Österbybruk","state":"Uppsala","population":2331,"lat":60.2,"lng":17.9},{"city":"Fritsla","state":"Västra Götaland","population":2307,"lat":57.55655,"lng":12.78457},{"city":"Frösakull","state":"Halland","population":2296,"lat":56.68333,"lng":12.73333},{"city":"Brastad","state":"Västra Götaland","population":2289,"lat":58.38333,"lng":11.48333},{"city":"Hyllinge","state":"Skåne","population":2287,"lat":56.1,"lng":12.85},{"city":"Vintrosa","state":"Örebro","population":2285,"lat":59.25,"lng":14.95},{"city":"Kopparmora","state":"Stockholm","population":2280,"lat":59.33306,"lng":18.58306},{"city":"Veddige","state":"Halland","population":2260,"lat":57.26591,"lng":12.3322},{"city":"Rimforsa","state":"Östergötland","population":2259,"lat":58.13624,"lng":15.6865},{"city":"Storvik","state":"Västerbotten","population":2251,"lat":65.15,"lng":20.73333},{"city":"Bergsviken","state":"Norrbotten","population":2251,"lat":65.3,"lng":21.38333},{"city":"Strömsnäsbruk","state":"Kronoberg","population":2246,"lat":56.55,"lng":13.71667},{"city":"Henån","state":"Västra Götaland","population":2243,"lat":58.23848,"lng":11.67598},{"city":"Pershagen","state":"Stockholm","population":2235,"lat":59.15494,"lng":17.6534},{"city":"Sturefors","state":"Östergötland","population":2228,"lat":58.33333,"lng":15.73333},{"city":"Alunda","state":"Uppsala","population":2224,"lat":60.26667,"lng":18.4},{"city":"Storfors","state":"Värmland","population":2218,"lat":59.53183,"lng":14.27201},{"city":"Sjuntorp","state":"Västra Götaland","population":2213,"lat":58.2,"lng":12.21667},{"city":"Storvik","state":"Gävleborg","population":2202,"lat":60.58333,"lng":16.53333},{"city":"Storuman","state":"Västerbotten","population":2188,"lat":65.0959,"lng":17.11731},{"city":"Delsbo","state":"Gävleborg","population":2185,"lat":61.80104,"lng":16.55571},{"city":"Skogstorp","state":"Södermanland","population":2180,"lat":59.32472,"lng":16.48284},{"city":"Kvicksund","state":"Södermanland","population":2179,"lat":59.45099,"lng":16.32131},{"city":"Obbola","state":"Västerbotten","population":2173,"lat":63.7,"lng":20.31667},{"city":"Fjugesta","state":"Örebro","population":2160,"lat":59.17375,"lng":14.87227},{"city":"Tillberga","state":"Västmanland","population":2151,"lat":59.68333,"lng":16.61667},{"city":"Insjön","state":"Västerbotten","population":2150,"lat":64.4,"lng":17.48333},{"city":"Grängesberg","state":"Dalarna","population":2146,"lat":60.07465,"lng":15.00784},{"city":"Insjön","state":"Dalarna","population":2141,"lat":60.67688,"lng":15.09487},{"city":"Djurås","state":"Dalarna","population":2128,"lat":60.56061,"lng":15.13281},{"city":"Ljungbyhed","state":"Skåne","population":2127,"lat":56.07437,"lng":13.2401},{"city":"Malmköping","state":"Södermanland","population":2106,"lat":59.13333,"lng":16.73333},{"city":"Sundsbruk","state":"Västernorrland","population":2098,"lat":62.45806,"lng":17.34889},{"city":"Glumslöv","state":"Skåne","population":2093,"lat":55.94091,"lng":12.80929},{"city":"Forserum","state":"Jönköping","population":2080,"lat":57.7,"lng":14.46667},{"city":"Fränsta","state":"Västernorrland","population":2062,"lat":62.49855,"lng":16.17016},{"city":"Norsjö","state":"Västerbotten","population":2057,"lat":64.91206,"lng":19.48153},{"city":"Hunnebostrand","state":"Västra Götaland","population":2053,"lat":58.44127,"lng":11.3032},{"city":"Malå","state":"Västerbotten","population":2043,"lat":65.18501,"lng":18.74243},{"city":"Vansbro","state":"Dalarna","population":2042,"lat":60.50893,"lng":14.22458},{"city":"Kolbäck","state":"Västmanland","population":2034,"lat":59.56516,"lng":16.23037},{"city":"Pajala","state":"Norrbotten","population":2032,"lat":67.21284,"lng":23.36607},{"city":"Robertsfors","state":"Västerbotten","population":2030,"lat":64.19324,"lng":20.84806},{"city":"Örbyhus","state":"Uppsala","population":2025,"lat":60.22407,"lng":17.70138},{"city":"Torsås","state":"Kalmar","population":2000,"lat":56.41251,"lng":15.99844},{"city":"Stenkullen","state":"Västra Götaland","population":2000,"lat":57.79476,"lng":12.31688},{"city":"Lönsboda","state":"Skåne","population":1986,"lat":56.4,"lng":14.31667},{"city":"Färgelanda","state":"Västra Götaland","population":1986,"lat":58.56816,"lng":11.99235},{"city":"Träslövsläge","state":"Halland","population":1985,"lat":57.05417,"lng":12.27899},{"city":"Skattkärr","state":"Värmland","population":1979,"lat":59.41208,"lng":13.67078},{"city":"Jonstorp","state":"Skåne","population":1972,"lat":56.2338,"lng":12.67184},{"city":"Bjursås","state":"Dalarna","population":1968,"lat":60.73726,"lng":15.45291},{"city":"Storå","state":"Örebro","population":1967,"lat":59.71409,"lng":15.13169},{"city":"Råneå","state":"Norrbotten","population":1966,"lat":65.85482,"lng":22.29126},{"city":"Anderslöv","state":"Skåne","population":1963,"lat":55.43836,"lng":13.31966},{"city":"Arbrå","state":"Gävleborg","population":1961,"lat":61.46667,"lng":16.38333},{"city":"Njurundabommen","state":"Västernorrland","population":1959,"lat":62.26339,"lng":17.38354},{"city":"Bodafors","state":"Jönköping","population":1957,"lat":57.5,"lng":14.7},{"city":"Krokom","state":"Jämtland","population":1953,"lat":63.32589,"lng":14.44883},{"city":"Stigtomta","state":"Södermanland","population":1949,"lat":58.8,"lng":16.78333},{"city":"Svanesund","state":"Västra Götaland","population":1946,"lat":58.14292,"lng":11.81821},{"city":"Ljusne","state":"Gävleborg","population":1946,"lat":61.2117,"lng":17.1279},{"city":"Stångby","state":"Skåne","population":1943,"lat":55.7503,"lng":13.19797},{"city":"Klågerup","state":"Skåne","population":1940,"lat":55.59416,"lng":13.24574},{"city":"Mörarp","state":"Skåne","population":1935,"lat":56.05749,"lng":12.88018},{"city":"Högsby","state":"Kalmar","population":1923,"lat":57.16597,"lng":16.02562},{"city":"Mockfjärd","state":"Dalarna","population":1920,"lat":60.5,"lng":14.96667},{"city":"Getinge","state":"Halland","population":1909,"lat":56.81667,"lng":12.73333},{"city":"Övertorneå","state":"Norrbotten","population":1906,"lat":66.38778,"lng":23.65425},{"city":"Svängsta","state":"Blekinge","population":1904,"lat":56.26667,"lng":14.76667},{"city":"Enbacka","state":"Dalarna","population":1899,"lat":60.40993,"lng":15.59575},{"city":"Andalen","state":"Västra Götaland","population":1897,"lat":57.70039,"lng":11.76136},{"city":"Molkom","state":"Värmland","population":1896,"lat":59.60057,"lng":13.72115},{"city":"Nossebro","state":"Västra Götaland","population":1884,"lat":58.18808,"lng":12.71599},{"city":"Bollstabruk","state":"Västernorrland","population":1883,"lat":62.99777,"lng":17.67348},{"city":"Moheda","state":"Kronoberg","population":1880,"lat":57.0,"lng":14.56667},{"city":"Grebbestad","state":"Västra Götaland","population":1877,"lat":58.70248,"lng":11.25738},{"city":"Grycksbo","state":"Dalarna","population":1870,"lat":60.68751,"lng":15.48507},{"city":"Älvdalen","state":"Dalarna","population":1863,"lat":61.22774,"lng":14.03935},{"city":"Dalarö","state":"Stockholm","population":1849,"lat":59.13306,"lng":18.40639},{"city":"Rosvik","state":"Norrbotten","population":1848,"lat":65.43333,"lng":21.7},{"city":"Skrea","state":"Halland","population":1846,"lat":56.88333,"lng":12.56667},{"city":"Bjästa","state":"Västernorrland","population":1845,"lat":63.2,"lng":18.5},{"city":"Fjälkinge","state":"Skåne","population":1832,"lat":56.04364,"lng":14.27562},{"city":"Mörbylånga","state":"Kalmar","population":1824,"lat":56.5248,"lng":16.37877},{"city":"Stenstorp","state":"Västra Götaland","population":1823,"lat":58.27254,"lng":13.71454},{"city":"Kvidinge","state":"Skåne","population":1823,"lat":56.13386,"lng":13.04678},{"city":"Arjeplog","state":"Norrbotten","population":1822,"lat":66.05173,"lng":17.88606},{"city":"Skepplanda","state":"Västra Götaland","population":1821,"lat":57.98333,"lng":12.2},{"city":"Brevik","state":"Stockholm","population":1817,"lat":59.21667,"lng":18.38333},{"city":"Abborrberget","state":"Dalarna","population":1814,"lat":60.15,"lng":14.8},{"city":"Vislanda","state":"Kronoberg","population":1813,"lat":56.78333,"lng":14.45},{"city":"Järbo","state":"Gävleborg","population":1813,"lat":60.71667,"lng":16.6},{"city":"Sösdala","state":"Skåne","population":1808,"lat":56.03992,"lng":13.67811},{"city":"Hällabrottet","state":"Örebro","population":1806,"lat":59.11667,"lng":15.2},{"city":"Bua","state":"Halland","population":1792,"lat":57.2378,"lng":12.12187},{"city":"Vittsjö","state":"Skåne","population":1787,"lat":56.34366,"lng":13.66081},{"city":"Bergeforsen","state":"Västernorrland","population":1787,"lat":62.53074,"lng":17.38123},{"city":"Byske","state":"Västerbotten","population":1785,"lat":64.95258,"lng":21.2058},{"city":"Stavsnäs","state":"Stockholm","population":1784,"lat":59.28333,"lng":18.68333},{"city":"Tanumshede","state":"Västra Götaland","population":1774,"lat":58.72385,"lng":11.32587},{"city":"Jonstorp","state":"Västra Götaland","population":1771,"lat":58.0,"lng":12.71667},{"city":"Virserum","state":"Kalmar","population":1769,"lat":57.31667,"lng":15.58333},{"city":"Rosersberg","state":"Stockholm","population":1765,"lat":59.58333,"lng":17.88333},{"city":"Lenhovda","state":"Kronoberg","population":1762,"lat":57.0,"lng":15.28333},{"city":"Ingelstad","state":"Kronoberg","population":1762,"lat":56.75,"lng":14.91667},{"city":"Forsbacka","state":"Gävleborg","population":1754,"lat":60.61667,"lng":16.88333},{"city":"Höviksnäs","state":"Västra Götaland","population":1750,"lat":58.03333,"lng":11.76667},{"city":"Forsbacka","state":"Västerbotten","population":1748,"lat":64.76667,"lng":20.5},{"city":"Hillerstorp","state":"Jönköping","population":1746,"lat":57.31293,"lng":13.88437},{"city":"Östra Ljungby","state":"Skåne","population":1740,"lat":56.19601,"lng":13.09199},{"city":"Källby","state":"Västra Götaland","population":1737,"lat":58.50999,"lng":13.30582},{"city":"Romme","state":"Dalarna","population":1735,"lat":60.43333,"lng":15.5},{"city":"Marielund","state":"Norrbotten","population":1726,"lat":65.85307,"lng":24.10486},{"city":"Ljungbyholm","state":"Kalmar","population":1725,"lat":56.63333,"lng":16.16667},{"city":"Järna","state":"Dalarna","population":1725,"lat":60.53333,"lng":14.36667},{"city":"Vibble","state":"Gotland","population":1709,"lat":57.60452,"lng":18.25601},{"city":"Bräkne-Hoby","state":"Blekinge","population":1708,"lat":56.23333,"lng":15.11667},{"city":"Åsele","state":"Västerbotten","population":1706,"lat":64.16026,"lng":17.34762},{"city":"Söderfors","state":"Uppsala","population":1704,"lat":60.38333,"lng":17.23333},{"city":"Teckomatorp","state":"Skåne","population":1703,"lat":55.86667,"lng":13.08333},{"city":"Ingared","state":"Västra Götaland","population":1703,"lat":57.85989,"lng":12.45161},{"city":"Östervåla","state":"Uppsala","population":1696,"lat":60.18333,"lng":17.18333},{"city":"Lammhult","state":"Kronoberg","population":1694,"lat":57.16667,"lng":14.58333},{"city":"Hästveda","state":"Skåne","population":1693,"lat":56.28468,"lng":13.93547},{"city":"Braås","state":"Kronoberg","population":1692,"lat":57.06667,"lng":15.05},{"city":"Åled","state":"Halland","population":1690,"lat":56.75,"lng":12.93333},{"city":"Sandarne","state":"Gävleborg","population":1681,"lat":61.25893,"lng":17.15284},{"city":"Haverdal","state":"Halland","population":1681,"lat":56.72222,"lng":12.67194},{"city":"Stallarholmen","state":"Södermanland","population":1671,"lat":59.36667,"lng":17.2},{"city":"Hemse","state":"Gotland","population":1668,"lat":57.23788,"lng":18.37443},{"city":"Boliden","state":"Västerbotten","population":1661,"lat":64.86667,"lng":20.38333},{"city":"Ersmark","state":"Västerbotten","population":1650,"lat":63.88333,"lng":20.31667},{"city":"Jursla","state":"Östergötland","population":1647,"lat":58.65466,"lng":16.16259},{"city":"Långsele","state":"Västernorrland","population":1642,"lat":63.18333,"lng":17.06667},{"city":"Gullbrandstorp","state":"Halland","population":1642,"lat":56.7,"lng":12.73333},{"city":"Rinkabyholm","state":"Kalmar","population":1631,"lat":56.64972,"lng":16.26667},{"city":"Stenstorp","state":"Östergötland","population":1630,"lat":58.48333,"lng":15.06667},{"city":"Hälleforsnäs","state":"Södermanland","population":1624,"lat":59.15208,"lng":16.497},{"city":"Långsele","state":"Västerbotten","population":1620,"lat":64.81667,"lng":20.25},{"city":"Garphyttan","state":"Örebro","population":1613,"lat":59.30429,"lng":14.94623},{"city":"Jämshög","state":"Blekinge","population":1612,"lat":56.23333,"lng":14.51667},{"city":"Pålsboda","state":"Örebro","population":1610,"lat":59.06565,"lng":15.33747},{"city":"Långshyttan","state":"Dalarna","population":1609,"lat":60.45238,"lng":16.03831},{"city":"Hasslö","state":"Blekinge","population":1606,"lat":56.11667,"lng":15.48333},{"city":"Kode","state":"Västra Götaland","population":1605,"lat":57.94263,"lng":11.85051},{"city":"Marieholm","state":"Skåne","population":1604,"lat":55.86667,"lng":13.15},{"city":"Trekanten","state":"Kalmar","population":1599,"lat":56.7,"lng":16.11667},{"city":"Söderfors","state":"Västerbotten","population":1597,"lat":64.81667,"lng":18.05},{"city":"Öregrund","state":"Uppsala","population":1589,"lat":60.33333,"lng":18.43333},{"city":"Rydaholm","state":"Jönköping","population":1587,"lat":56.98388,"lng":14.30849},{"city":"Valla","state":"Jämtland","population":1584,"lat":63.55,"lng":13.8},{"city":"Vännäsby","state":"Västerbotten","population":1581,"lat":63.91564,"lng":19.82438},{"city":"Sörforsa","state":"Gävleborg","population":1581,"lat":61.73333,"lng":16.98333},{"city":"Marieholm","state":"Jönköping","population":1578,"lat":57.38333,"lng":13.85},{"city":"Burträsk","state":"Västerbotten","population":1573,"lat":64.51667,"lng":20.65},{"city":"Ås","state":"Jämtland","population":1572,"lat":63.25,"lng":14.56667},{"city":"Trönninge","state":"Halland","population":1569,"lat":56.61667,"lng":12.93333},{"city":"Gullspång","state":"Västra Götaland","population":1568,"lat":58.98615,"lng":14.09644},{"city":"Husum","state":"Västernorrland","population":1563,"lat":63.33333,"lng":19.16667},{"city":"Ekenässjön","state":"Jönköping","population":1563,"lat":57.49175,"lng":15.02226},{"city":"Asmundtorp","state":"Skåne","population":1563,"lat":55.88333,"lng":12.93333},{"city":"Norrfjärden","state":"Norrbotten","population":1562,"lat":65.41805,"lng":21.50151},{"city":"Floby","state":"Västra Götaland","population":1562,"lat":58.13333,"lng":13.33333},{"city":"Kaxholmen","state":"Jönköping","population":1561,"lat":57.85345,"lng":14.30457},{"city":"Bräcke","state":"Jämtland","population":1559,"lat":62.75067,"lng":15.42193},{"city":"Järvsö","state":"Gävleborg","population":1557,"lat":61.71667,"lng":16.16667},{"city":"Rönnäng","state":"Västra Götaland","population":1551,"lat":57.93333,"lng":11.58333},{"city":"Lagan","state":"Kronoberg","population":1550,"lat":56.91667,"lng":13.98333},{"city":"Bredaryd","state":"Jönköping","population":1549,"lat":57.17343,"lng":13.73789},{"city":"Bergby","state":"Gävleborg","population":1549,"lat":60.92931,"lng":17.04194},{"city":"Hällevik","state":"Blekinge","population":1545,"lat":56.01667,"lng":14.7},{"city":"Lödöse","state":"Västra Götaland","population":1540,"lat":58.02994,"lng":12.15934},{"city":"Järpen","state":"Jämtland","population":1539,"lat":63.3462,"lng":13.46572},{"city":"Ekeby-Almby","state":"Örebro","population":1531,"lat":59.26,"lng":15.33},{"city":"Rävlanda","state":"Västra Götaland","population":1522,"lat":57.65338,"lng":12.49791},{"city":"Brålanda","state":"Västra Götaland","population":1521,"lat":58.56344,"lng":12.34923},{"city":"Älvkarleby","state":"Uppsala","population":1517,"lat":60.57081,"lng":17.44895},{"city":"Backa","state":"Västerbotten","population":1516,"lat":64.98333,"lng":21.06667},{"city":"Kågeröd","state":"Skåne","population":1516,"lat":55.99976,"lng":13.08795},{"city":"Forsheda","state":"Jönköping","population":1510,"lat":57.16415,"lng":13.83016},{"city":"Mariannelund","state":"Jönköping","population":1503,"lat":57.61667,"lng":15.56667},{"city":"Harplinge","state":"Halland","population":1498,"lat":56.74491,"lng":12.72758},{"city":"Björkö","state":"Västra Götaland","population":1495,"lat":57.73221,"lng":11.67916},{"city":"Dorotea","state":"Västerbotten","population":1491,"lat":64.26185,"lng":16.41306},{"city":"Klintehamn","state":"Gotland","population":1490,"lat":57.38667,"lng":18.20371},{"city":"Valla","state":"Södermanland","population":1485,"lat":59.01667,"lng":16.38333},{"city":"Sollebrunn","state":"Västra Götaland","population":1482,"lat":58.11667,"lng":12.53333},{"city":"Hölö","state":"Stockholm","population":1477,"lat":59.01667,"lng":17.53333},{"city":"Fellingsbro","state":"Örebro","population":1475,"lat":59.43333,"lng":15.58333},{"city":"Ryd","state":"Kronoberg","population":1474,"lat":56.46667,"lng":14.68333},{"city":"Kimstad","state":"Östergötland","population":1469,"lat":58.54967,"lng":15.96296},{"city":"Glimåkra","state":"Skåne","population":1466,"lat":56.3,"lng":14.13333},{"city":"Jörlanda","state":"Västra Götaland","population":1465,"lat":57.9863,"lng":11.82943},{"city":"Gemla","state":"Kronoberg","population":1462,"lat":56.86753,"lng":14.64379},{"city":"Vrigstad","state":"Jönköping","population":1461,"lat":57.35,"lng":14.46667},{"city":"Myggenäs","state":"Västra Götaland","population":1460,"lat":58.06176,"lng":11.74936},{"city":"Blentarp","state":"Skåne","population":1452,"lat":55.58333,"lng":13.6},{"city":"Ryd","state":"Östergötland","population":1446,"lat":58.66667,"lng":15.08333},{"city":"Donsö","state":"Västra Götaland","population":1446,"lat":57.6,"lng":11.79917},{"city":"Djurö","state":"Stockholm","population":1442,"lat":59.32653,"lng":18.71152},{"city":"Morgongåva","state":"Uppsala","population":1441,"lat":59.93395,"lng":16.96353},{"city":"Landsbro","state":"Jönköping","population":1438,"lat":57.36667,"lng":14.9},{"city":"Limmared","state":"Västra Götaland","population":1434,"lat":57.53592,"lng":13.35566},{"city":"Sibbhult","state":"Skåne","population":1431,"lat":56.26667,"lng":14.2},{"city":"Veinge","state":"Halland","population":1417,"lat":56.55,"lng":13.06667},{"city":"Ödsmål","state":"Västra Götaland","population":1414,"lat":58.1,"lng":11.85},{"city":"Vattholma","state":"Uppsala","population":1410,"lat":60.01667,"lng":17.73333},{"city":"Dals Långed","state":"Västra Götaland","population":1407,"lat":58.92555,"lng":12.30865},{"city":"Barkarö","state":"Västmanland","population":1404,"lat":59.54935,"lng":16.5074},{"city":"Lövstalöt","state":"Uppsala","population":1399,"lat":59.9574,"lng":17.57826},{"city":"Anneberg","state":"Uppsala","population":1398,"lat":60.24167,"lng":18.41667},{"city":"Färila","state":"Gävleborg","population":1398,"lat":61.80011,"lng":15.84422},{"city":"Önnestad","state":"Skåne","population":1392,"lat":56.05747,"lng":14.02233},{"city":"Hanaskog","state":"Skåne","population":1385,"lat":56.16061,"lng":14.09307},{"city":"Rydsgård","state":"Skåne","population":1383,"lat":55.47285,"lng":13.58829},{"city":"Odensbacken","state":"Örebro","population":1378,"lat":59.16667,"lng":15.53333},{"city":"Älmsta","state":"Stockholm","population":1376,"lat":59.96667,"lng":18.8},{"city":"Stöpen","state":"Västra Götaland","population":1373,"lat":58.47802,"lng":13.86611},{"city":"Nolvik","state":"Västra Götaland","population":1373,"lat":57.775,"lng":11.83333},{"city":"Timmernabben","state":"Kalmar","population":1357,"lat":56.96667,"lng":16.43333},{"city":"Målilla","state":"Kalmar","population":1348,"lat":57.38773,"lng":15.80675},{"city":"Åmotfors","state":"Värmland","population":1347,"lat":59.76191,"lng":12.36211},{"city":"Svärdsjö","state":"Dalarna","population":1335,"lat":60.74022,"lng":15.90173},{"city":"Ramnäs","state":"Västmanland","population":1333,"lat":59.76667,"lng":16.2},{"city":"Diseröd","state":"Västra Götaland","population":1328,"lat":57.92636,"lng":12.02598},{"city":"Degeberga","state":"Skåne","population":1328,"lat":55.83333,"lng":14.08333},{"city":"Hestra","state":"Jönköping","population":1327,"lat":57.44232,"lng":13.59575},{"city":"Hestra","state":"Jönköping","population":1326,"lat":57.91667,"lng":14.58333},{"city":"Sturkö","state":"Blekinge","population":1325,"lat":56.08333,"lng":15.7},{"city":"Styrsö","state":"Västra Götaland","population":1324,"lat":57.61639,"lng":11.78556},{"city":"Gantofta","state":"Skåne","population":1322,"lat":55.98729,"lng":12.80482},{"city":"Åsbro","state":"Örebro","population":1321,"lat":59.0,"lng":15.05},{"city":"Mjällby","state":"Blekinge","population":1319,"lat":56.05,"lng":14.68333},{"city":"Västra Hagen","state":"Halland","population":1319,"lat":57.42444,"lng":11.93583},{"city":"Näsum","state":"Skåne","population":1307,"lat":56.17693,"lng":14.49706},{"city":"Täfteå","state":"Västerbotten","population":1305,"lat":63.8397,"lng":20.47857},{"city":"Örsundsbro","state":"Uppsala","population":1302,"lat":59.73333,"lng":17.3},{"city":"Smygehamn","state":"Skåne","population":1297,"lat":55.34337,"lng":13.36989},{"city":"Smögen","state":"Västra Götaland","population":1292,"lat":58.35593,"lng":11.22411},{"city":"Bergsjö","state":"Gävleborg","population":1292,"lat":61.98253,"lng":17.06368},{"city":"Mörtnäs","state":"Stockholm","population":1291,"lat":59.31862,"lng":18.44312},{"city":"Reftele","state":"Jönköping","population":1289,"lat":57.17467,"lng":13.59498},{"city":"Kvänum","state":"Västra Götaland","population":1278,"lat":58.3,"lng":13.18333},{"city":"Siljansnäs","state":"Dalarna","population":1274,"lat":60.78333,"lng":14.85},{"city":"Mjällby","state":"Halland","population":1272,"lat":56.68333,"lng":12.76667},{"city":"Ärla","state":"Södermanland","population":1272,"lat":59.27983,"lng":16.67896},{"city":"Bor","state":"Jönköping","population":1263,"lat":57.11667,"lng":14.16667},{"city":"Roknäs","state":"Norrbotten","population":1259,"lat":65.35,"lng":21.2},{"city":"Skivarp","state":"Skåne","population":1258,"lat":55.41667,"lng":13.56667},{"city":"Köpingebro","state":"Skåne","population":1254,"lat":55.45526,"lng":13.93453},{"city":"Hova","state":"Västra Götaland","population":1254,"lat":58.85363,"lng":14.21914},{"city":"Löberöd","state":"Skåne","population":1251,"lat":55.7761,"lng":13.52414},{"city":"Norra Åsum","state":"Skåne","population":1248,"lat":55.98333,"lng":14.15},{"city":"Torup","state":"Halland","population":1245,"lat":56.95663,"lng":13.07725},{"city":"Björneborg","state":"Värmland","population":1237,"lat":59.24122,"lng":14.24942},{"city":"Ankarsrum","state":"Kalmar","population":1234,"lat":57.69896,"lng":16.33407},{"city":"Berg","state":"Östergötland","population":1229,"lat":58.48831,"lng":15.52969},{"city":"Annelund","state":"Västra Götaland","population":1226,"lat":57.98843,"lng":13.07483},{"city":"Gustav Adolf","state":"Skåne","population":1224,"lat":56.01667,"lng":14.25},{"city":"Töcksfors","state":"Värmland","population":1221,"lat":59.50816,"lng":11.84431},{"city":"Knäred","state":"Halland","population":1211,"lat":56.51861,"lng":13.32423},{"city":"Sätila","state":"Västra Götaland","population":1210,"lat":57.54172,"lng":12.43429},{"city":"Strövelstorp","state":"Skåne","population":1207,"lat":56.16979,"lng":12.83925},{"city":"Långvik","state":"Stockholm","population":1206,"lat":59.24583,"lng":18.51667},{"city":"Horred","state":"Västra Götaland","population":1203,"lat":57.35475,"lng":12.47777},{"city":"Nolby","state":"Västernorrland","population":1200,"lat":62.2875,"lng":17.36917},{"city":"Bredbyn","state":"Västernorrland","population":1200,"lat":63.44655,"lng":18.11019},{"city":"Hölö","state":"Stockholm","population":1199,"lat":59.28333,"lng":18.66667},{"city":"Gnarp","state":"Gävleborg","population":1199,"lat":62.04874,"lng":17.25858},{"city":"Gagnef","state":"Dalarna","population":1199,"lat":60.59856,"lng":15.07745},{"city":"Kilafors","state":"Gävleborg","population":1197,"lat":61.23333,"lng":16.56667},{"city":"Köpmanholmen","state":"Västernorrland","population":1194,"lat":63.16667,"lng":18.56667},{"city":"Vikarbyn","state":"Dalarna","population":1193,"lat":60.91667,"lng":15.01667},{"city":"Karlholmsbruk","state":"Uppsala","population":1193,"lat":60.52091,"lng":17.63152},{"city":"Stehag","state":"Skåne","population":1191,"lat":55.90188,"lng":13.39577},{"city":"Marieberg","state":"Uppsala","population":1181,"lat":60.23333,"lng":18.5},{"city":"Brunn","state":"Stockholm","population":1180,"lat":59.28,"lng":18.43},{"city":"Sorsele","state":"Västerbotten","population":1175,"lat":65.53484,"lng":17.53702},{"city":"Tärnsjö","state":"Uppsala","population":1174,"lat":60.15,"lng":16.93333},{"city":"Saxtorpsskogen","state":"Skåne","population":1174,"lat":55.83208,"lng":12.94429},{"city":"Överum","state":"Kalmar","population":1166,"lat":57.98856,"lng":16.3139},{"city":"Hököpinge","state":"Skåne","population":1164,"lat":55.49411,"lng":13.00782},{"city":"Axvall","state":"Västra Götaland","population":1164,"lat":58.38333,"lng":13.56667},{"city":"Sätofta","state":"Skåne","population":1160,"lat":55.91667,"lng":13.55},{"city":"Skegrie","state":"Skåne","population":1156,"lat":55.40633,"lng":13.07693},{"city":"Gusum","state":"Östergötland","population":1149,"lat":58.2688,"lng":16.49894},{"city":"Lindholmen","state":"Stockholm","population":1146,"lat":59.58333,"lng":18.1},{"city":"Södra Vi","state":"Kalmar","population":1134,"lat":57.73993,"lng":15.79391},{"city":"Hortlax","state":"Norrbotten","population":1128,"lat":65.28188,"lng":21.40544},{"city":"Horndal","state":"Dalarna","population":1120,"lat":60.3,"lng":16.41667},{"city":"Lit","state":"Jämtland","population":1117,"lat":63.32029,"lng":14.84594},{"city":"Hammarstrand","state":"Jämtland","population":1116,"lat":63.11041,"lng":16.35377},{"city":"Steninge","state":"Halland","population":1112,"lat":56.769,"lng":12.63034},{"city":"Billingsfors","state":"Västra Götaland","population":1108,"lat":58.98333,"lng":12.25},{"city":"Rindö","state":"Stockholm","population":1100,"lat":59.39688,"lng":18.39434},{"city":"Påskallavik","state":"Kalmar","population":1099,"lat":57.16667,"lng":16.45},{"city":"Ås","state":"Västernorrland","population":1097,"lat":63.36667,"lng":16.58333},{"city":"Svalsta","state":"Södermanland","population":1095,"lat":58.74273,"lng":16.86978},{"city":"Hjärnarp","state":"Skåne","population":1095,"lat":56.31667,"lng":12.91667},{"city":"Gärsnäs","state":"Skåne","population":1094,"lat":55.54949,"lng":14.17923},{"city":"Enhagen-Ekbacken","state":"Västmanland","population":1091,"lat":59.56543,"lng":16.53045},{"city":"Mölnbo","state":"Stockholm","population":1089,"lat":59.05,"lng":17.41667},{"city":"Malmbäck","state":"Jönköping","population":1087,"lat":57.57667,"lng":14.4617},{"city":"Länghem","state":"Västra Götaland","population":1086,"lat":57.6,"lng":13.23333},{"city":"Ornäs","state":"Dalarna","population":1083,"lat":60.50944,"lng":15.54128},{"city":"Glommen","state":"Halland","population":1082,"lat":56.93333,"lng":12.35},{"city":"Sköllersta","state":"Örebro","population":1079,"lat":59.13738,"lng":15.3394},{"city":"Torekov","state":"Skåne","population":1078,"lat":56.425,"lng":12.63333},{"city":"Valje","state":"Skåne","population":1067,"lat":56.06279,"lng":14.54388},{"city":"Hedesunda","state":"Gävleborg","population":1067,"lat":60.4,"lng":17.0},{"city":"Angered","state":"Västra Götaland","population":1062,"lat":57.78628,"lng":12.09852},{"city":"Skottsund","state":"Västernorrland","population":1052,"lat":62.29056,"lng":17.38694},{"city":"Nyhammar","state":"Dalarna","population":1052,"lat":60.28333,"lng":14.96667},{"city":"Töre","state":"Norrbotten","population":1051,"lat":65.91243,"lng":22.65128},{"city":"Billeberga","state":"Skåne","population":1050,"lat":55.88333,"lng":13.0},{"city":"Mölltorp","state":"Västra Götaland","population":1047,"lat":58.5,"lng":14.4},{"city":"Grebo","state":"Östergötland","population":1047,"lat":58.30145,"lng":15.87085},{"city":"Tormestorp","state":"Skåne","population":1043,"lat":56.1135,"lng":13.74516},{"city":"Hammerdal","state":"Jämtland","population":1043,"lat":63.57615,"lng":15.36516},{"city":"Överkalix","state":"Norrbotten","population":1036,"lat":66.32754,"lng":22.84414},{"city":"Ellös","state":"Västra Götaland","population":1036,"lat":58.18333,"lng":11.46667},{"city":"Björboholm","state":"Västra Götaland","population":1036,"lat":57.87096,"lng":12.32546},{"city":"Vinninga","state":"Västra Götaland","population":1033,"lat":58.45,"lng":13.26667},{"city":"Grillby","state":"Uppsala","population":1028,"lat":59.62603,"lng":17.25787},{"city":"Gunnebo","state":"Kalmar","population":1022,"lat":57.71667,"lng":16.53333},{"city":"Dingtuna","state":"Västmanland","population":1021,"lat":59.57279,"lng":16.38722},{"city":"Bergkvara","state":"Kalmar","population":1021,"lat":56.39063,"lng":16.07274},{"city":"Ekshärad","state":"Värmland","population":1020,"lat":60.17275,"lng":13.49647},{"city":"Stockaryd","state":"Jönköping","population":1019,"lat":57.31737,"lng":14.59341},{"city":"Olstorp","state":"Södermanland","population":1017,"lat":58.81667,"lng":16.63333},{"city":"Olstorp","state":"Västra Götaland","population":1017,"lat":57.82277,"lng":12.27696},{"city":"Kristdala","state":"Kalmar","population":1016,"lat":57.4007,"lng":16.20496},{"city":"Färlöv","state":"Skåne","population":1016,"lat":56.06667,"lng":14.08333},{"city":"Tjuvkil","state":"Västra Götaland","population":1013,"lat":57.9,"lng":11.73333},{"city":"Årsunda","state":"Gävleborg","population":1012,"lat":60.51644,"lng":16.73436},{"city":"Storebro","state":"Kalmar","population":1011,"lat":57.58333,"lng":15.85},{"city":"Slottsbron","state":"Värmland","population":1010,"lat":59.3227,"lng":13.10268},{"city":"Göta","state":"Västra Götaland","population":1002,"lat":58.10617,"lng":12.15254},{"city":"Rolfs","state":"Norrbotten","population":1001,"lat":65.85,"lng":23.11667},{"city":"Svaneholm","state":"Västra Götaland","population":1000,"lat":57.61667,"lng":12.81667},{"city":"Bjurholm","state":"Västerbotten","population":1000,"lat":63.93027,"lng":19.21369},{"city":"Kyrkhult","state":"Halland","population":999,"lat":56.55,"lng":13.26667},{"city":"Kungsgården","state":"Västernorrland","population":998,"lat":63.0,"lng":17.83333},{"city":"Hummelsta","state":"Uppsala","population":994,"lat":59.62673,"lng":16.9438},{"city":"Rydboholm","state":"Västra Götaland","population":993,"lat":57.65,"lng":12.88333},{"city":"Flyinge","state":"Skåne","population":992,"lat":55.75373,"lng":13.36671},{"city":"Svartvik","state":"Västernorrland","population":991,"lat":62.58639,"lng":17.90849},{"city":"Slöinge","state":"Halland","population":991,"lat":56.85,"lng":12.68333},{"city":"Ekeby","state":"Stockholm","population":990,"lat":59.25,"lng":17.52},{"city":"Alvik","state":"Stockholm","population":990,"lat":59.33188,"lng":17.98325},{"city":"Tidan","state":"Västra Götaland","population":989,"lat":58.57467,"lng":14.00495},{"city":"Våxtorp","state":"Halland","population":987,"lat":56.41678,"lng":13.12008},{"city":"Nolvik","state":"Västra Götaland","population":987,"lat":57.78333,"lng":11.81667},{"city":"Nälden","state":"Jämtland","population":986,"lat":63.35,"lng":14.25},{"city":"Ankarsvik","state":"Västernorrland","population":986,"lat":62.37028,"lng":17.41167},{"city":"Kosta","state":"Kronoberg","population":985,"lat":56.84332,"lng":15.39618},{"city":"Kyrkhult","state":"Blekinge","population":980,"lat":56.35,"lng":14.58333},{"city":"Tuolluvaara","state":"Norrbotten","population":979,"lat":67.85,"lng":20.33333},{"city":"Skillinge","state":"Skåne","population":975,"lat":55.47428,"lng":14.28283},{"city":"Borrby","state":"Skåne","population":975,"lat":55.45707,"lng":14.18041},{"city":"Söderbärke","state":"Dalarna","population":973,"lat":60.07011,"lng":15.56025},{"city":"Norrsundet","state":"Gävleborg","population":966,"lat":60.95,"lng":17.13333},{"city":"Listerby","state":"Blekinge","population":966,"lat":56.2,"lng":15.4},{"city":"Tångaberg","state":"Halland","population":965,"lat":57.17358,"lng":12.22753},{"city":"Ramsele","state":"Västerbotten","population":964,"lat":64.06667,"lng":19.55},{"city":"Kinnarp","state":"Västra Götaland","population":962,"lat":58.07786,"lng":13.52061},{"city":"Söderala","state":"Gävleborg","population":961,"lat":61.28333,"lng":16.96667},{"city":"Vedum","state":"Västra Götaland","population":960,"lat":58.16667,"lng":12.98333},{"city":"Färnäs","state":"Dalarna","population":957,"lat":61.0,"lng":14.63333},{"city":"Funäsdalen","state":"Jämtland","population":956,"lat":62.54607,"lng":12.5428},{"city":"Gärsnäs","state":"Värmland","population":955,"lat":59.41667,"lng":12.9},{"city":"Väckelsång","state":"Kronoberg","population":954,"lat":56.63333,"lng":14.91667},{"city":"Everöd","state":"Skåne","population":953,"lat":55.9,"lng":14.1},{"city":"Åbyggeby","state":"Gävleborg","population":951,"lat":60.73333,"lng":17.11667},{"city":"Indal","state":"Västernorrland","population":949,"lat":62.57732,"lng":17.09807},{"city":"Skogsby","state":"Kalmar","population":948,"lat":56.63643,"lng":16.52321},{"city":"Lesjöfors","state":"Värmland","population":948,"lat":59.9759,"lng":14.18264},{"city":"Kvibille","state":"Halland","population":948,"lat":56.78333,"lng":12.83333},{"city":"Slite","state":"Gotland","population":946,"lat":57.70461,"lng":18.8031},{"city":"Nyland","state":"Västerbotten","population":945,"lat":64.81667,"lng":20.76667},{"city":"Parksidan","state":"Stockholm","population":944,"lat":59.28071,"lng":17.84783},{"city":"Söderåkra","state":"Kalmar","population":943,"lat":56.45,"lng":16.06667},{"city":"Urshult","state":"Kronoberg","population":942,"lat":56.53333,"lng":14.78333},{"city":"Grevie","state":"Skåne","population":937,"lat":56.39167,"lng":12.78333},{"city":"Viby","state":"Uppsala","population":936,"lat":60.1,"lng":17.2},{"city":"Burseryd","state":"Jönköping","population":932,"lat":57.2,"lng":13.28333},{"city":"Sjövik","state":"Västra Götaland","population":929,"lat":57.91667,"lng":12.36667},{"city":"Jonsered","state":"Västra Götaland","population":929,"lat":57.74588,"lng":12.1735},{"city":"Älandsbro","state":"Västernorrland","population":928,"lat":62.67714,"lng":17.8406},{"city":"Gärds Köpinge","state":"Skåne","population":926,"lat":55.93333,"lng":14.15},{"city":"Råby","state":"Uppsala","population":924,"lat":59.53333,"lng":17.5},{"city":"Sundborn","state":"Dalarna","population":923,"lat":60.65,"lng":15.76667},{"city":"Svarte","state":"Skåne","population":921,"lat":55.43184,"lng":13.71394},{"city":"Tollered","state":"Västra Götaland","population":920,"lat":57.81667,"lng":12.41667},{"city":"Brännö","state":"Västra Götaland","population":918,"lat":57.64528,"lng":11.78167},{"city":"Ljungaverk","state":"Västernorrland","population":917,"lat":62.48947,"lng":16.04257},{"city":"Hållsta","state":"Södermanland","population":917,"lat":59.29491,"lng":16.45434},{"city":"Svenstavik","state":"Jämtland","population":916,"lat":62.76667,"lng":14.43535},{"city":"Kjulaås","state":"Södermanland","population":915,"lat":59.38306,"lng":16.66667},{"city":"Varekil","state":"Västra Götaland","population":912,"lat":58.12293,"lng":11.70777},{"city":"Näsviken","state":"Gävleborg","population":910,"lat":61.76667,"lng":16.86667},{"city":"Målsryd","state":"Västra Götaland","population":910,"lat":57.68333,"lng":13.05},{"city":"Lundsbrunn","state":"Västra Götaland","population":909,"lat":58.47168,"lng":13.44727},{"city":"Fjärdhundra","state":"Uppsala","population":907,"lat":59.77554,"lng":16.92106},{"city":"Diö","state":"Kronoberg","population":906,"lat":56.63333,"lng":14.21667},{"city":"Dingersjö","state":"Västernorrland","population":906,"lat":62.27467,"lng":17.37994},{"city":"Roma","state":"Gotland","population":905,"lat":57.50357,"lng":18.45899},{"city":"Dingle","state":"Västra Götaland","population":901,"lat":58.5275,"lng":11.5777},{"city":"Mosås","state":"Örebro","population":899,"lat":59.2,"lng":15.13333},{"city":"Rockneby","state":"Kalmar","population":898,"lat":56.80223,"lng":16.35014},{"city":"Österbymo","state":"Östergötland","population":897,"lat":57.82465,"lng":15.27357},{"city":"Rutvik","state":"Norrbotten","population":896,"lat":65.67171,"lng":22.08973},{"city":"Timmersdala","state":"Västra Götaland","population":895,"lat":58.53333,"lng":13.75},{"city":"Kivik","state":"Skåne","population":895,"lat":55.6851,"lng":14.22025},{"city":"Sjövik","state":"Dalarna","population":892,"lat":60.15,"lng":16.31667},{"city":"Nyland","state":"Västernorrland","population":892,"lat":63.00619,"lng":17.7594},{"city":"Antnäs","state":"Norrbotten","population":889,"lat":65.55462,"lng":21.83551},{"city":"Rejmyre","state":"Östergötland","population":886,"lat":58.83333,"lng":15.91667},{"city":"Ullervad","state":"Västra Götaland","population":885,"lat":58.66667,"lng":13.86667},{"city":"Frufällan","state":"Västra Götaland","population":884,"lat":57.78333,"lng":12.96667},{"city":"Dals Rostock","state":"Västra Götaland","population":882,"lat":58.71667,"lng":12.35},{"city":"Norra Bro","state":"Örebro","population":880,"lat":59.21667,"lng":15.25},{"city":"Råby","state":"Dalarna","population":879,"lat":60.1,"lng":16.36667},{"city":"Hammenhög","state":"Skåne","population":879,"lat":55.5,"lng":14.15},{"city":"Ersmark","state":"Västerbotten","population":875,"lat":64.84806,"lng":20.896},{"city":"Tällberg","state":"Dalarna","population":875,"lat":60.81667,"lng":15.0},{"city":"Röstånga","state":"Skåne","population":874,"lat":56.0,"lng":13.28333},{"city":"Bredsand","state":"Uppsala","population":874,"lat":59.58333,"lng":17.06667},{"city":"Torsåker","state":"Västernorrland","population":873,"lat":63.06667,"lng":17.75},{"city":"Junsele","state":"Västernorrland","population":873,"lat":63.69586,"lng":16.88256},{"city":"Aröd","state":"Västra Götaland","population":873,"lat":57.96841,"lng":11.78487},{"city":"Lilla Tjärby","state":"Halland","population":872,"lat":56.527,"lng":13.05676},{"city":"Kåhög","state":"Västra Götaland","population":871,"lat":57.75086,"lng":12.15224},{"city":"Hagby","state":"Kalmar","population":871,"lat":56.55175,"lng":16.18684},{"city":"Gimåt","state":"Västernorrland","population":870,"lat":63.31667,"lng":18.71667},{"city":"Tystberga","state":"Södermanland","population":869,"lat":58.85,"lng":17.23306},{"city":"Östansjö","state":"Örebro","population":869,"lat":59.05,"lng":14.98333},{"city":"Östra Husby","state":"Östergötland","population":868,"lat":58.58306,"lng":16.55},{"city":"Dösjebro","state":"Skåne","population":866,"lat":55.82098,"lng":13.02897},{"city":"Tollered","state":"Västra Götaland","population":863,"lat":57.95,"lng":12.1},{"city":"Östansjö","state":"Norrbotten","population":862,"lat":66.09188,"lng":17.52283},{"city":"Algutsrum","state":"Kalmar","population":862,"lat":56.68299,"lng":16.52722},{"city":"Härryda","state":"Västra Götaland","population":861,"lat":57.65436,"lng":12.36318},{"city":"Sollerön","state":"Dalarna","population":860,"lat":60.91667,"lng":14.61667},{"city":"Viksäter","state":"Stockholm","population":859,"lat":59.24091,"lng":17.61486},{"city":"Grythyttan","state":"Örebro","population":859,"lat":59.70593,"lng":14.53453},{"city":"Burseryd","state":"Jönköping","population":859,"lat":57.36667,"lng":14.78333},{"city":"Bönan","state":"Gävleborg","population":859,"lat":60.73962,"lng":17.31239},{"city":"Ramsele","state":"Västernorrland","population":858,"lat":63.53947,"lng":16.46791},{"city":"Mörlunda","state":"Kalmar","population":857,"lat":57.31667,"lng":15.85},{"city":"Karby","state":"Stockholm","population":853,"lat":59.56087,"lng":18.22007},{"city":"Vretstorp","state":"Örebro","population":852,"lat":59.03333,"lng":14.86667},{"city":"Ransta","state":"Västmanland","population":850,"lat":59.81037,"lng":16.63738},{"city":"Fjällbacka","state":"Västra Götaland","population":850,"lat":58.6,"lng":11.28333},{"city":"Njutånger","state":"Gävleborg","population":849,"lat":61.6125,"lng":17.05556},{"city":"Torsåker","state":"Gävleborg","population":848,"lat":60.5109,"lng":16.47069},{"city":"Trönninge","state":"Halland","population":847,"lat":57.14474,"lng":12.29253},{"city":"Fors","state":"Västernorrland","population":845,"lat":63.41667,"lng":18.58333},{"city":"Karby","state":"Uppsala","population":844,"lat":60.15,"lng":17.58333},{"city":"Skillinge","state":"Västmanland","population":841,"lat":59.42423,"lng":16.11746},{"city":"Vikmanshyttan","state":"Dalarna","population":840,"lat":60.29752,"lng":15.83141},{"city":"Enviken","state":"Dalarna","population":840,"lat":60.8,"lng":15.78333},{"city":"Björnlunda","state":"Södermanland","population":838,"lat":59.06465,"lng":17.15931},{"city":"Hede","state":"Jämtland","population":837,"lat":62.41367,"lng":13.51255},{"city":"Alstermo","state":"Kronoberg","population":836,"lat":56.97303,"lng":15.65413},{"city":"Anneberg","state":"Jönköping","population":834,"lat":57.72349,"lng":14.80627},{"city":"Våmhus","state":"Dalarna","population":831,"lat":61.11491,"lng":14.4718},{"city":"Tjörnarp","state":"Skåne","population":829,"lat":55.99543,"lng":13.6279},{"city":"Fårösund","state":"Gotland","population":829,"lat":57.85822,"lng":19.0619},{"city":"Mellansel","state":"Västernorrland","population":825,"lat":63.42512,"lng":18.31555},{"city":"Västra Ingelstad","state":"Skåne","population":824,"lat":55.49108,"lng":13.1121},{"city":"Nyborg","state":"Norrbotten","population":823,"lat":65.78333,"lng":23.2},{"city":"Unnaryd","state":"Halland","population":823,"lat":56.95,"lng":13.51667},{"city":"Koskullskulle","state":"Norrbotten","population":818,"lat":67.18333,"lng":20.75},{"city":"Essvik","state":"Västernorrland","population":818,"lat":62.31639,"lng":17.39306},{"city":"Hällevadsholm","state":"Västra Götaland","population":816,"lat":58.5796,"lng":11.54058},{"city":"Almunge","state":"Uppsala","population":816,"lat":59.88333,"lng":18.05},{"city":"Arkelstorp","state":"Skåne","population":815,"lat":56.16989,"lng":14.29082},{"city":"Norje","state":"Blekinge","population":814,"lat":56.11667,"lng":14.66667},{"city":"Vollsjö","state":"Skåne","population":813,"lat":55.70039,"lng":13.7915},{"city":"Fjällbacka","state":"Västra Götaland","population":812,"lat":59.04972,"lng":12.56667},{"city":"Åbytorp","state":"Örebro","population":811,"lat":59.12559,"lng":15.07363},{"city":"Lövånger","state":"Västerbotten","population":810,"lat":64.36667,"lng":21.3},{"city":"Rundvik","state":"Västerbotten","population":810,"lat":63.53333,"lng":19.43333},{"city":"Stora Levene","state":"Västra Götaland","population":809,"lat":58.32468,"lng":12.92533},{"city":"Björnås","state":"Skåne","population":808,"lat":56.12487,"lng":12.96502},{"city":"Hållsta","state":"Jämtland","population":804,"lat":63.0,"lng":14.96667},{"city":"Sexdrega","state":"Västra Götaland","population":802,"lat":57.58333,"lng":13.11667},{"city":"Hörvik","state":"Blekinge","population":802,"lat":56.04233,"lng":14.76175},{"city":"Stora Mellösa","state":"Örebro","population":801,"lat":59.21667,"lng":15.5},{"city":"Bergshammar","state":"Södermanland","population":801,"lat":58.7405,"lng":16.91284},{"city":"Vallåkra","state":"Skåne","population":800,"lat":55.96133,"lng":12.85611},{"city":"Tureholm","state":"Stockholm","population":799,"lat":59.31667,"lng":17.71667},{"city":"Mora","state":"Dalarna","population":797,"lat":60.4,"lng":15.6},{"city":"Ålem","state":"Kalmar","population":797,"lat":56.95,"lng":16.38333},{"city":"Vittangi","state":"Norrbotten","population":791,"lat":67.67589,"lng":21.64204},{"city":"Sommen","state":"Jönköping","population":789,"lat":58.13333,"lng":14.96667},{"city":"Östra Karup","state":"Skåne","population":789,"lat":56.42608,"lng":12.93595},{"city":"Järpås","state":"Västra Götaland","population":789,"lat":58.38333,"lng":12.96667},{"city":"Timmele","state":"Västra Götaland","population":788,"lat":57.85946,"lng":13.42891},{"city":"Nykroppa","state":"Värmland","population":788,"lat":59.62274,"lng":14.30313},{"city":"Lekeryd","state":"Jönköping","population":788,"lat":57.76667,"lng":14.4},{"city":"Ölmanäs","state":"Halland","population":787,"lat":57.36241,"lng":12.08839},{"city":"Skavkulla","state":"Blekinge","population":784,"lat":56.18333,"lng":15.51667},{"city":"Holsbybrunn","state":"Jönköping","population":783,"lat":57.43333,"lng":15.2},{"city":"Mörsil","state":"Jämtland","population":781,"lat":63.30906,"lng":13.66356},{"city":"Harlösa","state":"Skåne","population":780,"lat":55.71725,"lng":13.52623},{"city":"Nävekvarn","state":"Södermanland","population":779,"lat":58.63306,"lng":16.8},{"city":"Högsjö","state":"Västernorrland","population":779,"lat":62.52177,"lng":17.09133},{"city":"Villshärad","state":"Halland","population":778,"lat":56.69466,"lng":12.69586},{"city":"Glanshammar","state":"Örebro","population":778,"lat":59.31667,"lng":15.4},{"city":"Jörn","state":"Västerbotten","population":777,"lat":65.05914,"lng":20.03919},{"city":"Vintrie","state":"Skåne","population":777,"lat":55.55,"lng":12.96667},{"city":"Åbyggeby","state":"Gävleborg","population":776,"lat":60.91667,"lng":16.65},{"city":"Ytternäs","state":"Uppsala","population":775,"lat":59.78333,"lng":17.6},{"city":"Kungsgården","state":"Gävleborg","population":775,"lat":60.6,"lng":16.61667},{"city":"Säve","state":"Västra Götaland","population":774,"lat":57.8,"lng":11.91667},{"city":"Vessigebro","state":"Halland","population":773,"lat":56.98333,"lng":12.65},{"city":"Fors","state":"Dalarna","population":772,"lat":60.20767,"lng":16.30787},{"city":"Arkelstorp","state":"Skåne","population":772,"lat":56.2,"lng":13.81667},{"city":"Alvik","state":"Norrbotten","population":771,"lat":65.51667,"lng":21.76667},{"city":"Steninge","state":"Stockholm","population":769,"lat":59.60199,"lng":17.80459},{"city":"Sälen","state":"Dalarna","population":769,"lat":61.15,"lng":13.26667},{"city":"Grevie","state":"Skåne","population":769,"lat":56.36667,"lng":12.8},{"city":"Rinkaby","state":"Skåne","population":768,"lat":55.98333,"lng":14.26667},{"city":"Orrefors","state":"Kalmar","population":766,"lat":56.84058,"lng":15.74599},{"city":"Johannishus","state":"Blekinge","population":766,"lat":56.21667,"lng":15.41667},{"city":"Väröbacka","state":"Halland","population":765,"lat":57.25,"lng":12.18333},{"city":"Holm","state":"Halland","population":764,"lat":56.73948,"lng":12.85462},{"city":"Sylta","state":"Västmanland","population":763,"lat":59.53333,"lng":15.98333},{"city":"Sylta","state":"Stockholm","population":763,"lat":59.48014,"lng":17.71631},{"city":"Östra Grevie","state":"Skåne","population":758,"lat":55.46667,"lng":13.13333},{"city":"Segersäng","state":"Stockholm","population":757,"lat":59.02791,"lng":17.93379},{"city":"Gällö","state":"Jämtland","population":757,"lat":62.91275,"lng":15.2319},{"city":"Abbekås","state":"Skåne","population":757,"lat":55.4,"lng":13.6},{"city":"Alster","state":"Värmland","population":756,"lat":59.39853,"lng":13.61369},{"city":"Vedevåg","state":"Örebro","population":753,"lat":59.5269,"lng":15.29254},{"city":"Älvnäs","state":"Stockholm","population":753,"lat":59.28333,"lng":17.76667},{"city":"Ronnebyhamn","state":"Blekinge","population":749,"lat":56.18333,"lng":15.3},{"city":"Ramvik","state":"Västernorrland","population":746,"lat":62.81667,"lng":17.85},{"city":"Åsensbruk","state":"Västra Götaland","population":746,"lat":58.79878,"lng":12.42194},{"city":"Dvärsätt","state":"Jämtland","population":745,"lat":63.31667,"lng":14.46667},{"city":"Ardala","state":"Västra Götaland","population":745,"lat":58.36134,"lng":13.33648},{"city":"Högsäter","state":"Värmland","population":744,"lat":59.9,"lng":11.98333},{"city":"Trönningenäs","state":"Halland","population":743,"lat":57.13846,"lng":12.22596},{"city":"Ludvigsborg","state":"Skåne","population":743,"lat":55.9,"lng":13.6},{"city":"Vidja","state":"Stockholm","population":741,"lat":59.2,"lng":18.06667},{"city":"Nusnäs","state":"Dalarna","population":741,"lat":60.96667,"lng":14.63333},{"city":"Tomtebo","state":"Västerbotten","population":741,"lat":63.80433,"lng":20.36955},{"city":"Idala","state":"Skåne","population":739,"lat":55.62,"lng":13.5},{"city":"Åsljunga","state":"Skåne","population":738,"lat":56.31667,"lng":13.36667},{"city":"Skee","state":"Västra Götaland","population":736,"lat":58.9257,"lng":11.26931},{"city":"Sparreholm","state":"Södermanland","population":734,"lat":59.06667,"lng":16.81667},{"city":"Dalstorp","state":"Västra Götaland","population":734,"lat":57.60405,"lng":13.52317},{"city":"Oskar-Fredriksborg","state":"Stockholm","population":732,"lat":59.4,"lng":18.43333},{"city":"Kattarp","state":"Skåne","population":732,"lat":56.14024,"lng":12.78234},{"city":"Korsberga","state":"Jönköping","population":731,"lat":57.30246,"lng":15.12519},{"city":"Stidsvig","state":"Skåne","population":730,"lat":56.2,"lng":13.13333},{"city":"Figeholm","state":"Kalmar","population":730,"lat":57.36667,"lng":16.55},{"city":"Stoby","state":"Skåne","population":729,"lat":56.17772,"lng":13.82828},{"city":"Myresjö","state":"Jönköping","population":728,"lat":57.38509,"lng":14.96325},{"city":"Ljung","state":"Västra Götaland","population":727,"lat":57.98678,"lng":13.05579},{"city":"Latorpsbruk","state":"Örebro","population":727,"lat":59.27264,"lng":14.98328},{"city":"Barnarp","state":"Jönköping","population":724,"lat":57.704,"lng":14.178},{"city":"Ljunga","state":"Östergötland","population":722,"lat":58.51667,"lng":16.35},{"city":"Allerum","state":"Skåne","population":722,"lat":56.12009,"lng":12.69406},{"city":"Skärplinge","state":"Uppsala","population":720,"lat":60.46667,"lng":17.76667},{"city":"Edsvalla","state":"Värmland","population":720,"lat":59.43472,"lng":13.20887},{"city":"Brösarp","state":"Skåne","population":719,"lat":55.72442,"lng":14.10254},{"city":"Bergvik","state":"Gävleborg","population":719,"lat":61.25349,"lng":16.82749},{"city":"Sörvik","state":"Jämtland","population":718,"lat":64.13333,"lng":15.71667},{"city":"Fredriksberg","state":"Dalarna","population":717,"lat":60.13333,"lng":14.38333},{"city":"Bottnaryd","state":"Jönköping","population":717,"lat":57.77186,"lng":13.82631},{"city":"Fliseryd","state":"Kalmar","population":716,"lat":57.13333,"lng":16.26667},{"city":"Harbo","state":"Uppsala","population":714,"lat":60.1,"lng":17.2},{"city":"Berga","state":"Kalmar","population":713,"lat":57.21667,"lng":16.03333},{"city":"Arild","state":"Skåne","population":713,"lat":56.275,"lng":12.575},{"city":"Torsång","state":"Dalarna","population":712,"lat":60.46667,"lng":15.56667},{"city":"Jössefors","state":"Värmland","population":711,"lat":59.67295,"lng":12.50335},{"city":"Bäckefors","state":"Västra Götaland","population":709,"lat":58.8049,"lng":12.16202},{"city":"Kungsberga","state":"Stockholm","population":708,"lat":59.40483,"lng":17.62926},{"city":"Fridlevstad","state":"Blekinge","population":708,"lat":56.27298,"lng":15.53415},{"city":"Sandhem","state":"Västra Götaland","population":706,"lat":58.01667,"lng":13.48333},{"city":"Idre","state":"Dalarna","population":706,"lat":61.85821,"lng":12.71401},{"city":"Hamburgsund","state":"Västra Götaland","population":706,"lat":58.55254,"lng":11.27268},{"city":"Knutby","state":"Uppsala","population":705,"lat":59.90867,"lng":18.26568},{"city":"Skepparkroken","state":"Skåne","population":705,"lat":56.29167,"lng":12.8},{"city":"Stöde","state":"Västernorrland","population":704,"lat":62.41917,"lng":16.58727},{"city":"Floda","state":"Dalarna","population":701,"lat":60.5061,"lng":14.79275},{"city":"Rinkaby","state":"Örebro","population":700,"lat":59.46667,"lng":15.58333},{"city":"Länna","state":"Uppsala","population":700,"lat":59.87149,"lng":17.95125},{"city":"Ullared","state":"Halland","population":699,"lat":57.13333,"lng":12.71667},{"city":"Sörvik","state":"Dalarna","population":699,"lat":60.18393,"lng":15.15633},{"city":"Furuvik","state":"Gävleborg","population":697,"lat":60.65,"lng":17.33333},{"city":"Häradsbygden","state":"Dalarna","population":696,"lat":60.7,"lng":15.03333},{"city":"Stora Vika","state":"Stockholm","population":695,"lat":58.95569,"lng":17.78644},{"city":"Grimsås","state":"Västra Götaland","population":694,"lat":57.4838,"lng":13.55027},{"city":"Valskog","state":"Västmanland","population":693,"lat":59.44179,"lng":15.94429},{"city":"Ryssby","state":"Kronoberg","population":691,"lat":56.86667,"lng":14.16667},{"city":"Högsjö","state":"Södermanland","population":691,"lat":59.02669,"lng":15.66873},{"city":"Ryssby","state":"Jönköping","population":689,"lat":57.71667,"lng":14.65},{"city":"Filsbäck","state":"Västra Götaland","population":689,"lat":58.492,"lng":13.247},{"city":"Djurmo","state":"Dalarna","population":689,"lat":60.55027,"lng":15.18362},{"city":"Barsebäck","state":"Skåne","population":689,"lat":55.76667,"lng":12.95},{"city":"Sandskogen","state":"Skåne","population":689,"lat":55.758,"lng":12.98333},{"city":"Glommen","state":"Halland","population":687,"lat":57.93333,"lng":12.35},{"city":"Åryd","state":"Kronoberg","population":687,"lat":56.82762,"lng":14.97937},{"city":"Otterbäcken","state":"Västra Götaland","population":686,"lat":58.95,"lng":14.03333},{"city":"Sköldinge","state":"Södermanland","population":685,"lat":59.03106,"lng":16.44713},{"city":"Lotorp","state":"Östergötland","population":685,"lat":58.73333,"lng":15.83333},{"city":"Fagersanna","state":"Västra Götaland","population":684,"lat":58.46667,"lng":14.3},{"city":"Vuollerim","state":"Norrbotten","population":683,"lat":66.43038,"lng":20.62434},{"city":"Hällekis","state":"Västra Götaland","population":683,"lat":58.62919,"lng":13.43801},{"city":"Silverdalen","state":"Kalmar","population":681,"lat":57.54095,"lng":15.75104},{"city":"Frånö","state":"Västernorrland","population":679,"lat":62.90843,"lng":17.84729},{"city":"Eldsberga","state":"Halland","population":679,"lat":56.6,"lng":13.0},{"city":"Årnäs","state":"Halland","population":679,"lat":57.20627,"lng":12.21293},{"city":"Strömsholm","state":"Västmanland","population":676,"lat":59.52717,"lng":16.243},{"city":"Särna","state":"Dalarna","population":675,"lat":61.69284,"lng":13.14257},{"city":"Sandhem","state":"Jönköping","population":673,"lat":57.98333,"lng":13.76667},{"city":"Hällaryd","state":"Blekinge","population":673,"lat":56.2,"lng":14.95},{"city":"Sjörröd","state":"Skåne","population":672,"lat":56.28333,"lng":13.91667},{"city":"Månkarbo","state":"Uppsala","population":671,"lat":60.22822,"lng":17.46213},{"city":"Gyttorp","state":"Örebro","population":671,"lat":59.50503,"lng":14.96661},{"city":"Koppom","state":"Värmland","population":669,"lat":59.70348,"lng":12.1542},{"city":"Gullbranna","state":"Halland","population":667,"lat":56.59167,"lng":12.95},{"city":"Sankt Olof","state":"Skåne","population":666,"lat":55.63333,"lng":14.13333},{"city":"Edane","state":"Värmland","population":666,"lat":59.62918,"lng":12.82564},{"city":"Lidhult","state":"Kronoberg","population":665,"lat":56.83333,"lng":13.43333},{"city":"Hyssna","state":"Västra Götaland","population":665,"lat":57.55726,"lng":12.53841},{"city":"Stensjön","state":"Västerbotten","population":663,"lat":64.98333,"lng":21.1},{"city":"Påryd","state":"Kalmar","population":663,"lat":56.56667,"lng":15.91667},{"city":"Varnhem","state":"Västra Götaland","population":662,"lat":58.38333,"lng":13.65},{"city":"Rot","state":"Dalarna","population":662,"lat":61.25,"lng":14.03333},{"city":"Björke","state":"Gävleborg","population":661,"lat":60.76667,"lng":17.2},{"city":"Väjern","state":"Västra Götaland","population":659,"lat":58.38333,"lng":11.26667},{"city":"Vissefjärda","state":"Kalmar","population":658,"lat":56.53333,"lng":15.58333},{"city":"Hok","state":"Jönköping","population":658,"lat":57.51529,"lng":14.27746},{"city":"Björbo","state":"Dalarna","population":658,"lat":60.45935,"lng":14.71598},{"city":"Vallberga","state":"Halland","population":655,"lat":56.46667,"lng":13.01667},{"city":"Traryd","state":"Kronoberg","population":655,"lat":56.57864,"lng":13.74916},{"city":"Bäsna","state":"Dalarna","population":655,"lat":60.53333,"lng":15.2},{"city":"Genevad","state":"Halland","population":653,"lat":56.56858,"lng":13.03186},{"city":"Ruda","state":"Kalmar","population":652,"lat":57.10911,"lng":16.11424},{"city":"Ölsta","state":"Stockholm","population":652,"lat":59.4,"lng":17.65},{"city":"Hagby","state":"Uppsala","population":651,"lat":59.8,"lng":17.36667},{"city":"Dalum","state":"Västra Götaland","population":651,"lat":57.89852,"lng":13.4646},{"city":"Vallargärdet","state":"Värmland","population":648,"lat":59.47744,"lng":13.58505},{"city":"Simlångsdalen","state":"Halland","population":648,"lat":56.72199,"lng":13.13211},{"city":"Igelstorp","state":"Västra Götaland","population":648,"lat":58.4,"lng":13.96667},{"city":"Hoting","state":"Jämtland","population":648,"lat":64.11353,"lng":16.20552},{"city":"Moholm","state":"Västra Götaland","population":647,"lat":58.60645,"lng":14.03897},{"city":"Grundsund","state":"Västra Götaland","population":647,"lat":58.21217,"lng":11.41877},{"city":"Öbonäs","state":"Östergötland","population":646,"lat":58.54333,"lng":16.19092},{"city":"Forsby","state":"Gävleborg","population":646,"lat":60.71667,"lng":17.13333},{"city":"Enånger","state":"Gävleborg","population":643,"lat":61.54556,"lng":17.01056},{"city":"Hökerum","state":"Västra Götaland","population":642,"lat":57.84085,"lng":13.28351},{"city":"Väring","state":"Västra Götaland","population":641,"lat":58.50486,"lng":13.96877},{"city":"Lugnås","state":"Västra Götaland","population":641,"lat":58.64323,"lng":13.70162},{"city":"Frändefors","state":"Västra Götaland","population":640,"lat":58.5,"lng":12.28333},{"city":"Hillared","state":"Västra Götaland","population":639,"lat":57.63333,"lng":13.15},{"city":"Tällberg","state":"Västerbotten","population":637,"lat":64.98333,"lng":20.8},{"city":"Lucksta","state":"Västernorrland","population":637,"lat":62.29903,"lng":17.04958},{"city":"Duved","state":"Jämtland","population":637,"lat":63.4,"lng":12.86667},{"city":"Skyttorp","state":"Uppsala","population":636,"lat":60.08333,"lng":17.73333},{"city":"Skällinge","state":"Halland","population":636,"lat":57.18333,"lng":12.46667},{"city":"Lövestad","state":"Skåne","population":636,"lat":55.65265,"lng":13.89148},{"city":"Lidhult","state":"Östergötland","population":635,"lat":57.95,"lng":15.4},{"city":"Mölle","state":"Skåne","population":634,"lat":56.28333,"lng":12.5},