{"timezone":"Europe/Zurich","countries":{"Switzerland":[{"city":"Zürich","state":"Zurich","population":415367,"lat":47.36667,"lng":8.55},{"city":"Genève","state":"Geneva","population":201741,"lat":46.20222,"lng":6.14569},{"city":"Basel","state":"Basel-City","population":177595,"lat":47.55839,"lng":7.57327},{"city":"Lausanne","state":"Vaud","population":139111,"lat":46.516,"lng":6.63282},{"city":"Bern","state":"Bern","population":121631,"lat":46.94809,"lng":7.44744},{"city":"Winterthur","state":"Zurich","population":111840,"lat":47.50564,"lng":8.72413},{"city":"Luzern","state":"Lucerne","population":81691,"lat":47.05048,"lng":8.30635},{"city":"Sankt Gallen","state":"Saint Gallen","population":75833,"lat":47.42391,"lng":9.37477},{"city":"Lugano","state":"Ticino","population":63185,"lat":46.01008,"lng":8.96004},{"city":"Biel/Bienne","state":"Bern","population":55120,"lat":47.13713,"lng":7.24608},{"city":"Zürich (Kreis 11)","state":"Zurich","population":54260,"lat":47.42326,"lng":8.52166},{"city":"Zürich (Kreis 3)","state":"Zurich","population":46018,"lat":47.35785,"lng":8.50296},{"city":"Zürich (Kreis 9)","state":"Zurich","population":44878,"lat":47.38245,"lng":8.47993},{"city":"Thun","state":"Bern","population":43723,"lat":46.75118,"lng":7.62166},{"city":"Bellinzona","state":"Ticino","population":43220,"lat":46.19278,"lng":9.01703},{"city":"Köniz","state":"Bern","population":41784,"lat":46.92436,"lng":7.41457},{"city":"Fribourg","state":"Fribourg","population":38365,"lat":46.80237,"lng":7.15128},{"city":"La Chaux-de-Fonds","state":"Neuchâtel","population":37942,"lat":47.09993,"lng":6.82586},{"city":"Schaffhausen","state":"Schaffhausen","population":36587,"lat":47.69732,"lng":8.63493},{"city":"Zürich (Kreis 10)","state":"Zurich","population":36216,"lat":47.40773,"lng":8.5005},{"city":"Chur","state":"Grisons","population":35373,"lat":46.84986,"lng":9.53287},{"city":"Rapperswil","state":"Saint Gallen","population":34776,"lat":47.22557,"lng":8.82228},{"city":"Uster","state":"Zurich","population":34715,"lat":47.34713,"lng":8.72091},{"city":"Sitten","state":"Valais","population":34708,"lat":46.22739,"lng":7.35559},{"city":"Zürich (Kreis 7)","state":"Zurich","population":33820,"lat":47.37328,"lng":8.58038},{"city":"Neuchâtel","state":"Neuchâtel","population":33475,"lat":46.99179,"lng":6.931},{"city":"Emmen","state":"Lucerne","population":30926,"lat":47.07819,"lng":8.27331},{"city":"Zug","state":"Zug","population":30542,"lat":47.17242,"lng":8.51745},{"city":"Yverdon-les-Bains","state":"Vaud","population":30157,"lat":46.77852,"lng":6.64115},{"city":"Vernier","state":"Geneva","population":30086,"lat":46.21702,"lng":6.08497},{"city":"Zürich (Kreis 6)","state":"Zurich","population":29951,"lat":47.39223,"lng":8.54381},{"city":"Zürich (Kreis 2)","state":"Zurich","population":29215,"lat":47.33756,"lng":8.5211},{"city":"Zürich (Kreis 9) / Altstetten","state":"Zurich","population":28307,"lat":47.38946,"lng":8.48533},{"city":"Zürich (Kreis 12)","state":"Zurich","population":28189,"lat":47.40372,"lng":8.57608},{"city":"Lancy","state":"Geneva","population":27291,"lat":46.18981,"lng":6.11441},{"city":"Zürich (Kreis 4) / Aussersihl","state":"Zurich","population":27273,"lat":47.37752,"lng":8.52127},{"city":"Montreux","state":"Vaud","population":25984,"lat":46.43301,"lng":6.91143},{"city":"Frauenfeld","state":"Thurgau","population":25607,"lat":47.55776,"lng":8.89893},{"city":"Kriens","state":"Lucerne","population":25010,"lat":47.0311,"lng":8.28547},{"city":"Wetzikon","state":"Zurich","population":24764,"lat":47.3264,"lng":8.79779},{"city":"Wil","state":"Saint Gallen","population":23955,"lat":47.46152,"lng":9.04552},{"city":"Bulle","state":"Fribourg","population":23438,"lat":46.61797,"lng":7.0569},{"city":"Horgen","state":"Zurich","population":22662,"lat":47.25983,"lng":8.59778},{"city":"Kreuzlingen","state":"Thurgau","population":21997,"lat":47.65051,"lng":9.17504},{"city":"Aarau","state":"Aargau","population":21503,"lat":47.39254,"lng":8.04422},{"city":"Zürich (Kreis 3) / Sihlfeld","state":"Zurich","population":20977,"lat":47.37382,"lng":8.51164},{"city":"Renens","state":"Vaud","population":20927,"lat":46.53989,"lng":6.5881},{"city":"Dietikon","state":"Zurich","population":20893,"lat":47.40165,"lng":8.40015},{"city":"Baar","state":"Zug","population":20546,"lat":47.19625,"lng":8.52954},{"city":"Bülach","state":"Zurich","population":20443,"lat":47.52197,"lng":8.54049},{"city":"Zürich (Kreis 6) / Unterstrass","state":"Zurich","population":20045,"lat":47.3953,"lng":8.53721},{"city":"Riehen","state":"Basel-City","population":20000,"lat":47.57884,"lng":7.64683},{"city":"Vevey","state":"Vaud","population":19891,"lat":46.46299,"lng":6.84345},{"city":"Dübendorf","state":"Zurich","population":19882,"lat":47.39724,"lng":8.61872},{"city":"Meyrin","state":"Geneva","population":19772,"lat":46.23424,"lng":6.08025},{"city":"Carouge","state":"Geneva","population":19344,"lat":46.18096,"lng":6.13921},{"city":"Baden","state":"Aargau","population":19340,"lat":47.47333,"lng":8.30592},{"city":"Reinach","state":"Basel-Landschaft","population":19216,"lat":47.49702,"lng":7.59172},{"city":"Olten","state":"Solothurn","population":18362,"lat":47.34999,"lng":7.90329},{"city":"Martigny-Ville","state":"Valais","population":18301,"lat":46.10276,"lng":7.07245},{"city":"Wettingen","state":"Aargau","population":18191,"lat":47.46606,"lng":8.32663},{"city":"Allschwil","state":"Basel-Landschaft","population":18189,"lat":47.55074,"lng":7.53599},{"city":"Zürich (Kreis 11) / Oerlikon","state":"Zurich","population":17922,"lat":47.40823,"lng":8.54258},{"city":"Zürich (Kreis 11) / Seebach","state":"Zurich","population":17851,"lat":47.42181,"lng":8.54779},{"city":"Monthey","state":"Valais","population":17777,"lat":46.25451,"lng":6.95406},{"city":"Jona","state":"Saint Gallen","population":17655,"lat":47.22983,"lng":8.83884},{"city":"Onex","state":"Geneva","population":17302,"lat":46.18396,"lng":6.10237},{"city":"Zürich (Kreis 11) / Affoltern","state":"Zurich","population":17241,"lat":47.41814,"lng":8.5122},{"city":"Zürich (Kreis 10) / Höngg","state":"Zurich","population":17117,"lat":47.40313,"lng":8.4971},{"city":"Gossau","state":"Saint Gallen","population":17043,"lat":47.41551,"lng":9.25482},{"city":"Muttenz","state":"Basel-Landschaft","population":16927,"lat":47.52271,"lng":7.64511},{"city":"Nyon","state":"Vaud","population":16797,"lat":46.38318,"lng":6.23955},{"city":"Sierre","state":"Valais","population":16790,"lat":46.29192,"lng":7.53559},{"city":"Solothurn","state":"Solothurn","population":16777,"lat":47.20791,"lng":7.53714},{"city":"Cham","state":"Zug","population":16719,"lat":47.18213,"lng":8.46358},{"city":"Zürich (Kreis 9) / Albisrieden","state":"Zurich","population":16480,"lat":47.37398,"lng":8.49007},{"city":"Burgdorf","state":"Bern","population":16420,"lat":47.05901,"lng":7.62786},{"city":"Oberwinterthur (Kreis 2)","state":"Zurich","population":16356,"lat":47.51692,"lng":8.76863},{"city":"Kloten","state":"Zurich","population":16289,"lat":47.45152,"lng":8.58491},{"city":"Pully","state":"Vaud","population":16263,"lat":46.51027,"lng":6.66183},{"city":"Stadt Winterthur (Kreis 1)","state":"Zurich","population":16182,"lat":47.49494,"lng":8.71954},{"city":"Littau","state":"Lucerne","population":16121,"lat":47.05,"lng":8.26274},{"city":"Zürich (Kreis 2) / Wollishofen","state":"Zurich","population":16073,"lat":47.3401,"lng":8.53134},{"city":"Grenchen","state":"Solothurn","population":15927,"lat":47.1921,"lng":7.39586},{"city":"Einsiedeln","state":"Schwyz","population":15867,"lat":47.12849,"lng":8.74735},{"city":"Locarno","state":"Ticino","population":15824,"lat":46.17086,"lng":8.79953},{"city":"Herisau","state":"Appenzell Ausserrhoden","population":15744,"lat":47.38615,"lng":9.27916},{"city":"Zürich (Kreis 10) / Wipkingen","state":"Zurich","population":15718,"lat":47.39503,"lng":8.52529},{"city":"Steffisburg","state":"Bern","population":15709,"lat":46.77807,"lng":7.63249},{"city":"Morges","state":"Vaud","population":15705,"lat":46.51127,"lng":6.49854},{"city":"Zürich (Kreis 8)","state":"Zurich","population":15519,"lat":47.3548,"lng":8.56097},{"city":"Seen (Kreis 3)","state":"Zurich","population":15434,"lat":47.47646,"lng":8.76996},{"city":"Adliswil","state":"Zurich","population":15230,"lat":47.30997,"lng":8.52462},{"city":"Schwyz","state":"Schwyz","population":15181,"lat":47.02076,"lng":8.65414},{"city":"Mendrisio","state":"Ticino","population":14942,"lat":45.87019,"lng":8.9816},{"city":"Zürich (Kreis 3) / Alt-Wiedikon","state":"Zurich","population":14931,"lat":47.36201,"lng":8.51497},{"city":"Pratteln","state":"Basel-Landschaft","population":14877,"lat":47.52071,"lng":7.69356},{"city":"Arbon","state":"Thurgau","population":14631,"lat":47.51667,"lng":9.43333},{"city":"Freienbach","state":"Schwyz","population":14302,"lat":47.20534,"lng":8.75842},{"city":"Meilen","state":"Zurich","population":14207,"lat":47.27232,"lng":8.64617},{"city":"Langenthal","state":"Bern","population":14184,"lat":47.21526,"lng":7.79607},{"city":"Binningen","state":"Basel-Landschaft","population":14130,"lat":47.54021,"lng":7.56932},{"city":"Wohlen","state":"Aargau","population":13875,"lat":47.35066,"lng":8.27517},{"city":"Thalwil","state":"Zurich","population":13296,"lat":47.29175,"lng":8.56351},{"city":"Wädenswil","state":"Zurich","population":13269,"lat":47.22683,"lng":8.6687},{"city":"Küssnacht","state":"Schwyz","population":13084,"lat":47.08557,"lng":8.44206},{"city":"Thônex","state":"Geneva","population":13057,"lat":46.18815,"lng":6.19904},{"city":"Muri","state":"Bern","population":13054,"lat":46.93122,"lng":7.48658},{"city":"Zürich (Kreis 4) / Hard","state":"Zurich","population":12976,"lat":47.38311,"lng":8.50942},{"city":"Uzwil","state":"Saint Gallen","population":12885,"lat":47.43653,"lng":9.13422},{"city":"Liestal","state":"Basel-Landschaft","population":12832,"lat":47.48455,"lng":7.73446},{"city":"Schlieren","state":"Zurich","population":12695,"lat":47.39668,"lng":8.44763},{"city":"Delémont","state":"Jura","population":12682,"lat":47.36493,"lng":7.34453},{"city":"Wülflingen (Kreis 6)","state":"Zurich","population":12598,"lat":47.51036,"lng":8.68333},{"city":"Spiez","state":"Bern","population":12594,"lat":46.68473,"lng":7.69111},{"city":"Glarus","state":"Glarus","population":12425,"lat":47.04057,"lng":9.06804},{"city":"Horw","state":"Lucerne","population":12348,"lat":47.01692,"lng":8.30956},{"city":"Affoltern am Albis","state":"Zurich","population":12226,"lat":47.27743,"lng":8.45128},{"city":"Pfäffikon","state":"Zurich","population":11931,"lat":47.36453,"lng":8.79202},{"city":"Spreitenbach","state":"Aargau","population":11875,"lat":47.42285,"lng":8.36792},{"city":"Zürich (Kreis 5)","state":"Zurich","population":11737,"lat":47.38767,"lng":8.52152},{"city":"Wallisellen","state":"Zurich","population":11705,"lat":47.41499,"lng":8.59672},{"city":"Zofingen","state":"Aargau","population":11655,"lat":47.28779,"lng":7.94586},{"city":"Münchenstein","state":"Basel-Landschaft","population":11644,"lat":47.51848,"lng":7.60966},{"city":"Küsnacht","state":"Zurich","population":11525,"lat":47.31805,"lng":8.58401},{"city":"Ebikon","state":"Lucerne","population":11471,"lat":47.07937,"lng":8.34041},{"city":"Versoix","state":"Geneva","population":11467,"lat":46.28382,"lng":6.16214},{"city":"Amriswil","state":"Thurgau","population":11351,"lat":47.54699,"lng":9.29586},{"city":"Zürich (Kreis 12) / Hirzenbach","state":"Zurich","population":11335,"lat":47.40187,"lng":8.58633},{"city":"Brugg","state":"Aargau","population":11177,"lat":47.48096,"lng":8.20869},{"city":"Hinwil","state":"Zurich","population":11135,"lat":47.29426,"lng":8.84393},{"city":"Worb","state":"Bern","population":11053,"lat":46.92984,"lng":7.56306},{"city":"Mattenbach (Kreis 7)","state":"Zurich","population":11043,"lat":47.48705,"lng":8.74681},{"city":"Lyss","state":"Bern","population":10937,"lat":47.0741,"lng":7.30655},{"city":"Münsingen","state":"Bern","population":10928,"lat":46.87298,"lng":7.561},{"city":"Davos","state":"Grisons","population":10898,"lat":46.80429,"lng":9.83723},{"city":"Rheinfelden","state":"Aargau","population":10733,"lat":47.55437,"lng":7.79403},{"city":"Gland","state":"Vaud","population":10641,"lat":46.42082,"lng":6.2701},{"city":"Altstätten","state":"Saint Gallen","population":10574,"lat":47.37766,"lng":9.54746},{"city":"Lenzburg","state":"Aargau","population":10569,"lat":47.38853,"lng":8.17503},{"city":"Plan-les-Ouates","state":"Geneva","population":10540,"lat":46.16789,"lng":6.11664},{"city":"Prilly","state":"Vaud","population":10524,"lat":46.53698,"lng":6.60456},{"city":"La Tour-de-Peilz","state":"Vaud","population":10522,"lat":46.45312,"lng":6.85856},{"city":"Chêne-Bougeries","state":"Geneva","population":10487,"lat":46.19843,"lng":6.18642},{"city":"Zürich (Kreis 12) / Schwamendingen-Mitte","state":"Zurich","population":10476,"lat":47.4063,"lng":8.57242},{"city":"Rotkreuz","state":"Zug","population":10439,"lat":47.14283,"lng":8.4314},{"city":"Uster / Kirch-Uster","state":"Zurich","population":10428,"lat":47.34579,"lng":8.71839},{"city":"Buchs","state":"Saint Gallen","population":10418,"lat":47.16743,"lng":9.47794},{"city":"Oftringen","state":"Aargau","population":10390,"lat":47.31382,"lng":7.92533},{"city":"Zürich (Kreis 4) / Langstrasse","state":"Zurich","population":10386,"lat":47.37767,"lng":8.52854},{"city":"Sarnen","state":"Obwalden","population":10368,"lat":46.89611,"lng":8.24531},{"city":"Ecublens","state":"Vaud","population":10262,"lat":46.52899,"lng":6.56261},{"city":"Birsfelden","state":"Basel-Landschaft","population":10232,"lat":47.5529,"lng":7.62322},{"city":"Crans-Montana","state":"Valais","population":10218,"lat":46.31316,"lng":7.47914},{"city":"Le Locle","state":"Neuchâtel","population":10216,"lat":47.05619,"lng":6.74913},{"city":"Richterswil","state":"Zurich","population":10189,"lat":47.20622,"lng":8.69686},{"city":"Oberwil","state":"Basel-Landschaft","population":10187,"lat":47.51407,"lng":7.55786},{"city":"Aesch","state":"Basel-Landschaft","population":10138,"lat":47.47104,"lng":7.5973},{"city":"Aigle","state":"Vaud","population":10134,"lat":46.3181,"lng":6.96457},{"city":"Effretikon","state":"Zurich","population":10119,"lat":47.42575,"lng":8.69094},{"city":"Ecublens","state":"Fribourg","population":10065,"lat":46.60735,"lng":6.80895},{"city":"Villars-sur-Glâne","state":"Fribourg","population":10021,"lat":46.79054,"lng":7.11717},{"city":"Neuhausen","state":"Schaffhausen","population":10019,"lat":47.68579,"lng":8.61474},{"city":"Sursee","state":"Lucerne","population":9953,"lat":47.17088,"lng":8.11113},{"city":"Payerne","state":"Vaud","population":9943,"lat":46.82192,"lng":6.93817},{"city":"Zürich (Kreis 7) / Hottingen","state":"Zurich","population":9934,"lat":47.37011,"lng":8.56306},{"city":"Zürich (Kreis 3) / Friesenberg","state":"Zurich","population":9909,"lat":47.36372,"lng":8.50417},{"city":"Zürich (Kreis 6) / Oberstrass","state":"Zurich","population":9906,"lat":47.38917,"lng":8.5504},{"city":"Zürich (Kreis 5) / Gewerbeschule","state":"Zurich","population":9891,"lat":47.38481,"lng":8.53011},{"city":"Arth","state":"Schwyz","population":9850,"lat":47.06337,"lng":8.52349},{"city":"Münchenbuchsee","state":"Bern","population":9801,"lat":47.02175,"lng":7.45036},{"city":"Veyrier","state":"Geneva","population":9800,"lat":46.16699,"lng":6.18436},{"city":"Le Grand-Saconnex","state":"Geneva","population":9781,"lat":46.23188,"lng":6.12091},{"city":"Bernex","state":"Geneva","population":9759,"lat":46.1765,"lng":6.07544},{"city":"Flawil","state":"Saint Gallen","population":9739,"lat":47.41301,"lng":9.18324},{"city":"Therwil","state":"Basel-Landschaft","population":9595,"lat":47.49941,"lng":7.55669},{"city":"Rüti","state":"Zurich","population":9576,"lat":47.25603,"lng":8.85552},{"city":"Weinfelden","state":"Thurgau","population":9414,"lat":47.56667,"lng":9.1},{"city":"Altdorf","state":"Uri","population":9401,"lat":46.88042,"lng":8.64441},{"city":"Möhlin","state":"Aargau","population":9382,"lat":47.55915,"lng":7.84329},{"city":"Suhr","state":"Aargau","population":9374,"lat":47.37172,"lng":8.07967},{"city":"Belp","state":"Bern","population":9307,"lat":46.89129,"lng":7.49825},{"city":"Arlesheim","state":"Basel-Landschaft","population":9301,"lat":47.49412,"lng":7.61979},{"city":"Zuchwil","state":"Solothurn","population":9268,"lat":47.20173,"lng":7.56649},{"city":"Hombrechtikon","state":"Zurich","population":9212,"lat":47.25298,"lng":8.77212},{"city":"Urdorf","state":"Zurich","population":9205,"lat":47.38507,"lng":8.42581},{"city":"Gstaad","state":"Bern","population":9200,"lat":46.47215,"lng":7.28685},{"city":"Eschenbach","state":"Saint Gallen","population":9175,"lat":47.23981,"lng":8.92156},{"city":"Wohlen","state":"Bern","population":9159,"lat":46.97118,"lng":7.35685},{"city":"Zollikofen","state":"Bern","population":9121,"lat":46.99905,"lng":7.45809},{"city":"Zürich (Kreis 7) / Witikon","state":"Zurich","population":9099,"lat":47.35751,"lng":8.59105},{"city":"Goldach","state":"Saint Gallen","population":9094,"lat":47.47401,"lng":9.46711},{"city":"Hünenberg","state":"Zug","population":9032,"lat":47.17536,"lng":8.42497},{"city":"Rorschach","state":"Saint Gallen","population":9000,"lat":47.478,"lng":9.4903},{"city":"Romanshorn","state":"Thurgau","population":8956,"lat":47.56586,"lng":9.37869},{"city":"Veltheim (Kreis 5)","state":"Zurich","population":8901,"lat":47.51419,"lng":8.717},{"city":"Landquart","state":"Grisons","population":8886,"lat":46.95,"lng":9.56667},{"city":"Egg","state":"Zurich","population":8829,"lat":47.29976,"lng":8.69032},{"city":"Conthey","state":"Valais","population":8792,"lat":46.2237,"lng":7.30283},{"city":"Langnau","state":"Bern","population":8784,"lat":46.93936,"lng":7.78738},{"city":"Lutry","state":"Vaud","population":8774,"lat":46.50241,"lng":6.68647},{"city":"Lachen","state":"Schwyz","population":8754,"lat":47.19224,"lng":8.85324},{"city":"Töss (Kreis 4)","state":"Zurich","population":8672,"lat":47.4789,"lng":8.70215},{"city":"Wittenbach","state":"Saint Gallen","population":8542,"lat":47.46108,"lng":9.38601},{"city":"Steinhausen","state":"Zug","population":8509,"lat":47.1951,"lng":8.48581},{"city":"Stans","state":"Nidwalden","population":8393,"lat":46.95805,"lng":8.36609},{"city":"Zürich (Kreis 2) / Enge","state":"Zurich","population":8253,"lat":47.3605,"lng":8.53127},{"city":"Hochdorf","state":"Lucerne","population":8192,"lat":47.16841,"lng":8.29179},{"city":"Kirchberg","state":"Saint Gallen","population":8127,"lat":47.41159,"lng":9.0402},{"city":"Wattwil","state":"Saint Gallen","population":8089,"lat":47.29955,"lng":9.08657},{"city":"Chiasso","state":"Ticino","population":8060,"lat":45.83203,"lng":9.03119},{"city":"Obersiggenthal","state":"Aargau","population":7990,"lat":47.4875,"lng":8.29652},{"city":"Unterägeri","state":"Zug","population":7973,"lat":47.13645,"lng":8.5853},{"city":"Ingenbohl","state":"Schwyz","population":7967,"lat":46.9988,"lng":8.61529},{"city":"Hegnau","state":"Zurich","population":7961,"lat":47.39227,"lng":8.66988},{"city":"Chêne-Bourg","state":"Geneva","population":7959,"lat":46.19534,"lng":6.19406},{"city":"Neuenhof","state":"Aargau","population":7957,"lat":47.44985,"lng":8.32682},{"city":"Männedorf","state":"Zurich","population":7951,"lat":47.25686,"lng":8.69893},{"city":"Visp","state":"Valais","population":7948,"lat":46.2937,"lng":7.88149},{"city":"Biberist","state":"Solothurn","population":7889,"lat":47.18009,"lng":7.56246},{"city":"Reinach","state":"Aargau","population":7845,"lat":47.25732,"lng":8.18091},{"city":"Willisau","state":"Lucerne","population":7780,"lat":47.12183,"lng":7.99418},{"city":"Giubiasco","state":"Ticino","population":7752,"lat":46.17246,"lng":9.00793},{"city":"Schübelbach","state":"Schwyz","population":7745,"lat":47.17326,"lng":8.92811},{"city":"Moutier","state":"Jura","population":7721,"lat":47.27818,"lng":7.36951},{"city":"Epalinges","state":"Vaud","population":7706,"lat":46.54896,"lng":6.66831},{"city":"Oberriet","state":"Saint Gallen","population":7675,"lat":47.32088,"lng":9.56808},{"city":"Marly","state":"Fribourg","population":7653,"lat":46.77611,"lng":7.16459},{"city":"Aadorf","state":"Thurgau","population":7620,"lat":47.49204,"lng":8.90099},{"city":"Oberentfelden","state":"Aargau","population":7553,"lat":47.35639,"lng":8.04594},{"city":"Naters","state":"Valais","population":7552,"lat":46.32536,"lng":7.98912},{"city":"Pregassona","state":"Ticino","population":7548,"lat":46.02021,"lng":8.97429},{"city":"Regensdorf","state":"Zurich","population":7531,"lat":47.4341,"lng":8.46874},{"city":"Rothrist","state":"Aargau","population":7423,"lat":47.30508,"lng":7.89196},{"city":"Bussigny","state":"Vaud","population":7408,"lat":46.5511,"lng":6.55597},{"city":"Lengnau","state":"Bern","population":7336,"lat":47.18155,"lng":7.36814},{"city":"Pfäffikon","state":"Schwyz","population":7310,"lat":47.20109,"lng":8.77816},{"city":"Düdingen","state":"Fribourg","population":7155,"lat":46.84916,"lng":7.1915},{"city":"Siebnen","state":"Schwyz","population":7104,"lat":47.17449,"lng":8.89781},{"city":"Embrach","state":"Zurich","population":7088,"lat":47.50561,"lng":8.59406},{"city":"Bassersdorf","state":"Zurich","population":7010,"lat":47.44342,"lng":8.62851},{"city":"Zürich (Kreis 7) / Fluntern","state":"Zurich","population":7009,"lat":47.38013,"lng":8.56133},{"city":"Langnau am Albis","state":"Zurich","population":7000,"lat":47.28885,"lng":8.5411},{"city":"Wollerau","state":"Schwyz","population":6883,"lat":47.19478,"lng":8.71903},{"city":"Thalwil / Dorfkern","state":"Zurich","population":6829,"lat":47.29047,"lng":8.56633},{"city":"Igis","state":"Grisons","population":6828,"lat":46.94531,"lng":9.57218},{"city":"Aarburg","state":"Aargau","population":6828,"lat":47.32067,"lng":7.89986},{"city":"Domat","state":"Grisons","population":6817,"lat":46.83483,"lng":9.45075},{"city":"Zürich (Kreis 7) / Hirslanden","state":"Zurich","population":6769,"lat":47.3624,"lng":8.56755},{"city":"Nidau","state":"Bern","population":6696,"lat":47.12545,"lng":7.24033},{"city":"Windisch","state":"Aargau","population":6689,"lat":47.47899,"lng":8.21842},{"city":"Porrentruy","state":"Jura","population":6675,"lat":47.41728,"lng":7.07573},{"city":"Au","state":"Saint Gallen","population":6673,"lat":47.43093,"lng":9.63448},{"city":"Frutigen","state":"Bern","population":6671,"lat":46.58723,"lng":7.64945},{"city":"Ollon","state":"Vaud","population":6665,"lat":46.29524,"lng":6.99314},{"city":"Minusio","state":"Ticino","population":6653,"lat":46.17769,"lng":8.81473},{"city":"Zermatt","state":"Valais","population":6629,"lat":46.01998,"lng":7.74863},{"city":"Bagnes","state":"Valais","population":6626,"lat":46.08333,"lng":7.21667},{"city":"Saanen","state":"Bern","population":6621,"lat":46.48945,"lng":7.26003},{"city":"Crissier","state":"Vaud","population":6612,"lat":46.54586,"lng":6.57567},{"city":"Buchs","state":"Aargau","population":6599,"lat":47.39358,"lng":8.08233},{"city":"Gränichen","state":"Aargau","population":6557,"lat":47.3593,"lng":8.10243},{"city":"Bremgarten","state":"Aargau","population":6543,"lat":47.35109,"lng":8.34214},{"city":"Meggen","state":"Lucerne","population":6533,"lat":47.04691,"lng":8.37467},{"city":"Blécherette","state":"Vaud","population":6516,"lat":46.53932,"lng":6.62227},{"city":"Kilchberg","state":"Zurich","population":6511,"lat":47.32438,"lng":8.54548},{"city":"Sirnach","state":"Thurgau","population":6463,"lat":47.46222,"lng":8.99763},{"city":"Muri","state":"Aargau","population":6463,"lat":47.27428,"lng":8.33854},{"city":"Dornach","state":"Solothurn","population":6449,"lat":47.48038,"lng":7.61644},{"city":"Thal","state":"Saint Gallen","population":6433,"lat":47.46677,"lng":9.56643},{"city":"Ruswil","state":"Lucerne","population":6432,"lat":47.08425,"lng":8.12645},{"city":"Grabs","state":"Saint Gallen","population":6384,"lat":47.18248,"lng":9.44395},{"city":"Viganello","state":"Ticino","population":6375,"lat":46.01342,"lng":8.96879},{"city":"Untersiggenthal","state":"Aargau","population":6344,"lat":47.50213,"lng":8.25554},{"city":"Trimbach","state":"Solothurn","population":6220,"lat":47.36561,"lng":7.8868},{"city":"Zürich (Kreis 1)","state":"Zurich","population":6185,"lat":47.37055,"lng":8.54177},{"city":"Malters","state":"Lucerne","population":6181,"lat":47.03628,"lng":8.18193},{"city":"Frenkendorf","state":"Basel-Landschaft","population":6180,"lat":47.50686,"lng":7.71648},{"city":"Dietlikon / Dietlikon (Dorf)","state":"Zurich","population":6149,"lat":47.41827,"lng":8.6188},{"city":"Horgen / Horgen (Dorfkern)","state":"Zurich","population":6140,"lat":47.25604,"lng":8.60159},{"city":"Sargans","state":"Saint Gallen","population":6134,"lat":47.04896,"lng":9.44103},{"city":"Derendingen","state":"Solothurn","population":6093,"lat":47.1985,"lng":7.58844},{"city":"Bolligen","state":"Bern","population":6086,"lat":46.9751,"lng":7.49697},{"city":"Losone","state":"Ticino","population":6070,"lat":46.16866,"lng":8.75928},{"city":"Neuenkirch","state":"Lucerne","population":5963,"lat":47.09989,"lng":8.20416},{"city":"Bex","state":"Vaud","population":5956,"lat":46.24965,"lng":7.0098},{"city":"Mattenbach (Kreis 7) / Deutweg","state":"Zurich","population":5930,"lat":47.49419,"lng":8.73948},{"city":"Collombey","state":"Valais","population":5926,"lat":46.27385,"lng":6.94789},{"city":"Fully","state":"Valais","population":5922,"lat":46.13851,"lng":7.11468},{"city":"Bottmingen","state":"Basel-Landschaft","population":5912,"lat":47.52343,"lng":7.57211},{"city":"Biasca","state":"Ticino","population":5885,"lat":46.35972,"lng":8.96965},{"city":"Sissach","state":"Basel-Landschaft","population":5873,"lat":47.46408,"lng":7.80888},{"city":"Balsthal","state":"Solothurn","population":5863,"lat":47.31613,"lng":7.69318},{"city":"Zollikon","state":"Zurich","population":5812,"lat":47.34019,"lng":8.57407},{"city":"Oberengstringen","state":"Zurich","population":5805,"lat":47.40841,"lng":8.46515},{"city":"Murten/Morat","state":"Fribourg","population":5800,"lat":46.92827,"lng":7.11715},{"city":"Massagno","state":"Ticino","population":5774,"lat":46.01257,"lng":8.94354},{"city":"Echallens","state":"Vaud","population":5740,"lat":46.6413,"lng":6.63317},{"city":"Stäfa","state":"Zurich","population":5737,"lat":47.24254,"lng":8.72342},{"city":"Les Avanchets","state":"Geneva","population":5730,"lat":46.22168,"lng":6.10814},{"city":"Peseux","state":"Neuchâtel","population":5716,"lat":46.98704,"lng":6.88903},{"city":"Gelterkinden","state":"Basel-Landschaft","population":5709,"lat":47.46497,"lng":7.85174},{"city":"Teufen","state":"Appenzell Ausserrhoden","population":5683,"lat":47.3908,"lng":9.38644},{"city":"Uetendorf","state":"Bern","population":5654,"lat":46.77392,"lng":7.57251},{"city":"Appenzell","state":"Appenzell Innerrhoden","population":5649,"lat":47.33103,"lng":9.40996},{"city":"Münchwilen","state":"Thurgau","population":5623,"lat":47.47719,"lng":8.99677},{"city":"Laufen","state":"Basel-Landschaft","population":5618,"lat":47.42193,"lng":7.49946},{"city":"Oberuzwil","state":"Saint Gallen","population":5616,"lat":47.43076,"lng":9.12724},{"city":"Pfäffikon / Pfäffikon (Dorfkern)","state":"Zurich","population":5595,"lat":47.36943,"lng":8.78309},{"city":"Adligenswil","state":"Lucerne","population":5576,"lat":47.06521,"lng":8.36124},{"city":"Savièse","state":"Valais","population":5575,"lat":46.25115,"lng":7.34558},{"city":"Zürich (Kreis 8) / Mühlebach","state":"Zurich","population":5570,"lat":47.35727,"lng":8.55744},{"city":"Uznach","state":"Saint Gallen","population":5561,"lat":47.22421,"lng":8.98263},{"city":"Buochs","state":"Nidwalden","population":5524,"lat":46.97398,"lng":8.42279},{"city":"Herzogenbuchsee","state":"Bern","population":5522,"lat":47.18795,"lng":7.7062},{"city":"Heimberg","state":"Bern","population":5501,"lat":46.79482,"lng":7.60433},{"city":"Würenlos","state":"Aargau","population":5497,"lat":47.44205,"lng":8.36261},{"city":"Villmergen","state":"Aargau","population":5489,"lat":47.35009,"lng":8.24762},{"city":"Chavannes","state":"Vaud","population":5454,"lat":46.53005,"lng":6.57068},{"city":"Hergiswil","state":"Nidwalden","population":5437,"lat":46.98429,"lng":8.30944},{"city":"Menziken","state":"Aargau","population":5415,"lat":47.23965,"lng":8.18996},{"city":"Basse-Nendaz","state":"Valais","population":5410,"lat":46.18993,"lng":7.31209},{"city":"Diepoldsau","state":"Saint Gallen","population":5401,"lat":47.386,"lng":9.65558},{"city":"Sankt Margrethen","state":"Saint Gallen","population":5395,"lat":47.45253,"lng":9.63741},{"city":"Oberwinterthur (Kreis 2) / Guggenbühl","state":"Zurich","population":5376,"lat":47.51339,"lng":8.75998},{"city":"Oberwinterthur (Kreis 2) / Talacker","state":"Zurich","population":5375,"lat":47.50596,"lng":8.7515},{"city":"Buchrain","state":"Lucerne","population":5341,"lat":47.09625,"lng":8.34729},{"city":"Kirchberg","state":"Bern","population":5335,"lat":47.08538,"lng":7.58288},{"city":"Goldau","state":"Schwyz","population":5285,"lat":47.04761,"lng":8.54616},{"city":"Altendorf","state":"Schwyz","population":5280,"lat":47.18994,"lng":8.83823},{"city":"Romont","state":"Fribourg","population":5276,"lat":46.69652,"lng":6.91898},{"city":"Le Mont-sur-Lausanne","state":"Vaud","population":5270,"lat":46.55815,"lng":6.63145},{"city":"Urtenen","state":"Bern","population":5258,"lat":47.02667,"lng":7.50081},{"city":"Blonay","state":"Vaud","population":5244,"lat":46.46778,"lng":6.89615},{"city":"Küttigen","state":"Aargau","population":5234,"lat":47.41484,"lng":8.04979},{"city":"Saint-Imier","state":"Bern","population":5220,"lat":47.15284,"lng":6.99692},{"city":"Alpnach","state":"Obwalden","population":5218,"lat":46.94227,"lng":8.2718},{"city":"Kerns","state":"Obwalden","population":5217,"lat":46.90121,"lng":8.27514},{"city":"Zürich (Kreis 12) / Saatlen","state":"Zurich","population":5209,"lat":47.41127,"lng":8.5648},{"city":"Sumiswald","state":"Bern","population":5159,"lat":47.02747,"lng":7.74526},{"city":"Unterseen","state":"Bern","population":5150,"lat":46.6853,"lng":7.84722},{"city":"Rümlang","state":"Zurich","population":5144,"lat":47.45041,"lng":8.52993},{"city":"Orbe","state":"Vaud","population":5132,"lat":46.72504,"lng":6.53069},{"city":"Uster / Ober-Uster","state":"Zurich","population":5100,"lat":47.34874,"lng":8.73319},{"city":"Châtel-Saint-Denis","state":"Fribourg","population":5094,"lat":46.52691,"lng":6.90083},{"city":"Ascona","state":"Ticino","population":5084,"lat":46.15451,"lng":8.77327},{"city":"Interlaken","state":"Bern","population":5067,"lat":46.68387,"lng":7.86638},{"city":"Bad Ragaz","state":"Saint Gallen","population":5063,"lat":47.00601,"lng":9.50266},{"city":"Estavayer-le-Lac","state":"Fribourg","population":5061,"lat":46.84876,"lng":6.8465},{"city":"Greifensee","state":"Zurich","population":5032,"lat":47.36717,"lng":8.68115},{"city":"Wallisellen / Wallisellen-Ost","state":"Zurich","population":5031,"lat":47.41446,"lng":8.59727},{"city":"Herrliberg","state":"Zurich","population":5025,"lat":47.29064,"lng":8.61464},{"city":"Walenstadt","state":"Saint Gallen","population":5000,"lat":47.12411,"lng":9.31194},{"city":"Brig","state":"Valais","population":5000,"lat":46.31667,"lng":7.98333},{"city":"Zürich (Kreis 8) / Seefeld","state":"Zurich","population":4998,"lat":47.35462,"lng":8.55537},{"city":"Ettingen","state":"Basel-Landschaft","population":4980,"lat":47.48225,"lng":7.54654},{"city":"St. Moritz","state":"Grisons","population":4952,"lat":46.49937,"lng":9.84327},{"city":"Zürich (Kreis 8) / Weinegg","state":"Zurich","population":4951,"lat":47.3525,"lng":8.57011},{"city":"Oetwil","state":"Zurich","population":4925,"lat":47.27049,"lng":8.72023},{"city":"Flamatt","state":"Fribourg","population":4922,"lat":46.88994,"lng":7.32204},{"city":"Männedorf / Dorfkern","state":"Zurich","population":4893,"lat":47.25612,"lng":8.69161},{"city":"Lausen","state":"Basel-Landschaft","population":4892,"lat":47.47139,"lng":7.7603},{"city":"Boudry","state":"Neuchâtel","population":4886,"lat":46.94991,"lng":6.83757},{"city":"Gerlafingen","state":"Solothurn","population":4864,"lat":47.17087,"lng":7.57249},{"city":"Schattdorf","state":"Uri","population":4860,"lat":46.8655,"lng":8.65465},{"city":"Ebnat-Kappel","state":"Saint Gallen","population":4852,"lat":47.26195,"lng":9.12473},{"city":"Flums","state":"Saint Gallen","population":4848,"lat":47.09058,"lng":9.34301},{"city":"Au","state":"Zurich","population":4844,"lat":47.24185,"lng":8.64406},{"city":"Bettlach","state":"Solothurn","population":4834,"lat":47.20062,"lng":7.42405},{"city":"Birmensdorf","state":"Zurich","population":4772,"lat":47.35515,"lng":8.44256},{"city":"Sennwald","state":"Saint Gallen","population":4768,"lat":47.26063,"lng":9.50268},{"city":"Veltheim (Kreis 5) / Rosenberg","state":"Zurich","population":4765,"lat":47.51386,"lng":8.71583},{"city":"Langnau / Langnau (Dorf)","state":"Zurich","population":4745,"lat":47.28643,"lng":8.53627},{"city":"Schönenwerd","state":"Solothurn","population":4732,"lat":47.3691,"lng":8.00167},{"city":"Préverenges","state":"Vaud","population":4695,"lat":46.51854,"lng":6.52682},{"city":"Wangen","state":"Solothurn","population":4686,"lat":47.34365,"lng":7.86982},{"city":"Dielsdorf","state":"Zurich","population":4671,"lat":47.48146,"lng":8.4585},{"city":"Rüschlikon","state":"Zurich","population":4653,"lat":47.30688,"lng":8.55135},{"city":"Meiringen","state":"Bern","population":4652,"lat":46.72709,"lng":8.1872},{"city":"Huttwil","state":"Bern","population":4643,"lat":47.11502,"lng":7.86209},{"city":"Vechigen","state":"Bern","population":4619,"lat":46.94616,"lng":7.56065},{"city":"Stadt Winterthur (Kreis 1) / Lind","state":"Zurich","population":4617,"lat":47.50571,"lng":8.73372},{"city":"Oensingen","state":"Solothurn","population":4609,"lat":47.28764,"lng":7.71612},{"city":"Frick","state":"Aargau","population":4583,"lat":47.51169,"lng":8.02471},{"city":"Konolfingen","state":"Bern","population":4562,"lat":46.87909,"lng":7.62013},{"city":"Bubendorf","state":"Basel-Landschaft","population":4543,"lat":47.44586,"lng":7.73759},{"city":"Berikon","state":"Aargau","population":4527,"lat":47.35155,"lng":8.37232},{"city":"Ehrendingen","state":"Aargau","population":4519,"lat":47.5025,"lng":8.34729},{"city":"Erlenbach","state":"Zurich","population":4519,"lat":47.30298,"lng":8.59743},{"city":"Sachseln","state":"Obwalden","population":4511,"lat":46.86718,"lng":8.23344},{"city":"Bronschhofen","state":"Saint Gallen","population":4489,"lat":47.47835,"lng":9.03454},{"city":"Stansstad","state":"Nidwalden","population":4471,"lat":46.9768,"lng":8.33553},{"city":"Saint-Prex","state":"Vaud","population":4461,"lat":46.47963,"lng":6.45992},{"city":"Kerzers","state":"Fribourg","population":4459,"lat":46.97586,"lng":7.1957},{"city":"Füllinsdorf","state":"Basel-Landschaft","population":4442,"lat":47.50688,"lng":7.73129},{"city":"Rolle","state":"Vaud","population":4425,"lat":46.4582,"lng":6.33499},{"city":"Zumikon","state":"Zurich","population":4424,"lat":47.33158,"lng":8.62271},{"city":"Oberrieden","state":"Zurich","population":4413,"lat":47.27444,"lng":8.57838},{"city":"Cortaillod","state":"Neuchâtel","population":4410,"lat":46.94306,"lng":6.8444},{"city":"Seon","state":"Aargau","population":4407,"lat":47.34848,"lng":8.16072},{"city":"Sevelen","state":"Saint Gallen","population":4392,"lat":47.12213,"lng":9.48601},{"city":"Wetzikon / Kempten","state":"Zurich","population":4377,"lat":47.33319,"lng":8.80982},{"city":"Villeneuve","state":"Vaud","population":4349,"lat":46.39869,"lng":6.92654},{"city":"Strengelbach","state":"Aargau","population":4349,"lat":47.27917,"lng":7.92895},{"city":"Bad Zurzach","state":"Aargau","population":4344,"lat":47.58764,"lng":8.29365},{"city":"Moudon","state":"Vaud","population":4343,"lat":46.66758,"lng":6.79781},{"city":"Sigriswil","state":"Bern","population":4341,"lat":46.71656,"lng":7.71335},{"city":"Hägendorf","state":"Solothurn","population":4338,"lat":47.33497,"lng":7.84133},{"city":"Morbio Inferiore","state":"Ticino","population":4331,"lat":45.84915,"lng":9.01907},{"city":"Wülflingen (Kreis 6) / Oberfeld","state":"Zurich","population":4288,"lat":47.49873,"lng":8.69897},{"city":"Gossau","state":"Zurich","population":4287,"lat":47.3051,"lng":8.75831},{"city":"Le Landeron","state":"Neuchâtel","population":4278,"lat":47.05702,"lng":7.07052},{"city":"Riviera","state":"Ticino","population":4262,"lat":46.13085,"lng":8.71715},{"city":"Zuzwil","state":"Saint Gallen","population":4226,"lat":47.47452,"lng":9.11196},{"city":"Ennetbürgen","state":"Nidwalden","population":4226,"lat":46.98423,"lng":8.41003},{"city":"Mellingen","state":"Aargau","population":4224,"lat":47.41903,"lng":8.27331},{"city":"Sainte-Croix","state":"Vaud","population":4214,"lat":46.82203,"lng":6.50283},{"city":"Feusisberg","state":"Schwyz","population":4210,"lat":47.18707,"lng":8.74724},{"city":"Triengen","state":"Lucerne","population":4193,"lat":47.23573,"lng":8.07652},{"city":"Zollikerberg","state":"Zurich","population":4187,"lat":47.3451,"lng":8.60088},{"city":"Tramelan","state":"Bern","population":4186,"lat":47.22298,"lng":7.10287},{"city":"Engelberg","state":"Obwalden","population":4181,"lat":46.82107,"lng":8.40133},{"city":"Schwerzenbach","state":"Zurich","population":4180,"lat":47.38213,"lng":8.65727},{"city":"Egnach","state":"Thurgau","population":4179,"lat":47.54268,"lng":9.38048},{"city":"Aarwangen","state":"Bern","population":4171,"lat":47.23845,"lng":7.76854},{"city":"Rebstein","state":"Saint Gallen","population":4163,"lat":47.39812,"lng":9.58503},{"city":"Dietikon / Oberdorf","state":"Zurich","population":4147,"lat":47.40065,"lng":8.39416},{"city":"Vétroz","state":"Valais","population":4137,"lat":46.22171,"lng":7.27858},{"city":"Rupperswil","state":"Aargau","population":4137,"lat":47.40131,"lng":8.12877},{"city":"Veltheim (Kreis 5) / Blumenau","state":"Zurich","population":4135,"lat":47.50618,"lng":8.71563},{"city":"Uster / Nieder-Uster","state":"Zurich","population":4128,"lat":47.34743,"lng":8.70088},{"city":"Thayngen","state":"Schaffhausen","population":4120,"lat":47.74717,"lng":8.70724},{"city":"Gebenstorf","state":"Aargau","population":4100,"lat":47.48136,"lng":8.23949},{"city":"Seen (Kreis 3) / Waser","state":"Zurich","population":4088,"lat":47.48913,"lng":8.76034},{"city":"Marin-Epagnier","state":"Neuchâtel","population":4087,"lat":47.01017,"lng":6.99941},{"city":"Le Chenit","state":"Vaud","population":4062,"lat":46.60688,"lng":6.23062},{"city":"Kölliken","state":"Aargau","population":4059,"lat":47.33337,"lng":8.02237},{"city":"Wängi","state":"Thurgau","population":4051,"lat":47.49654,"lng":8.95325},{"city":"Wolhusen","state":"Lucerne","population":4050,"lat":47.05983,"lng":8.07389},{"city":"Klosters Serneus","state":"Grisons","population":4044,"lat":46.88918,"lng":9.83826},{"city":"Schmitten","state":"Fribourg","population":4040,"lat":46.8575,"lng":7.25031},{"city":"Obfelden","state":"Zurich","population":4039,"lat":47.26413,"lng":8.4215},{"city":"Lützelflüh","state":"Bern","population":4035,"lat":47.00757,"lng":7.69165},{"city":"Jegenstorf","state":"Bern","population":4027,"lat":47.04802,"lng":7.50787},{"city":"Niederlenz","state":"Aargau","population":4022,"lat":47.40079,"lng":8.1764},{"city":"Balgach","state":"Saint Gallen","population":4019,"lat":47.40556,"lng":9.60702},{"city":"Oberrohrdorf","state":"Aargau","population":4001,"lat":47.41833,"lng":8.31983},{"city":"Heiden","state":"Appenzell Ausserrhoden","population":3999,"lat":47.44255,"lng":9.53293},{"city":"Bürglen","state":"Uri","population":3996,"lat":46.87565,"lng":8.66539},{"city":"Speicher","state":"Appenzell Ausserrhoden","population":3985,"lat":47.4109,"lng":9.44335},{"city":"Näfels","state":"Glarus","population":3978,"lat":47.09775,"lng":9.06361},{"city":"Gordola","state":"Ticino","population":3974,"lat":46.18256,"lng":8.86657},{"city":"Seuzach Dorf","state":"Zurich","population":3969,"lat":47.5356,"lng":8.73209},{"city":"Cheseaux","state":"Vaud","population":3946,"lat":46.58624,"lng":6.60587},{"city":"Reiden","state":"Lucerne","population":3926,"lat":47.24719,"lng":7.97135},{"city":"Stabio","state":"Ticino","population":3917,"lat":45.84846,"lng":8.93642},{"city":"Aarberg","state":"Bern","population":3911,"lat":47.04439,"lng":7.27578},{"city":"Zürich (Kreis 4) / Werd","state":"Zurich","population":3911,"lat":47.37178,"lng":8.52584},{"city":"Root","state":"Lucerne","population":3886,"lat":47.11458,"lng":8.39021},{"city":"Birr","state":"Aargau","population":3884,"lat":47.43432,"lng":8.20891},{"city":"Menzingen","state":"Zug","population":3878,"lat":47.17764,"lng":8.59215},{"city":"Erstfeld","state":"Uri","population":3876,"lat":46.81885,"lng":8.65052},{"city":"Troistorrents","state":"Valais","population":3873,"lat":46.2289,"lng":6.91589},{"city":"Brügg","state":"Bern","population":3868,"lat":47.1237,"lng":7.27887},{"city":"Bevaix","state":"Neuchâtel","population":3866,"lat":46.92958,"lng":6.8147},{"city":"Weggis","state":"Lucerne","population":3863,"lat":47.03208,"lng":8.43219},{"city":"Niederbipp","state":"Bern","population":3862,"lat":47.27175,"lng":7.69583},{"city":"Wetzikon / Ober-Wetzikon","state":"Zurich","population":3858,"lat":47.32514,"lng":8.80005},{"city":"Niedergösgen","state":"Solothurn","population":3847,"lat":47.37157,"lng":7.98837},{"city":"Wichtrach","state":"Bern","population":3843,"lat":46.8501,"lng":7.57748},{"city":"Hilterfingen","state":"Bern","population":3841,"lat":46.73521,"lng":7.66185},{"city":"Horgen / Allmend","state":"Zurich","population":3809,"lat":47.24729,"lng":8.6066},{"city":"Kaltbrunn","state":"Saint Gallen","population":3803,"lat":47.21367,"lng":9.0259},{"city":"Degersheim","state":"Saint Gallen","population":3802,"lat":47.37429,"lng":9.20019},{"city":"Rudolfstetten","state":"Aargau","population":3800,"lat":47.37101,"lng":8.38083},{"city":"Fehraltorf","state":"Zurich","population":3767,"lat":47.38775,"lng":8.75149},{"city":"Sempach","state":"Lucerne","population":3754,"lat":47.13577,"lng":8.19149},{"city":"Lostorf","state":"Solothurn","population":3749,"lat":47.38372,"lng":7.94655},{"city":"Würenlingen","state":"Aargau","population":3741,"lat":47.53356,"lng":8.25666},{"city":"Brittnau","state":"Aargau","population":3735,"lat":47.25954,"lng":7.94689},{"city":"Feldmeilen","state":"Zurich","population":3732,"lat":47.27873,"lng":8.62165},{"city":"Grindelwald","state":"Bern","population":3730,"lat":46.62396,"lng":8.03601},{"city":"Schüpfheim","state":"Lucerne","population":3723,"lat":46.95161,"lng":8.01723},{"city":"Saint-Maurice","state":"Valais","population":3701,"lat":46.21826,"lng":7.0032},{"city":"Brüttisellen","state":"Zurich","population":3697,"lat":47.42173,"lng":8.63263},{"city":"La Tour-de-Trême","state":"Fribourg","population":3686,"lat":46.61061,"lng":7.06496},{"city":"Fleurier","state":"Neuchâtel","population":3681,"lat":46.90224,"lng":6.58253},{"city":"Geroldswil","state":"Zurich","population":3681,"lat":47.42213,"lng":8.41085},{"city":"Matten","state":"Bern","population":3676,"lat":46.67833,"lng":7.86889},{"city":"Bellevue","state":"Geneva","population":3674,"lat":46.25739,"lng":6.15475},{"city":"Roggwil","state":"Bern","population":3673,"lat":47.24119,"lng":7.82141},{"city":"Niederurnen","state":"Glarus","population":3657,"lat":47.12598,"lng":9.05428},{"city":"Caslano","state":"Ticino","population":3655,"lat":45.97364,"lng":8.87739},{"city":"Agno","state":"Ticino","population":3639,"lat":45.99863,"lng":8.9003},{"city":"Kehrsatz","state":"Bern","population":3636,"lat":46.91035,"lng":7.47096},{"city":"Laufenburg","state":"Aargau","population":3632,"lat":47.55985,"lng":8.06225},{"city":"Niederglatt","state":"Zurich","population":3632,"lat":47.49066,"lng":8.49987},{"city":"Töss (Kreis 4) / Eichliacker","state":"Zurich","population":3626,"lat":47.48727,"lng":8.7074},{"city":"Utzenstorf","state":"Bern","population":3625,"lat":47.13248,"lng":7.55355},{"city":"Rüti / Dorfzentrum, Südl. Teil","state":"Zurich","population":3618,"lat":47.25368,"lng":8.85654},{"city":"Wettswil / Wettswil (Dorf)","state":"Zurich","population":3605,"lat":47.34152,"lng":8.47149},{"city":"Sins","state":"Aargau","population":3600,"lat":47.19296,"lng":8.39384},{"city":"Kaiseraugst","state":"Aargau","population":3600,"lat":47.53966,"lng":7.72605},{"city":"Oberglatt","state":"Zurich","population":3564,"lat":47.47576,"lng":8.51896},{"city":"Giswil","state":"Obwalden","population":3563,"lat":46.83333,"lng":8.18065},{"city":"Muotathal","state":"Schwyz","population":3548,"lat":46.97676,"lng":8.76499},{"city":"Adelboden","state":"Bern","population":3541,"lat":46.49142,"lng":7.56031},{"city":"Rümlang / Rümlang (Dorfkern)","state":"Zurich","population":3528,"lat":47.4494,"lng":8.53255},{"city":"Langendorf","state":"Solothurn","population":3518,"lat":47.21974,"lng":7.51469},{"city":"Wallisellen / Wallisellen-West","state":"Zurich","population":3511,"lat":47.41906,"lng":8.58586},{"city":"Ibach","state":"Schwyz","population":3500,"lat":47.01105,"lng":8.64538},{"city":"Lens","state":"Valais","population":3497,"lat":46.28298,"lng":7.44976},{"city":"Mörschwil","state":"Saint Gallen","population":3496,"lat":47.47097,"lng":9.42278},{"city":"La Neuveville","state":"Bern","population":3495,"lat":47.06592,"lng":7.09717},{"city":"Saxon","state":"Valais","population":3477,"lat":46.14937,"lng":7.17514},{"city":"Balerna","state":"Ticino","population":3456,"lat":45.84638,"lng":9.00724},{"city":"Savigny","state":"Vaud","population":3440,"lat":46.53844,"lng":6.73222},{"city":"Magden","state":"Aargau","population":3433,"lat":47.52868,"lng":7.81128},{"city":"Uetikon","state":"Zurich","population":3431,"lat":47.26441,"lng":8.67925},{"city":"Poschiavo","state":"Grisons","population":3428,"lat":46.32441,"lng":10.05823},{"city":"Eschlikon","state":"Thurgau","population":3425,"lat":47.46361,"lng":8.96381},{"city":"Confignon","state":"Geneva","population":3425,"lat":46.17341,"lng":6.08437},{"city":"Muhen","state":"Aargau","population":3419,"lat":47.33578,"lng":8.05536},{"city":"Tägerwilen","state":"Thurgau","population":3414,"lat":47.65698,"lng":9.13999},{"city":"Schänis","state":"Saint Gallen","population":3404,"lat":47.15995,"lng":9.04549},{"city":"Bütschwil","state":"Saint Gallen","population":3393,"lat":47.36022,"lng":9.07213},{"city":"Leuk","state":"Valais","population":3386,"lat":46.31736,"lng":7.63412},{"city":"Tavannes","state":"Bern","population":3367,"lat":47.22079,"lng":7.19759},{"city":"Sulgen","state":"Thurgau","population":3367,"lat":47.53967,"lng":9.18585},{"city":"Zürich (Kreis 10) / Rütihof","state":"Zurich","population":3326,"lat":47.41444,"lng":8.47928},{"city":"Pieterlen","state":"Bern","population":3317,"lat":47.17501,"lng":7.33791},{"city":"Schöftland","state":"Aargau","population":3310,"lat":47.3059,"lng":8.05119},{"city":"Schmerikon","state":"Saint Gallen","population":3307,"lat":47.22538,"lng":8.94836},{"city":"Bassecourt","state":"Jura","population":3305,"lat":47.33808,"lng":7.24373},{"city":"Dagmersellen","state":"Lucerne","population":3300,"lat":47.21405,"lng":7.98519},{"city":"Rheineck","state":"Saint Gallen","population":3298,"lat":47.4663,"lng":9.59028},{"city":"Vouvry","state":"Valais","population":3296,"lat":46.33746,"lng":6.8895},{"city":"Entlebuch","state":"Lucerne","population":3293,"lat":46.99559,"lng":8.06354},{"city":"Luterbach","state":"Solothurn","population":3292,"lat":47.21426,"lng":7.58463},{"city":"Richterswil / Richterswil (Dorfkern)","state":"Zurich","population":3292,"lat":47.20323,"lng":8.70516},{"city":"Seengen","state":"Aargau","population":3288,"lat":47.32503,"lng":8.20724},{"city":"Uitikon","state":"Zurich","population":3282,"lat":47.36911,"lng":8.45699},{"city":"Elgg","state":"Zurich","population":3282,"lat":47.49715,"lng":8.86523},{"city":"Walchwil","state":"Zug","population":3268,"lat":47.10169,"lng":8.51693},{"city":"Hausen am Albis / Hausen (Dorf)","state":"Zurich","population":3253,"lat":47.24496,"lng":8.53299},{"city":"Hegnau / Sunnebüel-Eich","state":"Zurich","population":3250,"lat":47.39246,"lng":8.6791},{"city":"Schüpfen","state":"Bern","population":3248,"lat":47.03661,"lng":7.37723},{"city":"Ayent","state":"Valais","population":3243,"lat":46.28249,"lng":7.41028},{"city":"Breitenbach","state":"Solothurn","population":3241,"lat":47.40668,"lng":7.54554},{"city":"Gachnang","state":"Thurgau","population":3235,"lat":47.53935,"lng":8.85311},{"city":"Rafz","state":"Zurich","population":3233,"lat":47.60438,"lng":8.54305},{"city":"Schötz","state":"Lucerne","population":3231,"lat":47.16896,"lng":7.9887},{"city":"Steckborn","state":"Thurgau","population":3229,"lat":47.66667,"lng":8.98333},{"city":"Oberkirch","state":"Lucerne","population":3228,"lat":47.15642,"lng":8.11567},{"city":"Küsnacht / Heslibach","state":"Zurich","population":3228,"lat":47.31307,"lng":8.58849},{"city":"Stein am Rhein","state":"Schaffhausen","population":3224,"lat":47.65933,"lng":8.85964},{"city":"Jonschwil","state":"Saint Gallen","population":3221,"lat":47.42402,"lng":9.08689},{"city":"Beringen","state":"Schaffhausen","population":3216,"lat":47.69763,"lng":8.57431},{"city":"Safenwil","state":"Aargau","population":3201,"lat":47.32163,"lng":7.98254},{"city":"Escholzmatt","state":"Lucerne","population":3192,"lat":46.9135,"lng":7.93426},{"city":"Schindellegi","state":"Schwyz","population":3174,"lat":47.1746,"lng":8.71345},{"city":"Prangins","state":"Vaud","population":3172,"lat":46.39518,"lng":6.2496},{"city":"Neftenbach / Dorf Neftenbach","state":"Zurich","population":3171,"lat":47.52764,"lng":8.6649},{"city":"Samstagern","state":"Zurich","population":3163,"lat":47.19167,"lng":8.68196},{"city":"Randogne","state":"Valais","population":3157,"lat":46.30952,"lng":7.50058},{"city":"Hermiswil","state":"Bern","population":3156,"lat":46.83125,"lng":7.47775},{"city":"Bürglen","state":"Thurgau","population":3149,"lat":47.54921,"lng":9.1495},{"city":"Stadt Winterthur (Kreis 1) / Neuwiesen","state":"Zurich","population":3149,"lat":47.50207,"lng":8.71625},{"city":"Waldkirch","state":"Saint Gallen","population":3137,"lat":47.46859,"lng":9.28665},{"city":"Dottikon","state":"Aargau","population":3125,"lat":47.38437,"lng":8.23981},{"city":"Romanel-sur-Lausanne","state":"Vaud","population":3123,"lat":46.56403,"lng":6.60538},{"city":"Bösingen","state":"Fribourg","population":3118,"lat":46.89229,"lng":7.2277},{"city":"Turbenthal","state":"Zurich","population":3109,"lat":47.43633,"lng":8.84629},{"city":"Gipf-Oberfrick","state":"Aargau","population":3102,"lat":47.49875,"lng":8.00497},{"city":"Unterkulm","state":"Aargau","population":3099,"lat":47.30998,"lng":8.11371},{"city":"Vallorbe","state":"Vaud","population":3098,"lat":46.71256,"lng":6.37894},{"city":"Zürich (Kreis 1) / Rathaus","state":"Zurich","population":3091,"lat":47.37161,"lng":8.54501},{"city":"Brienz","state":"Bern","population":3090,"lat":46.7545,"lng":8.03847},{"city":"Saint-Blaise","state":"Neuchâtel","population":3089,"lat":47.01511,"lng":6.98832},{"city":"Courroux","state":"Jura","population":3085,"lat":47.36069,"lng":7.37371},{"city":"Rüti / Westlicher Dorfteil","state":"Zurich","population":3083,"lat":47.25548,"lng":8.8449},{"city":"Klingnau","state":"Aargau","population":3069,"lat":47.58361,"lng":8.2488},{"city":"Leysin","state":"Vaud","population":3066,"lat":46.34183,"lng":7.01151},{"city":"Wald","state":"Zurich","population":3061,"lat":47.27595,"lng":8.91405},{"city":"Erlen","state":"Thurgau","population":3057,"lat":47.54814,"lng":9.23415},{"city":"Satigny","state":"Geneva","population":3055,"lat":46.21462,"lng":6.03553},{"city":"Beckenried","state":"Nidwalden","population":3050,"lat":46.96653,"lng":8.47575},{"city":"Murgenthal","state":"Aargau","population":3044,"lat":47.27145,"lng":7.83935},{"city":"Steinen","state":"Schwyz","population":3041,"lat":47.04975,"lng":8.61214},{"city":"Tann","state":"Zurich","population":3034,"lat":47.26898,"lng":8.85024},{"city":"Château-d'Oex","state":"Vaud","population":3034,"lat":46.47455,"lng":7.13155},{"city":"Stadt Winterthur (Kreis 1) / Heiligberg","state":"Zurich","population":3034,"lat":47.49409,"lng":8.72334},{"city":"Mollis","state":"Glarus","population":3014,"lat":47.08878,"lng":9.07242},{"city":"Givisiez","state":"Fribourg","population":3010,"lat":46.81201,"lng":7.12639},{"city":"Zizers","state":"Grisons","population":3009,"lat":46.93575,"lng":9.56491},{"city":"Belmont-sur-Lausanne","state":"Vaud","population":3007,"lat":46.51891,"lng":6.67636},{"city":"Bachenbülach","state":"Zurich","population":2985,"lat":47.50317,"lng":8.54556},{"city":"Turgi","state":"Aargau","population":2982,"lat":47.49201,"lng":8.25412},{"city":"Gams","state":"Saint Gallen","population":2971,"lat":47.20429,"lng":9.44172},{"city":"Illnau","state":"Zurich","population":2964,"lat":47.4113,"lng":8.72125},{"city":"Embrach / Embrach (Dorfkern)","state":"Zurich","population":2960,"lat":47.504,"lng":8.59477},{"city":"Berg","state":"Thurgau","population":2942,"lat":47.57879,"lng":9.16635},{"city":"Grosswangen","state":"Lucerne","population":2941,"lat":47.1331,"lng":8.05041},{"city":"Mosnang","state":"Saint Gallen","population":2936,"lat":47.36252,"lng":9.04296},{"city":"Egerkingen","state":"Solothurn","population":2923,"lat":47.31957,"lng":7.78424},{"city":"Mattenbach (Kreis 7) / Gutschick","state":"Zurich","population":2923,"lat":47.49104,"lng":8.75258},{"city":"Seedorf","state":"Bern","population":2920,"lat":47.03445,"lng":7.31249},{"city":"Nottwil","state":"Lucerne","population":2911,"lat":47.13469,"lng":8.13774},{"city":"Oberburg","state":"Bern","population":2901,"lat":47.03665,"lng":7.62745},{"city":"Selzach","state":"Solothurn","population":2900,"lat":47.20531,"lng":7.45521},{"city":"Netstal","state":"Glarus","population":2900,"lat":47.06337,"lng":9.05734},{"city":"Buttisholz","state":"Lucerne","population":2890,"lat":47.11442,"lng":8.09425},{"city":"Stettlen","state":"Bern","population":2884,"lat":46.95835,"lng":7.52508},{"city":"Hausen","state":"Aargau","population":2881,"lat":47.46396,"lng":8.20988},{"city":"Reichenburg","state":"Schwyz","population":2876,"lat":47.17097,"lng":8.97704},{"city":"Beromünster","state":"Lucerne","population":2876,"lat":47.20612,"lng":8.19265},{"city":"Rüti / Oberdorf","state":"Zurich","population":2875,"lat":47.25894,"lng":8.86512},{"city":"Obermeilen","state":"Zurich","population":2871,"lat":47.26574,"lng":8.65567},{"city":"Oberdiessbach","state":"Bern","population":2860,"lat":46.84117,"lng":7.6173},{"city":"Subingen","state":"Solothurn","population":2852,"lat":47.19852,"lng":7.61949},{"city":"Rohr","state":"Solothurn","population":2849,"lat":47.41029,"lng":7.95333},{"city":"Niederhasli","state":"Zurich","population":2848,"lat":47.48012,"lng":8.48576},{"city":"Chavornay","state":"Vaud","population":2841,"lat":46.70244,"lng":6.5694},{"city":"Hedingen","state":"Zurich","population":2835,"lat":47.29794,"lng":8.44833},{"city":"Tafers","state":"Fribourg","population":2833,"lat":46.81483,"lng":7.21852},{"city":"Trimmis","state":"Grisons","population":2831,"lat":46.90075,"lng":9.5612},{"city":"Vandœuvres","state":"Geneva","population":2826,"lat":46.22179,"lng":6.20285},{"city":"Ins","state":"Bern","population":2826,"lat":47.00584,"lng":7.10609},{"city":"Dietikon / Hofacker","state":"Zurich","population":2826,"lat":47.39718,"lng":8.41609},{"city":"Signau","state":"Bern","population":2821,"lat":46.91944,"lng":7.72418},{"city":"Muralto","state":"Ticino","population":2818,"lat":46.17323,"lng":8.80219},{"city":"Hegnau / Dammboden-Grindel","state":"Zurich","population":2817,"lat":47.38713,"lng":8.66657},{"city":"Zweisimmen","state":"Bern","population":2813,"lat":46.55539,"lng":7.37302},{"city":"Couvet","state":"Neuchâtel","population":2811,"lat":46.92525,"lng":6.6327},{"city":"Grossaffoltern","state":"Bern","population":2810,"lat":47.06534,"lng":7.35689},{"city":"Mettmenstetten","state":"Zurich","population":2798,"lat":47.24529,"lng":8.46347},{"city":"Cossonay","state":"Vaud","population":2795,"lat":46.61443,"lng":6.50631},{"city":"Wattenwil","state":"Bern","population":2788,"lat":46.76973,"lng":7.50835},{"city":"Niederrohrdorf","state":"Aargau","population":2784,"lat":47.42409,"lng":8.30404},{"city":"Gommiswald","state":"Saint Gallen","population":2781,"lat":47.23128,"lng":9.02355},{"city":"Mönchaltorf","state":"Zurich","population":2779,"lat":47.30958,"lng":8.72029},{"city":"Gais","state":"Appenzell Ausserrhoden","population":2778,"lat":47.3615,"lng":9.45356},{"city":"Zürich (Kreis 2) / Unter-Leimbach","state":"Zurich","population":2778,"lat":47.33362,"lng":8.51433},{"city":"Laupen","state":"Bern","population":2774,"lat":46.90214,"lng":7.23973},{"city":"Chermignon-d'en Haut","state":"Valais","population":2773,"lat":46.28844,"lng":7.47487},{"city":"Töss (Kreis 4) / Schlosstal","state":"Zurich","population":2762,"lat":47.49279,"lng":8.70223},{"city":"Schafisheim","state":"Aargau","population":2758,"lat":47.37664,"lng":8.14263},{"city":"Avenches","state":"Vaud","population":2758,"lat":46.88004,"lng":7.04071},{"city":"Bätterkinden","state":"Bern","population":2748,"lat":47.13164,"lng":7.53817},{"city":"Mühleberg","state":"Bern","population":2739,"lat":46.95466,"lng":7.26102},{"city":"Grandson","state":"Vaud","population":2735,"lat":46.80946,"lng":6.646},{"city":"Orsières","state":"Valais","population":2725,"lat":46.02903,"lng":7.14437},{"city":"Volketswil / Volketswil (Dorf)","state":"Zurich","population":2723,"lat":47.39016,"lng":8.69085},{"city":"Quarten","state":"Saint Gallen","population":2715,"lat":47.107,"lng":9.24199},{"city":"Rickenbach bei Wil","state":"Thurgau","population":2714,"lat":47.44856,"lng":9.04902},{"city":"Wädenswil / Büelen","state":"Zurich","population":2710,"lat":47.23395,"lng":8.66346},{"city":"Anières","state":"Geneva","population":2706,"lat":46.27673,"lng":6.22204},{"city":"Aubonne","state":"Vaud","population":2703,"lat":46.49514,"lng":6.39155},{"city":"Samedan","state":"Grisons","population":2700,"lat":46.53399,"lng":9.87276},{"city":"Lauperswil","state":"Bern","population":2700,"lat":46.96564,"lng":7.74214},{"city":"Ennenda","state":"Glarus","population":2699,"lat":47.03363,"lng":9.07888},{"city":"Sementina","state":"Ticino","population":2695,"lat":46.18363,"lng":8.99162},{"city":"Horgen / Scheller-Stockerstrasse","state":"Zurich","population":2690,"lat":47.26584,"lng":8.5876},{"city":"Unterengstringen","state":"Zurich","population":2675,"lat":47.41396,"lng":8.44761},{"city":"Tuggen","state":"Schwyz","population":2671,"lat":47.20291,"lng":8.94896},{"city":"Niederhelfenschwil","state":"Saint Gallen","population":2668,"lat":47.47487,"lng":9.18543},{"city":"Chalais","state":"Valais","population":2665,"lat":46.26758,"lng":7.51145},{"city":"Chardonne","state":"Vaud","population":2659,"lat":46.47676,"lng":6.8268},{"city":"Bonaduz","state":"Grisons","population":2654,"lat":46.81103,"lng":9.39821},{"city":"Lauterbrunnen","state":"Bern","population":2646,"lat":46.59307,"lng":7.90938},{"city":"Glattbrugg","state":"Zurich","population":2642,"lat":47.4313,"lng":8.56272},{"city":"Zunzgen","state":"Basel-Landschaft","population":2632,"lat":47.44925,"lng":7.80789},{"city":"Effretikon / Watt","state":"Zurich","population":2632,"lat":47.42797,"lng":8.69822},{"city":"Seen (Kreis 3) / Büelwiesen","state":"Zurich","population":2632,"lat":47.48446,"lng":8.76517},{"city":"Menznau","state":"Lucerne","population":2628,"lat":47.08364,"lng":8.03971},{"city":"Chamoson","state":"Valais","population":2628,"lat":46.20275,"lng":7.22319},{"city":"Dietikon / Vorstadt","state":"Zurich","population":2619,"lat":47.40819,"lng":8.39719},{"city":"Schenkon","state":"Lucerne","population":2616,"lat":47.17765,"lng":8.13204},{"city":"Lenzerheide","state":"Grisons","population":2610,"lat":46.72215,"lng":9.55905},{"city":"Küsnacht / Goldbach","state":"Zurich","population":2607,"lat":47.32729,"lng":8.58077},{"city":"Wülflingen (Kreis 6) / Härti","state":"Zurich","population":2602,"lat":47.51262,"lng":8.684},{"city":"Märstetten-Dorf","state":"Thurgau","population":2600,"lat":47.59252,"lng":9.06851},{"city":"Schlieren / Spital","state":"Zurich","population":2587,"lat":47.39489,"lng":8.43027},{"city":"Glattfelden","state":"Zurich","population":2578,"lat":47.55871,"lng":8.50167},{"city":"Thusis","state":"Grisons","population":2572,"lat":46.69724,"lng":9.43938},{"city":"Au / Mittel-Dorf","state":"Zurich","population":2562,"lat":47.24303,"lng":8.64591},{"city":"Eggiwil","state":"Bern","population":2559,"lat":46.87575,"lng":7.79567},{"city":"Wädenswil / Dorf (Wädenswil)","state":"Zurich","population":2556,"lat":47.22923,"lng":8.6722},{"city":"Wülflingen (Kreis 6) / Lindenplatz","state":"Zurich","population":2555,"lat":47.51098,"lng":8.6929},{"city":"Kirchlindach","state":"Bern","population":2553,"lat":46.99965,"lng":7.41735},{"city":"Fischingen","state":"Thurgau","population":2548,"lat":47.41422,"lng":8.96862},{"city":"Schwanden","state":"Glarus","population":2541,"lat":46.99541,"lng":9.0701},{"city":"Adliswil / Adliswil (Stadtkern)","state":"Zurich","population":2538,"lat":47.31128,"lng":8.52675},{"city":"Flims","state":"Grisons","population":2536,"lat":46.83705,"lng":9.28458},{"city":"Horgen / Oberdorf","state":"Zurich","population":2524,"lat":47.25837,"lng":8.59013},{"city":"Wetzikon / Unter-Wetzikon","state":"Zurich","population":2521,"lat":47.31637,"lng":8.79369},{"city":"Ringgenberg","state":"Bern","population":2514,"lat":46.70114,"lng":7.89445},{"city":"Kloten / Rütlen","state":"Zurich","population":2510,"lat":47.44726,"lng":8.58808},{"city":"Stein","state":"Aargau","population":2504,"lat":47.54403,"lng":7.95256},{"city":"Villars-sur-Ollon","state":"Vaud","population":2500,"lat":46.29832,"lng":7.05631},{"city":"Roggwil","state":"Thurgau","population":2500,"lat":47.49981,"lng":9.3958},{"city":"Müllheim","state":"Thurgau","population":2493,"lat":47.60195,"lng":9.00357},{"city":"Täuffelen","state":"Bern","population":2492,"lat":47.0663,"lng":7.19883},{"city":"Orpund","state":"Bern","population":2488,"lat":47.13891,"lng":7.30775},{"city":"Merenschwand","state":"Aargau","population":2479,"lat":47.25944,"lng":8.37633},{"city":"Saint-Aubin-Sauges","state":"Neuchâtel","population":2476,"lat":46.89419,"lng":6.77251},{"city":"Birmenstorf","state":"Aargau","population":2462,"lat":47.46152,"lng":8.24816},{"city":"Münsterlingen","state":"Thurgau","population":2459,"lat":47.63197,"lng":9.23271},{"city":"Meisterschwanden","state":"Aargau","population":2459,"lat":47.29489,"lng":8.22867},{"city":"Ermatingen","state":"Thurgau","population":2453,"lat":47.67057,"lng":9.08573},{"city":"Maienfeld","state":"Grisons","population":2435,"lat":47.00472,"lng":9.53115},{"city":"Rubigen","state":"Bern","population":2426,"lat":46.89868,"lng":7.5446},{"city":"Staufen","state":"Aargau","population":2424,"lat":47.38197,"lng":8.16681},{"city":"Schiers","state":"Grisons","population":2423,"lat":46.96973,"lng":9.6872},{"city":"Benken","state":"Saint Gallen","population":2419,"lat":47.19942,"lng":9.00735},{"city":"Russikon","state":"Zurich","population":2415,"lat":47.39669,"lng":8.77515},{"city":"Wolfhausen","state":"Zurich","population":2402,"lat":47.25619,"lng":8.7991},{"city":"Yvonand","state":"Vaud","population":2401,"lat":46.80034,"lng":6.74249},{"city":"Matzingen","state":"Thurgau","population":2399,"lat":47.51957,"lng":8.93365},{"city":"Puidoux","state":"Vaud","population":2398,"lat":46.50093,"lng":6.78249},{"city":"Küsnacht / Itschnach","state":"Zurich","population":2397,"lat":47.32714,"lng":8.60068},{"city":"Novazzano","state":"Ticino","population":2395,"lat":45.84073,"lng":8.98236},{"city":"Lotzwil","state":"Bern","population":2391,"lat":47.19135,"lng":7.79102},{"city":"Riva San Vitale","state":"Ticino","population":2390,"lat":45.90123,"lng":8.97167},{"city":"Attalens","state":"Fribourg","population":2380,"lat":46.50555,"lng":6.85039},{"city":"Pfungen","state":"Zurich","population":2369,"lat":47.51394,"lng":8.6423},{"city":"Seen (Kreis 3) / Ganzenbühl","state":"Zurich","population":2362,"lat":47.481,"lng":8.76249},{"city":"Camorino","state":"Ticino","population":2358,"lat":46.16483,"lng":9.00547},{"city":"Domdidier","state":"Fribourg","population":2353,"lat":46.86716,"lng":7.01337},{"city":"Sankt Niklaus","state":"Valais","population":2352,"lat":46.17717,"lng":7.80349},{"city":"Elgg / Städtchen und Umgebung","state":"Zurich","population":2342,"lat":47.49265,"lng":8.8668},{"city":"Krauchthal","state":"Bern","population":2339,"lat":47.00964,"lng":7.5664},{"city":"Monte Carasso","state":"Ticino","population":2336,"lat":46.18649,"lng":8.99892},{"city":"Grimisuat","state":"Valais","population":2332,"lat":46.25938,"lng":7.38408},{"city":"Rüderswil","state":"Bern","population":2329,"lat":46.98374,"lng":7.72167},{"city":"Evilard","state":"Bern","population":2328,"lat":47.15046,"lng":7.23895},{"city":"Sarmenstorf","state":"Aargau","population":2322,"lat":47.31109,"lng":8.2495},{"city":"Ilanz","state":"Grisons","population":2321,"lat":46.77413,"lng":9.20461},{"city":"Courrendlin","state":"Jura","population":2314,"lat":47.33853,"lng":7.37243},{"city":"Nürensdorf","state":"Zurich","population":2310,"lat":47.44814,"lng":8.64908},{"city":"Unteriberg","state":"Schwyz","population":2307,"lat":47.06258,"lng":8.8052},{"city":"Arosa","state":"Grisons","population":2307,"lat":46.77793,"lng":9.67621},{"city":"Ardon","state":"Valais","population":2305,"lat":46.20951,"lng":7.26012},{"city":"Urnäsch","state":"Appenzell Ausserrhoden","population":2304,"lat":47.31669,"lng":9.2795},{"city":"Wilderswil","state":"Bern","population":2303,"lat":46.66369,"lng":7.86175},{"city":"Untervaz","state":"Grisons","population":2303,"lat":46.9275,"lng":9.53422},{"city":"Montana","state":"Valais","population":2301,"lat":46.31338,"lng":7.48839},{"city":"Montagnola","state":"Ticino","population":2297,"lat":45.98323,"lng":8.91786},{"city":"Claro","state":"Ticino","population":2296,"lat":46.25763,"lng":9.02252},{"city":"Reconvilier","state":"Bern","population":2291,"lat":47.23431,"lng":7.22239},{"city":"Neunkirch","state":"Schaffhausen","population":2289,"lat":47.69012,"lng":8.49981},{"city":"Belfaux","state":"Fribourg","population":2286,"lat":46.82171,"lng":7.10674},{"city":"Ballwil","state":"Lucerne","population":2284,"lat":47.15371,"lng":8.32233},{"city":"Ebmatingen","state":"Zurich","population":2278,"lat":47.34987,"lng":8.64013},{"city":"Toffen","state":"Bern","population":2277,"lat":46.86031,"lng":7.49216},{"city":"Horn","state":"Thurgau","population":2274,"lat":47.49425,"lng":9.46246},{"city":"Lenk","state":"Bern","population":2268,"lat":46.45826,"lng":7.44298},{"city":"Othmarsingen","state":"Aargau","population":2267,"lat":47.40125,"lng":8.21383},{"city":"Wallisellen / Rieden","state":"Zurich","population":2261,"lat":47.41738,"lng":8.60028},{"city":"Bonstetten","state":"Zurich","population":2260,"lat":47.31505,"lng":8.46836},{"city":"Erlinsbach","state":"Solothurn","population":2258,"lat":47.39753,"lng":8.00797},{"city":"Founex","state":"Vaud","population":2254,"lat":46.33277,"lng":6.19243},{"city":"Udligenswil","state":"Lucerne","population":2252,"lat":47.09005,"lng":8.40335},{"city":"Hölstein","state":"Basel-Landschaft","population":2249,"lat":47.4229,"lng":7.77041},{"city":"Oberdorf","state":"Basel-Landschaft","population":2248,"lat":47.39353,"lng":7.75169},{"city":"Courtételle","state":"Jura","population":2248,"lat":47.34074,"lng":7.31827},{"city":"Kilchberg / Kilchberg (Dorfkern)","state":"Zurich","population":2244,"lat":47.32012,"lng":8.54306},{"city":"Silenen","state":"Uri","population":2243,"lat":46.7891,"lng":8.67325},{"city":"Penthalaz","state":"Vaud","population":2241,"lat":46.61077,"lng":6.52519},{"city":"Nebikon","state":"Lucerne","population":2241,"lat":47.19185,"lng":7.97769},{"city":"Kloten / Holberg","state":"Zurich","population":2239,"lat":47.44642,"lng":8.57661},{"city":"Wimmis","state":"Bern","population":2237,"lat":46.67587,"lng":7.63972},{"city":"Bönigen","state":"Bern","population":2233,"lat":46.68736,"lng":7.8935},{"city":"Hettlingen","state":"Zurich","population":2221,"lat":47.5461,"lng":8.70532},{"city":"Wiedlisbach","state":"Bern","population":2213,"lat":47.25194,"lng":7.6461},{"city":"Riddes","state":"Valais","population":2213,"lat":46.17276,"lng":7.2236},{"city":"Mogelsberg","state":"Saint Gallen","population":2213,"lat":47.36222,"lng":9.13541},{"city":"Wetzikon / Robenhausen","state":"Zurich","population":2213,"lat":47.33089,"lng":8.78762},{"city":"Eggersriet","state":"Saint Gallen","population":2209,"lat":47.44202,"lng":9.46901},{"city":"Stadt Winterthur (Kreis 1) / Tössfeld","state":"Zurich","population":2207,"lat":47.4934,"lng":8.71512},{"city":"Pfeffingen","state":"Basel-Landschaft","population":2201,"lat":47.45984,"lng":7.58975},{"city":"Saignelégier","state":"Jura","population":2194,"lat":47.25619,"lng":6.99648},{"city":"Leytron","state":"Valais","population":2194,"lat":46.1866,"lng":7.2078},{"city":"Wilchingen","state":"Schaffhausen","population":2193,"lat":47.66745,"lng":8.46774},{"city":"Disentis","state":"Grisons","population":2193,"lat":46.70341,"lng":8.8509},{"city":"Waltenschwil","state":"Aargau","population":2192,"lat":47.33339,"lng":8.29791},{"city":"Lucens","state":"Vaud","population":2192,"lat":46.70854,"lng":6.83931},{"city":"Troinex","state":"Geneva","population":2192,"lat":46.16313,"lng":6.14745},{"city":"Scuol","state":"Grisons","population":2184,"lat":46.79671,"lng":10.29804},{"city":"Hägglingen","state":"Aargau","population":2183,"lat":47.38851,"lng":8.25285},{"city":"Bülach / Seematt","state":"Zurich","population":2171,"lat":47.51716,"lng":8.54651},{"city":"Mattenbach (Kreis 7) / Endliker","state":"Zurich","population":2169,"lat":47.48821,"lng":8.74938},{"city":"Geuensee","state":"Lucerne","population":2168,"lat":47.1997,"lng":8.10689},{"city":"Hitzkirch","state":"Lucerne","population":2165,"lat":47.22403,"lng":8.26425},{"city":"Feuerthalen","state":"Zurich","population":2165,"lat":47.69054,"lng":8.64357},{"city":"Inwil","state":"Lucerne","population":2163,"lat":47.1253,"lng":8.34885},{"city":"Puplinge","state":"Geneva","population":2163,"lat":46.21043,"lng":6.23114},{"city":"Zwingen","state":"Basel-Landschaft","population":2162,"lat":47.43825,"lng":7.53027},{"city":"Castel San Pietro","state":"Ticino","population":2150,"lat":45.86211,"lng":9.00843},{"city":"Broc","state":"Fribourg","population":2148,"lat":46.60513,"lng":7.09891},{"city":"Gattikon","state":"Zurich","population":2142,"lat":47.28439,"lng":8.5483},{"city":"Kaisten","state":"Aargau","population":2140,"lat":47.5416,"lng":8.04337},{"city":"Deitingen","state":"Solothurn","population":2135,"lat":47.21515,"lng":7.6188},{"city":"Affeltrangen","state":"Thurgau","population":2135,"lat":47.52581,"lng":9.03307},{"city":"Ueberstorf","state":"Fribourg","population":2133,"lat":46.86587,"lng":7.30998},{"city":"Chexbres","state":"Vaud","population":2133,"lat":46.48208,"lng":6.77805},{"city":"Seen (Kreis 3) / Oberseen","state":"Zurich","population":2133,"lat":47.48205,"lng":8.77289},{"city":"Coppet","state":"Vaud","population":2124,"lat":46.31682,"lng":6.19114},{"city":"Walzenhausen","state":"Appenzell Ausserrhoden","population":2120,"lat":47.44867,"lng":9.60495},{"city":"Dietikon / Almend","state":"Zurich","population":2118,"lat":47.40477,"lng":8.39168},{"city":"Courgenay","state":"Jura","population":2106,"lat":47.40483,"lng":7.12522},{"city":"Fällanden","state":"Zurich","population":2100,"lat":47.37169,"lng":8.63869},{"city":"Rothenthurm","state":"Schwyz","population":2098,"lat":47.1042,"lng":8.67585},{"city":"Wynigen","state":"Bern","population":2090,"lat":47.10586,"lng":7.66681},{"city":"Hohenrain","state":"Lucerne","population":2090,"lat":47.18083,"lng":8.31802},{"city":"Felsberg","state":"Grisons","population":2088,"lat":46.84566,"lng":9.47588},{"city":"Wolfenschiessen","state":"Nidwalden","population":2080,"lat":46.90322,"lng":8.39423},{"city":"Cernier","state":"Neuchâtel","population":2080,"lat":47.05878,"lng":6.9004},{"city":"Tann / Tann (Dorfkern)","state":"Zurich","population":2080,"lat":47.26494,"lng":8.85048},{"city":"Wolfwil","state":"Solothurn","population":2079,"lat":47.26871,"lng":7.79652},{"city":"Obergösgen","state":"Solothurn","population":2076,"lat":47.36538,"lng":7.95173},{"city":"Gontenschwil","state":"Aargau","population":2067,"lat":47.27166,"lng":8.14396},{"city":"Bubikon","state":"Zurich","population":2052,"lat":47.26698,"lng":8.8179},{"city":"Malans","state":"Grisons","population":2051,"lat":46.98096,"lng":9.57527},{"city":"Pfaffnau","state":"Lucerne","population":2047,"lat":47.22772,"lng":7.89719},{"city":"Worben","state":"Bern","population":2042,"lat":47.10279,"lng":7.29518},{"city":"Wigoltingen","state":"Thurgau","population":2040,"lat":47.5977,"lng":9.03141},{"city":"Thierachern","state":"Bern","population":2040,"lat":46.75319,"lng":7.57442},{"city":"Ottenbach","state":"Zurich","population":2039,"lat":47.28228,"lng":8.40432},{"city":"Grône","state":"Valais","population":2039,"lat":46.25288,"lng":7.45947},{"city":"Pfäffikon / Irgenhausen","state":"Zurich","population":2032,"lat":47.3624,"lng":8.79265},{"city":"Diemtigen","state":"Bern","population":2027,"lat":46.64928,"lng":7.56477},{"city":"Wangen","state":"Zurich","population":2015,"lat":47.41182,"lng":8.64516},{"city":"Seftigen","state":"Bern","population":2014,"lat":46.78765,"lng":7.53937},{"city":"Illnau / Unter-Illnau","state":"Zurich","population":2011,"lat":47.40787,"lng":8.72607},{"city":"Bilten","state":"Glarus","population":2011,"lat":47.14995,"lng":9.02551},{"city":"Riggisberg","state":"Bern","population":2001,"lat":46.81028,"lng":7.48014},{"city":"Verbier","state":"Valais","population":2000,"lat":46.1002,"lng":7.22651},{"city":"Hallau","state":"Schaffhausen","population":2000,"lat":47.69648,"lng":8.45827},{"city":"Flüelen","state":"Uri","population":2000,"lat":46.90478,"lng":8.62396},{"city":"Caux","state":"Vaud","population":2000,"lat":46.43241,"lng":6.93855},{"city":"Aeschi b. Spiez","state":"Bern","population":2000,"lat":46.65848,"lng":7.6965},{"city":"Lauffohr (Brugg)","state":"Aargau","population":2000,"lat":47.50154,"lng":8.23122},{"city":"Hindelbank","state":"Bern","population":1994,"lat":47.0427,"lng":7.54143},{"city":"Madiswil","state":"Bern","population":1991,"lat":47.16463,"lng":7.79858},{"city":"Affoltern / Unterdorf","state":"Zurich","population":1989,"lat":47.28277,"lng":8.45409},{"city":"Sonnhalde","state":"Zurich","population":1984,"lat":47.45329,"lng":8.46091},{"city":"Gersau","state":"Schwyz","population":1983,"lat":46.99419,"lng":8.525},{"city":"Koppigen","state":"Bern","population":1977,"lat":47.13125,"lng":7.60525},{"city":"Wädenswil / Untermosen-Fuhr","state":"Zurich","population":1976,"lat":47.22772,"lng":8.66303},{"city":"Weisslingen","state":"Zurich","population":1975,"lat":47.43063,"lng":8.76787},{"city":"Bas-Vully","state":"Fribourg","population":1963,"lat":46.96194,"lng":7.11251},{"city":"Oberrieden / Berg","state":"Zurich","population":1961,"lat":47.27628,"lng":8.57257},{"city":"Dietikon / Kreuzacker","state":"Zurich","population":1955,"lat":47.39919,"lng":8.40146},{"city":"Büron","state":"Lucerne","population":1951,"lat":47.21192,"lng":8.0942},{"city":"Rüthi","state":"Saint Gallen","population":1945,"lat":47.2948,"lng":9.53857},{"city":"Wangen an der Aare","state":"Bern","population":1944,"lat":47.23208,"lng":7.65253},{"city":"Raron","state":"Valais","population":1944,"lat":46.31196,"lng":7.80029},{"city":"Zell","state":"Lucerne","population":1943,"lat":47.13673,"lng":7.92495},{"city":"Kloten / Geissberg","state":"Zurich","population":1941,"lat":47.45424,"lng":8.59066},{"city":"Nunningen","state":"Solothurn","population":1939,"lat":47.3941,"lng":7.61951},{"city":"Plaffeien","state":"Fribourg","population":1938,"lat":46.74198,"lng":7.28666},{"city":"Saint-Léonard","state":"Valais","population":1937,"lat":46.25152,"lng":7.41714},{"city":"Flühli","state":"Lucerne","population":1937,"lat":46.88391,"lng":8.01558},{"city":"Benglen","state":"Zurich","population":1937,"lat":47.36077,"lng":8.63687},{"city":"Endingen","state":"Aargau","population":1935,"lat":47.53742,"lng":8.29036},{"city":"Rüeggisberg","state":"Bern","population":1933,"lat":46.82216,"lng":7.4389},{"city":"Oberurnen","state":"Glarus","population":1932,"lat":47.11412,"lng":9.05866},{"city":"Gunzwil","state":"Lucerne","population":1925,"lat":47.21072,"lng":8.17932},{"city":"Eiken","state":"Aargau","population":1923,"lat":47.53361,"lng":7.98801},{"city":"Lungern","state":"Obwalden","population":1921,"lat":46.78578,"lng":8.15984},{"city":"Arzier","state":"Vaud","population":1919,"lat":46.45962,"lng":6.20813},{"city":"Malleray","state":"Bern","population":1918,"lat":47.23839,"lng":7.27286},{"city":"Cressier","state":"Neuchâtel","population":1912,"lat":47.04907,"lng":7.03455},{"city":"Werthenstein","state":"Lucerne","population":1909,"lat":47.05578,"lng":8.10182},{"city":"Cadenazzo","state":"Ticino","population":1906,"lat":46.15172,"lng":8.94719},{"city":"Riaz","state":"Fribourg","population":1894,"lat":46.64224,"lng":7.06183},{"city":"Thalwil / See","state":"Zurich","population":1893,"lat":47.29409,"lng":8.56929},{"city":"Zürich (Kreis 2) / Mittel-Leimbach","state":"Zurich","population":1891,"lat":47.32538,"lng":8.51391},{"city":"Altnau","state":"Thurgau","population":1887,"lat":47.61052,"lng":9.2616},{"city":"Römerswil","state":"Lucerne","population":1882,"lat":47.16881,"lng":8.24528},{"city":"Hildisrieden","state":"Lucerne","population":1882,"lat":47.15068,"lng":8.22582},{"city":"Bottighofen","state":"Thurgau","population":1882,"lat":47.63643,"lng":9.20882},{"city":"Oberlunkhofen","state":"Aargau","population":1880,"lat":47.31244,"lng":8.39242},{"city":"Schlieren / Engstringerquartier","state":"Zurich","population":1877,"lat":47.40338,"lng":8.44352},{"city":"Lichtensteig","state":"Saint Gallen","population":1870,"lat":47.32381,"lng":9.08758},{"city":"Canobbio","state":"Ticino","population":1869,"lat":46.03592,"lng":8.96605},{"city":"Pontresina","state":"Grisons","population":1863,"lat":46.4955,"lng":9.90126},{"city":"Büsserach","state":"Solothurn","population":1863,"lat":47.39415,"lng":7.54117},{"city":"Bülach / Gstückt","state":"Zurich","population":1863,"lat":47.52337,"lng":8.54879},{"city":"Binzikon","state":"Zurich","population":1854,"lat":47.27632,"lng":8.75851},{"city":"Alterswil","state":"Fribourg","population":1850,"lat":46.79587,"lng":7.25877},{"city":"Sankt Antoni","state":"Fribourg","population":1849,"lat":46.82207,"lng":7.26091},{"city":"Kollbrunn","state":"Zurich","population":1848,"lat":47.45793,"lng":8.78295},{"city":"Zürich (Kreis 5) / Escher-Wyss","state":"Zurich","population":1846,"lat":47.39052,"lng":8.51292},{"city":"Cevio","state":"Ticino","population":1844,"lat":46.31479,"lng":8.60332},{"city":"Oberwinterthur (Kreis 2) / Zinzikon","state":"Zurich","population":1842,"lat":47.5195,"lng":8.7564},{"city":"Urdorf / Bodenfeld","state":"Zurich","population":1840,"lat":47.3892,"lng":8.42265},{"city":"Pfyn","state":"Thurgau","population":1839,"lat":47.59693,"lng":8.9542},{"city":"Vuadens","state":"Fribourg","population":1835,"lat":46.61545,"lng":7.01732},{"city":"Gorgier","state":"Neuchâtel","population":1832,"lat":46.90143,"lng":6.77985},{"city":"Brissago","state":"Ticino","population":1831,"lat":46.12013,"lng":8.71181},{"city":"Wädenswil / Leihof-Mühlebach","state":"Zurich","population":1830,"lat":47.22364,"lng":8.67149},{"city":"Oberegg","state":"Appenzell Innerrhoden","population":1827,"lat":47.42531,"lng":9.55134},{"city":"Walkringen","state":"Bern","population":1817,"lat":46.94856,"lng":7.6204},{"city":"Saint-Cergue","state":"Vaud","population":1816,"lat":46.4459,"lng":6.15737},{"city":"Sankt Gallenkappel","state":"Saint Gallen","population":1811,"lat":47.24368,"lng":8.96438},{"city":"Meinier","state":"Geneva","population":1811,"lat":46.24706,"lng":6.23423},{"city":"Otelfingen","state":"Zurich","population":1808,"lat":47.46053,"lng":8.39141},{"city":"Acquarossa","state":"Ticino","population":1808,"lat":46.45473,"lng":8.94261},{"city":"Oberbuchsiten","state":"Solothurn","population":1807,"lat":47.31334,"lng":7.76836},{"city":"Oberrieden / Mitte","state":"Zurich","population":1807,"lat":47.27242,"lng":8.58021},{"city":"Ormalingen","state":"Basel-Landschaft","population":1803,"lat":47.46936,"lng":7.87248},{"city":"Ettiswil","state":"Lucerne","population":1801,"lat":47.15031,"lng":8.01759},{"city":"Rorbas","state":"Zurich","population":1797,"lat":47.53092,"lng":8.57555},{"city":"Uerikon","state":"Zurich","population":1794,"lat":47.23672,"lng":8.7573},{"city":"Cully","state":"Vaud","population":1793,"lat":46.48892,"lng":6.72945},{"city":"Bioggio","state":"Ticino","population":1784,"lat":46.01357,"lng":8.91103},{"city":"Killwangen","state":"Aargau","population":1783,"lat":47.43223,"lng":8.35097},{"city":"Glattbrugg / Rohr/Platten-Balsberg","state":"Zurich","population":1780,"lat":47.43721,"lng":8.56642},{"city":"Rehetobel","state":"Appenzell Ausserrhoden","population":1779,"lat":47.42611,"lng":9.483},{"city":"Grellingen","state":"Basel-Landschaft","population":1767,"lat":47.44231,"lng":7.58906},{"city":"Uster / Gschwader","state":"Zurich","population":1763,"lat":47.36016,"lng":8.7139},{"city":"Biglen","state":"Bern","population":1759,"lat":46.92629,"lng":7.62508},{"city":"Affoltern / Oberdorf","state":"Zurich","population":1759,"lat":47.27852,"lng":8.45651},{"city":"Effretikon / Rappenhalde-Bannhalde","state":"Zurich","population":1758,"lat":47.42388,"lng":8.69653},{"city":"Weiningen","state":"Zurich","population":1753,"lat":47.42022,"lng":8.43644},{"city":"Röschenz","state":"Basel-Landschaft","population":1753,"lat":47.42366,"lng":7.48024},{"city":"Thalwil / Nord","state":"Zurich","population":1751,"lat":47.29748,"lng":8.55634},{"city":"Itingen","state":"Basel-Landschaft","population":1750,"lat":47.46651,"lng":7.78502},{"city":"Vicques","state":"Jura","population":1741,"lat":47.35,"lng":7.41342},{"city":"Dallenwil","state":"Nidwalden","population":1738,"lat":46.9242,"lng":8.38785},{"city":"Andwil","state":"Saint Gallen","population":1737,"lat":47.43855,"lng":9.27436},{"city":"Schinznach Dorf","state":"Aargau","population":1736,"lat":47.4465,"lng":8.14089},{"city":"Bévilard","state":"Bern","population":1736,"lat":47.23711,"lng":7.28325},{"city":"La Sarraz","state":"Vaud","population":1734,"lat":46.65863,"lng":6.51077},{"city":"Künten","state":"Aargau","population":1732,"lat":47.38887,"lng":8.33045},{"city":"Martigny-Combe","state":"Valais","population":1731,"lat":46.07817,"lng":7.05099},{"city":"Erlenbach im Simmental","state":"Bern","population":1730,"lat":46.66021,"lng":7.55445},{"city":"Comano","state":"Ticino","population":1729,"lat":46.03635,"lng":8.95526},{"city":"Hasle","state":"Lucerne","population":1725,"lat":46.97787,"lng":8.05326},{"city":"Schleitheim","state":"Schaffhausen","population":1723,"lat":47.74818,"lng":8.48213},{"city":"Waldstatt","state":"Appenzell Ausserrhoden","population":1722,"lat":47.35627,"lng":9.28345},{"city":"Knutwil","state":"Lucerne","population":1722,"lat":47.19953,"lng":8.07315},{"city":"Vionnaz","state":"Valais","population":1719,"lat":46.31101,"lng":6.90062},{"city":"Aesch","state":"Zurich","population":1717,"lat":47.3297,"lng":8.6541},{"city":"Charmey","state":"Fribourg","population":1713,"lat":46.61957,"lng":7.16486},{"city":"Erlenbach / links des Dorfbachs oberhalb Bahnlinie","state":"Zurich","population":1709,"lat":47.2995,"lng":8.60188},{"city":"Corminboeuf","state":"Fribourg","population":1702,"lat":46.81029,"lng":7.10535},{"city":"Corsier","state":"Geneva","population":1699,"lat":46.26297,"lng":6.22461},{"city":"Rüschegg","state":"Bern","population":1697,"lat":46.77977,"lng":7.39167},{"city":"Alle","state":"Jura","population":1693,"lat":47.42542,"lng":7.13018},{"city":"Affoltern / Hasenbüel","state":"Zurich","population":1690,"lat":47.27324,"lng":8.45218},{"city":"Pfaffhausen","state":"Zurich","population":1684,"lat":47.36476,"lng":8.62375},{"city":"Jonen","state":"Aargau","population":1683,"lat":47.2975,"lng":8.39282},{"city":"Dänikon","state":"Zurich","population":1682,"lat":47.44674,"lng":8.40648},{"city":"Kloten / Kloten (Zentrum)","state":"Zurich","population":1681,"lat":47.45134,"lng":8.58683},{"city":"Uttigen","state":"Bern","population":1673,"lat":46.79435,"lng":7.57789},{"city":"Laupersdorf","state":"Solothurn","population":1670,"lat":47.3126,"lng":7.65465},{"city":"Teufenthal","state":"Aargau","population":1665,"lat":47.32896,"lng":8.11777},{"city":"Stadt Winterthur (Kreis 1) / Altstadt","state":"Zurich","population":1665,"lat":47.49951,"lng":8.72872},{"city":"Vordemwald","state":"Aargau","population":1661,"lat":47.27585,"lng":7.90114},{"city":"Dombresson","state":"Neuchâtel","population":1659,"lat":47.07192,"lng":6.9592},{"city":"Wauwil","state":"Lucerne","population":1657,"lat":47.18457,"lng":8.021},{"city":"Chézard-Saint-Martin","state":"Neuchâtel","population":1655,"lat":47.06629,"lng":6.93332},{"city":"Koblenz","state":"Aargau","population":1651,"lat":47.60972,"lng":8.2375},{"city":"Wiesendangen / Wiesendangen (Dorf)","state":"Zurich","population":1649,"lat":47.5217,"lng":8.78967},{"city":"Fontainemelon","state":"Neuchâtel","population":1647,"lat":47.05495,"lng":6.8868},{"city":"Gruyères","state":"Fribourg","population":1646,"lat":46.58338,"lng":7.08207},{"city":"Cazis","state":"Grisons","population":1641,"lat":46.7194,"lng":9.43271},{"city":"Diegten","state":"Basel-Landschaft","population":1633,"lat":47.4138,"lng":7.81085},{"city":"Sorengo","state":"Ticino","population":1629,"lat":45.99766,"lng":8.93783},{"city":"Guggisberg","state":"Bern","population":1628,"lat":46.76756,"lng":7.32946},{"city":"Eich","state":"Lucerne","population":1627,"lat":47.15116,"lng":8.16695},{"city":"Trogen","state":"Appenzell Ausserrhoden","population":1618,"lat":47.40782,"lng":9.46498},{"city":"Le Noirmont","state":"Jura","population":1617,"lat":47.22464,"lng":6.95784},{"city":"Freienstein","state":"Zurich","population":1617,"lat":47.53307,"lng":8.58455},{"city":"Fraubrunnen","state":"Bern","population":1616,"lat":47.0862,"lng":7.52727},{"city":"Vernayaz","state":"Valais","population":1612,"lat":46.13667,"lng":7.03906},{"city":"Bühler","state":"Appenzell Ausserrhoden","population":1612,"lat":47.37348,"lng":9.42507},{"city":"Saas-Fee","state":"Valais","population":1611,"lat":46.10805,"lng":7.92741},{"city":"Wynau","state":"Bern","population":1610,"lat":47.2557,"lng":7.81626},{"city":"Auw","state":"Aargau","population":1610,"lat":47.21082,"lng":8.36583},{"city":"Tagelswangen","state":"Zurich","population":1606,"lat":47.4307,"lng":8.67284},{"city":"Gunzgen","state":"Solothurn","population":1604,"lat":47.31375,"lng":7.83102},{"city":"Binz","state":"Zurich","population":1601,"lat":47.35635,"lng":8.62657},{"city":"Saillon","state":"Valais","population":1598,"lat":46.17035,"lng":7.18771},{"city":"Sattel","state":"Schwyz","population":1597,"lat":47.08246,"lng":8.63565},{"city":"Cadro","state":"Ticino","population":1596,"lat":46.04595,"lng":8.98725},{"city":"Schwarzenberg","state":"Lucerne","population":1591,"lat":47.01705,"lng":8.17261},{"city":"Kloten / Freienberg (Chanzler-Chlini Chaseren)","state":"Zurich","population":1588,"lat":47.46584,"lng":8.58145},{"city":"Dällikon / Dällikon (Dorf)","state":"Zurich","population":1583,"lat":47.43983,"lng":8.43813},{"city":"Melide","state":"Ticino","population":1577,"lat":45.95455,"lng":8.94725},{"city":"Riedholz","state":"Solothurn","population":1576,"lat":47.23158,"lng":7.56829},{"city":"Grolley","state":"Fribourg","population":1575,"lat":46.8336,"lng":7.07116},{"city":"Henggart","state":"Zurich","population":1574,"lat":47.56272,"lng":8.68215},{"city":"Arch","state":"Bern","population":1574,"lat":47.16533,"lng":7.43139},{"city":"Küsnacht / Dorf","state":"Zurich","population":1574,"lat":47.31783,"lng":8.58303},{"city":"Sellenbüren","state":"Zurich","population":1572,"lat":47.34361,"lng":8.48301},{"city":"Marsens","state":"Fribourg","population":1571,"lat":46.65644,"lng":7.05948},{"city":"Heimiswil","state":"Bern","population":1570,"lat":47.06755,"lng":7.66665},{"city":"Thalwil / Berg","state":"Zurich","population":1568,"lat":47.29178,"lng":8.55602},{"city":"Marthalen","state":"Zurich","population":1567,"lat":47.62913,"lng":8.65326},{"city":"Giffers","state":"Fribourg","population":1566,"lat":46.7623,"lng":7.20845},{"city":"Grüt","state":"Zurich","population":1565,"lat":47.31151,"lng":8.78339},{"city":"Nänikon","state":"Zurich","population":1560,"lat":47.36975,"lng":8.68894},{"city":"Airolo","state":"Ticino","population":1559,"lat":46.52855,"lng":8.61189},{"city":"Evolène","state":"Valais","population":1557,"lat":46.11422,"lng":7.49407},{"city":"Cornaux","state":"Neuchâtel","population":1557,"lat":47.0396,"lng":7.01872},{"city":"Amden","state":"Saint Gallen","population":1557,"lat":47.14888,"lng":9.14233},{"city":"Chippis","state":"Valais","population":1556,"lat":46.2802,"lng":7.53962},{"city":"Brütten","state":"Zurich","population":1556,"lat":47.47318,"lng":8.67569},{"city":"Auvernier","state":"Neuchâtel","population":1555,"lat":46.97545,"lng":6.87903},{"city":"Adliswil / Hündli-Zopf","state":"Zurich","population":1553,"lat":47.31637,"lng":8.51888},{"city":"Glattbrugg / Wydacker/Bettacker/Lättenwiesen","state":"Zurich","population":1551,"lat":47.42908,"lng":8.56657},{"city":"Kallnach","state":"Bern","population":1545,"lat":47.02032,"lng":7.23545},{"city":"Oberwinterthur (Kreis 2) / Hegi","state":"Zurich","population":1539,"lat":47.50716,"lng":8.77057},{"city":"Magadino","state":"Ticino","population":1538,"lat":46.14892,"lng":8.8561},{"city":"Arisdorf","state":"Basel-Landschaft","population":1538,"lat":47.51323,"lng":7.76515},{"city":"Wädenswil / Boller-Giessen","state":"Zurich","population":1538,"lat":47.22115,"lng":8.68385},{"city":"Zäziwil","state":"Bern","population":1535,"lat":46.90196,"lng":7.66185},{"city":"Tesserete","state":"Ticino","population":1533,"lat":46.06813,"lng":8.96501},{"city":"Trubschachen","state":"Bern","population":1530,"lat":46.92228,"lng":7.8452},{"city":"Lodrino","state":"Ticino","population":1526,"lat":46.30016,"lng":8.97986},{"city":"Fulenbach","state":"Solothurn","population":1526,"lat":47.27103,"lng":7.83136},{"city":"Wagenhausen","state":"Thurgau","population":1524,"lat":47.66003,"lng":8.84782},{"city":"Ligornetto","state":"Ticino","population":1524,"lat":45.86161,"lng":8.95166},{"city":"Cugy","state":"Fribourg","population":1523,"lat":46.81479,"lng":6.88888},{"city":"Seedorf","state":"Uri","population":1522,"lat":46.88199,"lng":8.61611},{"city":"Froideville","state":"Vaud","population":1518,"lat":46.60123,"lng":6.68085},{"city":"Schwellbrunn","state":"Appenzell Ausserrhoden","population":1517,"lat":47.35255,"lng":9.24894},{"city":"Attinghausen","state":"Uri","population":1515,"lat":46.86255,"lng":8.63036},{"city":"Faido","state":"Ticino","population":1512,"lat":46.477,"lng":8.80125},{"city":"Reigoldswil","state":"Basel-Landschaft","population":1509,"lat":47.39824,"lng":7.68718},{"city":"Eschenz","state":"Thurgau","population":1508,"lat":47.64793,"lng":8.87472},{"city":"Courfaivre","state":"Jura","population":1508,"lat":47.33461,"lng":7.28186},{"city":"Ersigen","state":"Bern","population":1507,"lat":47.09368,"lng":7.59507},{"city":"Trub","state":"Bern","population":1503,"lat":46.94168,"lng":7.87996},{"city":"Corgémont","state":"Bern","population":1503,"lat":47.19457,"lng":7.14517},{"city":"Hittnau / Hittnau (Dorf)","state":"Zurich","population":1502,"lat":47.36334,"lng":8.82418},{"city":"Genolier","state":"Vaud","population":1498,"lat":46.43537,"lng":6.21809},{"city":"Buchholterberg","state":"Bern","population":1498,"lat":46.81351,"lng":7.67463},{"city":"Vitznau","state":"Lucerne","population":1496,"lat":47.01014,"lng":8.4842},{"city":"Adliswil / Sood","state":"Zurich","population":1494,"lat":47.3187,"lng":8.52425},{"city":"Brislach","state":"Basel-Landschaft","population":1493,"lat":47.41763,"lng":7.5434},{"city":"Uttwil","state":"Thurgau","population":1492,"lat":47.5844,"lng":9.34101},{"city":"Bäch","state":"Schwyz","population":1479,"lat":47.20388,"lng":8.73224},{"city":"Oberengstringen / Sonnenberg","state":"Zurich","population":1477,"lat":47.41211,"lng":8.46055},{"city":"Lütisburg","state":"Saint Gallen","population":1476,"lat":47.39451,"lng":9.08312},{"city":"Stadt Winterthur (Kreis 1) / Brühlberg","state":"Zurich","population":1476,"lat":47.49764,"lng":8.71272},{"city":"Töss (Kreis 4) / Vorder-Dättnau","state":"Zurich","population":1476,"lat":47.48135,"lng":8.69855},{"city":"Villnachern","state":"Aargau","population":1473,"lat":47.47098,"lng":8.15975},{"city":"Dachsen","state":"Zurich","population":1470,"lat":47.66515,"lng":8.6179},{"city":"Erlenbach / rechts des Dorfbachs oberhalb Bahnlinie","state":"Zurich","population":1470,"lat":47.30658,"lng":8.60271},{"city":"Montagny","state":"Vaud","population":1467,"lat":46.79289,"lng":6.61222},{"city":"Melchnau","state":"Bern","population":1467,"lat":47.18213,"lng":7.85128},{"city":"Embrach / Kellersacker","state":"Zurich","population":1467,"lat":47.51455,"lng":8.59146},{"city":"Les Geneveys-sur-Coffrane","state":"Neuchâtel","population":1458,"lat":47.01528,"lng":6.8513},{"city":"Gimel","state":"Vaud","population":1454,"lat":46.50945,"lng":6.30736},{"city":"Krummenau","state":"Saint Gallen","population":1453,"lat":47.24755,"lng":9.17064},{"city":"Boltigen","state":"Bern","population":1443,"lat":46.62847,"lng":7.39054},{"city":"Hochfelden","state":"Zurich","population":1442,"lat":47.52262,"lng":8.51564},{"city":"Visperterminen","state":"Valais","population":1440,"lat":46.25899,"lng":7.90192},{"city":"Oberbipp","state":"Bern","population":1440,"lat":47.2607,"lng":7.66359},{"city":"Wettswil / Ausser-Dorf","state":"Zurich","population":1438,"lat":47.33197,"lng":8.47732},{"city":"Steinmaur","state":"Zurich","population":1438,"lat":47.4971,"lng":8.45216},{"city":"Boniswil","state":"Aargau","population":1436,"lat":47.31725,"lng":8.18963},{"city":"Neerach","state":"Zurich","population":1435,"lat":47.51096,"lng":8.47099},{"city":"Bülach / Soligänter","state":"Zurich","population":1434,"lat":47.52632,"lng":8.54106},{"city":"Uster / Nossikon","state":"Zurich","population":1433,"lat":47.34088,"lng":8.72555},{"city":"Bière","state":"Vaud","population":1428,"lat":46.53761,"lng":6.33362},{"city":"Leukerbad","state":"Valais","population":1427,"lat":46.37943,"lng":7.62687},{"city":"Mumpf","state":"Aargau","population":1425,"lat":47.54563,"lng":7.92123},{"city":"Jongny","state":"Vaud","population":1423,"lat":46.47883,"lng":6.84114},{"city":"Seuzach / Seuzach (Dorf)","state":"Zurich","population":1419,"lat":47.53545,"lng":8.73728},{"city":"Vex","state":"Valais","population":1418,"lat":46.21239,"lng":7.39826},{"city":"Niederbüren","state":"Saint Gallen","population":1415,"lat":47.46547,"lng":9.20568},{"city":"Eriswil","state":"Bern","population":1414,"lat":47.07816,"lng":7.85149},{"city":"Bowil","state":"Bern","population":1414,"lat":46.89304,"lng":7.69757},{"city":"Seltisberg","state":"Basel-Landschaft","population":1412,"lat":47.46249,"lng":7.72039},{"city":"Adliswil / Oberleimbach","state":"Zurich","population":1411,"lat":47.3202,"lng":8.51508},{"city":"Gockhausen","state":"Zurich","population":1411,"lat":47.38098,"lng":8.59978},{"city":"Wädenswil / Hangenmoos","state":"Zurich","population":1407,"lat":47.23367,"lng":8.65251},{"city":"Homburg","state":"Thurgau","population":1406,"lat":47.63469,"lng":9.00756},{"city":"Gonten","state":"Appenzell Innerrhoden","population":1406,"lat":47.32725,"lng":9.34705},{"city":"Oberglatt / Oberglatt (Dorfkern)","state":"Zurich","population":1406,"lat":47.47596,"lng":8.51929},{"city":"La Roche","state":"Fribourg","population":1405,"lat":46.6962,"lng":7.13721},{"city":"Weesen","state":"Saint Gallen","population":1402,"lat":47.13447,"lng":9.09644},{"city":"Egliswil","state":"Aargau","population":1401,"lat":47.34922,"lng":8.18553},{"city":"Elsau-Räterschen","state":"Zurich","population":1395,"lat":47.50238,"lng":8.79874},{"city":"Luthern","state":"Lucerne","population":1392,"lat":47.05753,"lng":7.91692},{"city":"Kloten / Horainli","state":"Zurich","population":1391,"lat":47.45399,"lng":8.58306},{"city":"Dübendorf / Vogelquartier","state":"Zurich","population":1391,"lat":47.39502,"lng":8.61184},{"city":"Attiswil","state":"Bern","population":1389,"lat":47.24673,"lng":7.61353},{"city":"Kloten / Balsberg","state":"Zurich","population":1389,"lat":47.44233,"lng":8.57496},{"city":"Wila","state":"Zurich","population":1387,"lat":47.41928,"lng":8.84524},{"city":"Rohrbach","state":"Bern","population":1386,"lat":47.13521,"lng":7.81334},{"city":"Gampel","state":"Valais","population":1386,"lat":46.31599,"lng":7.7421},{"city":"Dietlikon / Eichwiesen","state":"Zurich","population":1386,"lat":47.4191,"lng":8.62078},{"city":"Wahlen","state":"Basel-Landschaft","population":1383,"lat":47.40226,"lng":7.51511},{"city":"Villigen","state":"Aargau","population":1381,"lat":47.52682,"lng":8.21486},{"city":"Hüttwilen","state":"Thurgau","population":1381,"lat":47.60674,"lng":8.87343},{"city":"Lyssach","state":"Bern","population":1375,"lat":47.06445,"lng":7.58228},{"city":"Veltheim","state":"Aargau","population":1374,"lat":47.43796,"lng":8.14722},{"city":"Altishofen","state":"Lucerne","population":1368,"lat":47.19916,"lng":7.96964},{"city":"Grächen","state":"Valais","population":1362,"lat":46.19529,"lng":7.83745},{"city":"Jussy","state":"Geneva","population":1356,"lat":46.2359,"lng":6.26701},{"city":"Sankt Stephan","state":"Bern","population":1352,"lat":46.50827,"lng":7.39559},{"city":"Paudex","state":"Vaud","population":1352,"lat":46.50548,"lng":6.66819},{"city":"Cadempino","state":"Ticino","population":1351,"lat":46.03672,"lng":8.93403},{"city":"Treyvaux","state":"Fribourg","population":1349,"lat":46.72796,"lng":7.13769},{"city":"Breíl","state":"Grisons","population":1344,"lat":46.76986,"lng":9.06036},{"city":"Péry","state":"Bern","population":1342,"lat":47.19398,"lng":7.24913},{"city":"Rodersdorf","state":"Solothurn","population":1338,"lat":47.48082,"lng":7.45767},{"city":"Güttingen","state":"Thurgau","population":1336,"lat":47.60349,"lng":9.28742},{"city":"Müntschemier","state":"Bern","population":1333,"lat":46.99548,"lng":7.14626},{"city":"Oberglatt / Bahnhofquartier","state":"Zurich","population":1333,"lat":47.47143,"lng":8.51289},{"city":"Hérémence","state":"Valais","population":1331,"lat":46.18032,"lng":7.40477},{"city":"Dardagny","state":"Geneva","population":1329,"lat":46.19564,"lng":5.99497},{"city":"Andelfingen","state":"Zurich","population":1328,"lat":47.59447,"lng":8.67826},{"city":"Court","state":"Bern","population":1328,"lat":47.23956,"lng":7.33655},{"city":"Schinznach Bad","state":"Aargau","population":1327,"lat":47.44992,"lng":8.16833},{"city":"Sâles","state":"Fribourg","population":1326,"lat":46.63473,"lng":6.97336},{"city":"Avry-sur-Matran","state":"Fribourg","population":1326,"lat":46.78753,"lng":7.06735},{"city":"Begnins","state":"Vaud","population":1323,"lat":46.44152,"lng":6.24762},{"city":"Seeberg","state":"Bern","population":1321,"lat":47.15585,"lng":7.66567},{"city":"Hadlikon","state":"Zurich","population":1321,"lat":47.2875,"lng":8.85719},{"city":"Oberhelfenschwil","state":"Saint Gallen","population":1318,"lat":47.35673,"lng":9.11076},{"city":"Ramsen","state":"Schaffhausen","population":1316,"lat":47.70797,"lng":8.80949},{"city":"Perroy","state":"Vaud","population":1315,"lat":46.4669,"lng":6.35349},{"city":"Linden","state":"Bern","population":1315,"lat":46.8469,"lng":7.67831},{"city":"Schönenbuch","state":"Basel-Landschaft","population":1313,"lat":47.53853,"lng":7.50572},{"city":"Bäretswil","state":"Zurich","population":1313,"lat":47.33709,"lng":8.85645},{"city":"Aristau","state":"Aargau","population":1313,"lat":47.28692,"lng":8.36356},{"city":"Dietikon / Guggenbühl","state":"Zurich","population":1312,"lat":47.40009,"lng":8.40818},{"city":"Bellmund","state":"Bern","population":1311,"lat":47.10852,"lng":7.24608},{"city":"Ferenbalm","state":"Bern","population":1310,"lat":46.9488,"lng":7.21124},{"city":"Boncourt","state":"Jura","population":1304,"lat":47.49493,"lng":7.01297},