{"timezone":"Europe/Belgrade","countries":{"Kosovo":[{"city":"Pristina","state":"Pristina","population":550000,"lat":42.67272,"lng":21.16688},{"city":"Prizren","state":"Prizren","population":171464,"lat":42.21389,"lng":20.73972},{"city":"Mitrovicë","state":"Mitrovica","population":107045,"lat":42.88333,"lng":20.86667},{"city":"Gjakovë","state":"Gjakova","population":94158,"lat":42.38028,"lng":20.43083},{"city":"Suva Reka","state":"Prizren","population":72229,"lat":42.35861,"lng":20.825},{"city":"Ferizaj","state":"Ferizaj","population":59504,"lat":42.37056,"lng":21.15528},{"city":"Glogovac","state":"Pristina","population":58579,"lat":42.62833,"lng":20.89389},{"city":"Gjilan","state":"Gjilan","population":51912,"lat":42.46045,"lng":21.46986},{"city":"Deçan","state":"Gjakova","population":50500,"lat":42.54018,"lng":20.28793},{"city":"Pejë","state":"Pec","population":48962,"lat":42.65913,"lng":20.28828},{"city":"Vitina","state":"Gjilan","population":46959,"lat":42.32139,"lng":21.35833},{"city":"Istok","state":"Pec","population":40000,"lat":42.78083,"lng":20.4875},{"city":"Shtime","state":"Ferizaj","population":35000,"lat":42.43306,"lng":21.03972},{"city":"Podujeva","state":"Pristina","population":35000,"lat":42.91056,"lng":21.19306},{"city":"Dragash","state":"Prizren","population":35000,"lat":42.0265,"lng":20.65333},{"city":"Vushtrri","state":"Mitrovica","population":30651,"lat":42.82306,"lng":20.9675},{"city":"Orahovac","state":"Gjakova","population":22049,"lat":42.39944,"lng":20.65472},{"city":"Llazicë","state":"Prizren","population":19863,"lat":42.55528,"lng":20.76333},{"city":"Leposaviq","state":"Mitrovica","population":19000,"lat":43.10389,"lng":20.80278},{"city":"Zvečan","state":"Mitrovica","population":17000,"lat":42.9075,"lng":20.84028},{"city":"Kosovo Polje","state":"Pristina","population":16154,"lat":42.66394,"lng":21.09611},{"city":"Zubin Potok","state":"Mitrovica","population":14900,"lat":42.91444,"lng":20.68972},{"city":"Obiliq","state":"Pristina","population":11612,"lat":42.68694,"lng":21.07028},{"city":"Kačanik","state":"Ferizaj","population":9800,"lat":42.23194,"lng":21.25944},{"city":"Hani i Elezit","state":"Ferizaj","population":9389,"lat":42.15,"lng":21.29667},{"city":"Kamenica","state":"Gjilan","population":9312,"lat":42.57806,"lng":21.58028},{"city":"Lipljan","state":"Pristina","population":9047,"lat":42.52167,"lng":21.12583},{"city":"Klina","state":"Pec","population":8050,"lat":42.62167,"lng":20.57778},{"city":"Štrpce","state":"Ferizaj","population":6913,"lat":42.23944,"lng":21.02722},{"city":"Novo Brdo","state":"Pristina","population":6720,"lat":42.6159,"lng":21.43405},{"city":"Strellc i Epërm","state":"Gjakova","population":6100,"lat":42.57843,"lng":20.29398},{"city":"Mamuša","state":"Prizren","population":5507,"lat":42.33083,"lng":20.72694},{"city":"Isniq","state":"Gjakova","population":5500,"lat":42.5575,"lng":20.30278},{"city":"Srbica","state":"Mitrovica","population":5089,"lat":42.74667,"lng":20.78861},{"city":"Ranilug","state":"Gjilan","population":3785,"lat":42.49222,"lng":21.59889},{"city":"Strellc i Ulët","state":"Gjakova","population":2850,"lat":42.58063,"lng":20.31619},{"city":"Bradash","state":"Pristina","population":2567,"lat":42.94028,"lng":21.13806},{"city":"Klokot","state":"Gjilan","population":2551,"lat":42.37139,"lng":21.37444},{"city":"Prilep","state":"Gjakova","population":2500,"lat":42.5075,"lng":20.31778},{"city":"Mališevo","state":"Prizren","population":2300,"lat":42.48222,"lng":20.74583},{"city":"Irzniq","state":"Gjakova","population":2200,"lat":42.52,"lng":20.34722},{"city":"Gllogjan","state":"Gjakova","population":2000,"lat":42.50722,"lng":20.36278},{"city":"Dranoc","state":"Gjakova","population":2000,"lat":42.51556,"lng":20.29222},{"city":"Peqan","state":"Prizren","population":1883,"lat":42.38361,"lng":20.82194},{"city":"Partesh","state":"Gjilan","population":1787,"lat":42.40194,"lng":21.43361},{"city":"Budakovo","state":"Prizren","population":1576,"lat":42.355,"lng":20.925},{"city":"Leshan","state":"Prizren","population":1575,"lat":42.32778,"lng":20.78111},{"city":"Gjinoc","state":"Prizren","population":1571,"lat":42.31833,"lng":20.81861},{"city":"Lumbardhi","state":"Gjakova","population":1500,"lat":42.54667,"lng":20.34667},{"city":"Lluka e Eperme","state":"Gjakova","population":1500,"lat":42.545,"lng":20.30778},{"city":"Pagaruša","state":"Prizren","population":1374,"lat":42.42,"lng":20.74222},{"city":"Papraqan","state":"Gjakova","population":1288,"lat":42.55278,"lng":20.33111},{"city":"Lëbushë","state":"Gjakova","population":1250,"lat":42.56306,"lng":20.29083},{"city":"Kosuriq","state":"Pec","population":1200,"lat":42.57028,"lng":20.46472},{"city":"Nishor","state":"Prizren","population":1154,"lat":42.42389,"lng":20.80167},{"city":"Dubova (Driloni)","state":"Pec","population":1050,"lat":42.71194,"lng":20.36972},{"city":"Lloqan","state":"Gjakova","population":1050,"lat":42.52444,"lng":20.28083},{"city":"Pasjane","state":"Gjilan","population":1000,"lat":42.40694,"lng":21.49556},{"city":"Gračanica","state":"Pristina","population":1000,"lat":42.60111,"lng":21.19583},{"city":"Lybeniq","state":"Pec","population":970,"lat":42.59778,"lng":20.29139},{"city":"Buqan","state":"Pec","population":800,"lat":42.55806,"lng":20.45278},{"city":"Slup","state":"Gjakova","population":700,"lat":42.50889,"lng":20.28194},{"city":"Pozhar","state":"Gjakova","population":700,"lat":42.53722,"lng":20.35111},{"city":"Lluka e Poshtme","state":"Gjakova","population":700,"lat":42.54583,"lng":20.33556},{"city":"Shaptej","state":"Gjakova","population":650,"lat":42.49861,"lng":20.37889},{"city":"Glanica","state":"Pristina","population":243,"lat":42.54933,"lng":21.06336},{"city":"Junik","state":"Gjakova","population":4,"lat":42.47583,"lng":20.27722}],"Serbia":[{"city":"Belgrade","state":"Central Serbia","population":1273651,"lat":44.80401,"lng":20.46513},{"city":"Niš","state":"Central Serbia","population":250000,"lat":43.32472,"lng":21.90333},{"city":"Novi Sad","state":"Vojvodina","population":215400,"lat":45.25167,"lng":19.83694},{"city":"Zemun","state":"Central Serbia","population":155591,"lat":44.8458,"lng":20.40116},{"city":"Kragujevac","state":"Central Serbia","population":147473,"lat":44.01667,"lng":20.91667},{"city":"Čačak","state":"Central Serbia","population":117072,"lat":43.89139,"lng":20.34972},{"city":"Subotica","state":"Vojvodina","population":100000,"lat":46.1,"lng":19.66667},{"city":"Leskovac","state":"Central Serbia","population":94758,"lat":42.99806,"lng":21.94611},{"city":"Novi Pazar","state":"Central Serbia","population":85996,"lat":43.13667,"lng":20.51222},{"city":"Kraljevo","state":"Central Serbia","population":82846,"lat":43.72583,"lng":20.68944},{"city":"Zrenjanin","state":"Vojvodina","population":79773,"lat":45.38361,"lng":20.38194},{"city":"Pančevo","state":"Vojvodina","population":76654,"lat":44.87177,"lng":20.64167},{"city":"Kruševac","state":"Central Serbia","population":75256,"lat":43.58,"lng":21.33389},{"city":"Užice","state":"Central Serbia","population":63577,"lat":43.85861,"lng":19.84878},{"city":"Smederevo","state":"Central Serbia","population":62000,"lat":44.66436,"lng":20.92763},{"city":"Valjevo","state":"Central Serbia","population":61035,"lat":44.27513,"lng":19.89821},{"city":"Vranje","state":"Central Serbia","population":56199,"lat":42.55139,"lng":21.90028},{"city":"Šabac","state":"Central Serbia","population":55114,"lat":44.74667,"lng":19.69},{"city":"Zaječar","state":"Central Serbia","population":49800,"lat":43.90358,"lng":22.26405},{"city":"Trstenik","state":"Central Serbia","population":49043,"lat":43.61694,"lng":21.0025},{"city":"Sombor","state":"Vojvodina","population":48454,"lat":45.77417,"lng":19.11222},{"city":"Kikinda","state":"Vojvodina","population":41935,"lat":45.82972,"lng":20.46528},{"city":"Požarevac","state":"Central Serbia","population":41736,"lat":44.62133,"lng":21.18782},{"city":"Pirot","state":"Central Serbia","population":40678,"lat":43.15306,"lng":22.58611},{"city":"Bor","state":"Central Serbia","population":39387,"lat":44.07488,"lng":22.09591},{"city":"Sremska Mitrovica","state":"Vojvodina","population":39084,"lat":44.97639,"lng":19.61222},{"city":"Vršac","state":"Vojvodina","population":36300,"lat":45.11667,"lng":21.30361},{"city":"Jagodina","state":"Central Serbia","population":35589,"lat":43.97713,"lng":21.26121},{"city":"Ruma","state":"Vojvodina","population":32229,"lat":45.00806,"lng":19.82222},{"city":"Bačka Palanka","state":"Vojvodina","population":29449,"lat":45.24966,"lng":19.39664},{"city":"Inđija","state":"Vojvodina","population":28450,"lat":45.04816,"lng":20.08165},{"city":"Prokuplje","state":"Central Serbia","population":27673,"lat":43.23417,"lng":21.58806},{"city":"Smederevska Palanka","state":"Central Serbia","population":27000,"lat":44.36548,"lng":20.95885},{"city":"Vrbas","state":"Vojvodina","population":25907,"lat":45.57139,"lng":19.64083},{"city":"Bečej","state":"Vojvodina","population":25774,"lat":45.61632,"lng":20.03331},{"city":"Knjazevac","state":"Central Serbia","population":25000,"lat":43.56634,"lng":22.25701},{"city":"Aranđelovac","state":"Central Serbia","population":24309,"lat":44.30694,"lng":20.56},{"city":"Gornji Milanovac","state":"Central Serbia","population":23982,"lat":44.02603,"lng":20.46152},{"city":"Lazarevac","state":"Central Serbia","population":23551,"lat":44.38534,"lng":20.2557},{"city":"Sremčica","state":"Central Serbia","population":23000,"lat":44.67653,"lng":20.39232},{"city":"Ćuprija","state":"Central Serbia","population":20585,"lat":43.9275,"lng":21.37},{"city":"Senta","state":"Vojvodina","population":20302,"lat":45.9275,"lng":20.07722},{"city":"Loznica","state":"Central Serbia","population":19515,"lat":44.53118,"lng":19.24267},{"city":"Apatin","state":"Vojvodina","population":18320,"lat":45.6726,"lng":18.978},{"city":"Futog","state":"Vojvodina","population":18018,"lat":45.23874,"lng":19.71416},{"city":"Negotin","state":"Central Serbia","population":17612,"lat":44.22639,"lng":22.53083},{"city":"Obrenovac","state":"Central Serbia","population":16821,"lat":44.65486,"lng":20.20017},{"city":"Stara Pazova","state":"Vojvodina","population":16217,"lat":44.985,"lng":20.16083},{"city":"Bačka Topola","state":"Vojvodina","population":16154,"lat":45.81516,"lng":19.6318},{"city":"Nova Pazova","state":"Vojvodina","population":15488,"lat":44.94366,"lng":20.21931},{"city":"Kovin","state":"Vojvodina","population":14250,"lat":44.7475,"lng":20.97611},{"city":"Sremska Kamenica","state":"Vojvodina","population":14205,"lat":45.22334,"lng":19.84263},{"city":"Petrovaradin","state":"Vojvodina","population":13917,"lat":45.24667,"lng":19.87944},{"city":"Surčin","state":"Central Serbia","population":12575,"lat":44.79306,"lng":20.28028},{"city":"Kać","state":"Vojvodina","population":11067,"lat":45.30407,"lng":19.94299},{"city":"Ripanj","state":"Central Serbia","population":11000,"lat":44.63864,"lng":20.52136},{"city":"Bela Crkva","state":"Vojvodina","population":10675,"lat":44.8975,"lng":21.41722},{"city":"Veternik","state":"Vojvodina","population":10226,"lat":45.25446,"lng":19.7588},{"city":"Vrnjačka Banja","state":"Central Serbia","population":10207,"lat":43.62725,"lng":20.89634},{"city":"Kanjiža","state":"Vojvodina","population":10200,"lat":46.06667,"lng":20.05},{"city":"Majdanpek","state":"Central Serbia","population":10071,"lat":44.42771,"lng":21.94596},{"city":"Čurug","state":"Vojvodina","population":9231,"lat":45.47221,"lng":20.06861},{"city":"Vrčin","state":"Central Serbia","population":9088,"lat":44.66845,"lng":20.59325},{"city":"Bačko Petrovo Selo","state":"Vojvodina","population":8959,"lat":45.70681,"lng":20.07928},{"city":"Sremski Karlovci","state":"Vojvodina","population":8839,"lat":45.20285,"lng":19.93373},{"city":"Bajina Bašta","state":"Central Serbia","population":8533,"lat":43.97083,"lng":19.5675},{"city":"Crvenka","state":"Vojvodina","population":8532,"lat":45.66098,"lng":19.45435},{"city":"Padinska Skela","state":"Central Serbia","population":8519,"lat":44.94291,"lng":20.42549},{"city":"Žabalj","state":"Vojvodina","population":8503,"lat":45.37222,"lng":20.06389},{"city":"Novi Kneževac","state":"Vojvodina","population":8166,"lat":46.05,"lng":20.1},{"city":"Mol","state":"Vojvodina","population":7950,"lat":45.76457,"lng":20.13286},{"city":"Novo Miloševo","state":"Vojvodina","population":7805,"lat":45.71916,"lng":20.30364},{"city":"Melenci","state":"Vojvodina","population":7685,"lat":45.5168,"lng":20.31961},{"city":"Dobanovci","state":"Central Serbia","population":7592,"lat":44.82631,"lng":20.22487},{"city":"Lapovo","state":"Central Serbia","population":7422,"lat":44.18424,"lng":21.09727},{"city":"Kovačica","state":"Vojvodina","population":7357,"lat":45.11167,"lng":20.62139},{"city":"Bački Petrovac","state":"Vojvodina","population":7229,"lat":45.36056,"lng":19.59167},{"city":"Bogatić","state":"Central Serbia","population":7225,"lat":44.8375,"lng":19.48056},{"city":"Arilje","state":"Central Serbia","population":6762,"lat":43.75306,"lng":20.09556},{"city":"Starčevo","state":"Vojvodina","population":6661,"lat":44.80729,"lng":20.70546},{"city":"Vinča","state":"Central Serbia","population":6580,"lat":44.75907,"lng":20.61747},{"city":"Mokrin","state":"Vojvodina","population":6567,"lat":45.93362,"lng":20.41215},{"city":"Debeljača","state":"Vojvodina","population":6413,"lat":45.0707,"lng":20.60153},{"city":"Beška","state":"Vojvodina","population":6377,"lat":45.13092,"lng":20.06698},{"city":"Padina","state":"Vojvodina","population":6367,"lat":45.11988,"lng":20.7286},{"city":"Banatski Karlovac","state":"Vojvodina","population":6319,"lat":45.04987,"lng":21.018},{"city":"Titel","state":"Vojvodina","population":6227,"lat":45.20611,"lng":20.29444},{"city":"Paraćin","state":"Central Serbia","population":6000,"lat":43.86083,"lng":21.40778},{"city":"Filmski Grad","state":"Central Serbia","population":6000,"lat":44.75667,"lng":20.43778},{"city":"Sonta","state":"Vojvodina","population":5991,"lat":45.59427,"lng":19.09719},{"city":"Badovinci","state":"Central Serbia","population":5879,"lat":44.78534,"lng":19.37146},{"city":"Bačko Gradište","state":"Vojvodina","population":5764,"lat":45.53271,"lng":20.03082},{"city":"Umka","state":"Central Serbia","population":5618,"lat":44.67806,"lng":20.30472},{"city":"Stanišić","state":"Vojvodina","population":5476,"lat":45.93895,"lng":19.16709},{"city":"Palić","state":"Vojvodina","population":5476,"lat":46.10646,"lng":19.75647},{"city":"Srpska Crnja","state":"Vojvodina","population":5467,"lat":45.72538,"lng":20.69008},{"city":"Čoka","state":"Vojvodina","population":5414,"lat":45.9425,"lng":20.14333},{"city":"Crepaja","state":"Vojvodina","population":5369,"lat":45.00984,"lng":20.63702},{"city":"Zvečka","state":"Central Serbia","population":5321,"lat":44.64025,"lng":20.16432},{"city":"Ečka","state":"Vojvodina","population":5293,"lat":45.32328,"lng":20.44294},{"city":"Kovilj","state":"Vojvodina","population":5279,"lat":45.23422,"lng":20.02327},{"city":"Vladimirovac","state":"Vojvodina","population":5106,"lat":45.03122,"lng":20.86566},{"city":"Bavanište","state":"Vojvodina","population":5082,"lat":44.81907,"lng":20.87654},{"city":"Barič","state":"Central Serbia","population":5033,"lat":44.6507,"lng":20.25941},{"city":"Prigrevica","state":"Vojvodina","population":5026,"lat":45.67636,"lng":19.08809},{"city":"Čelarevo","state":"Vojvodina","population":5017,"lat":45.26999,"lng":19.52484},{"city":"Majur","state":"Central Serbia","population":5000,"lat":44.77105,"lng":19.65512},{"city":"Elemir","state":"Vojvodina","population":4998,"lat":45.44263,"lng":20.30003},{"city":"Prnjavor","state":"Central Serbia","population":4892,"lat":44.70061,"lng":19.38695},{"city":"Irig","state":"Vojvodina","population":4848,"lat":45.0523,"lng":19.84448},{"city":"Rušanj","state":"Central Serbia","population":4769,"lat":44.68477,"lng":20.44993},{"city":"Opovo","state":"Vojvodina","population":4769,"lat":45.05222,"lng":20.43028},{"city":"Lešnica","state":"Central Serbia","population":4678,"lat":44.6525,"lng":19.31},{"city":"Ðurđevo","state":"Vojvodina","population":4668,"lat":45.32591,"lng":20.06532},{"city":"Jakovo","state":"Central Serbia","population":4656,"lat":44.75366,"lng":20.26008},{"city":"Ruski Krstur","state":"Vojvodina","population":4585,"lat":45.56392,"lng":19.42002},{"city":"Zmajevo","state":"Vojvodina","population":4547,"lat":45.45408,"lng":19.6905},{"city":"Golubinci","state":"Vojvodina","population":4510,"lat":44.98533,"lng":20.06339},{"city":"Rumenka","state":"Vojvodina","population":4367,"lat":45.294,"lng":19.74306},{"city":"Vojka","state":"Vojvodina","population":4343,"lat":44.93713,"lng":20.15236},{"city":"Kumane","state":"Vojvodina","population":4321,"lat":45.53946,"lng":20.22902},{"city":"Torak","state":"Vojvodina","population":4289,"lat":45.50928,"lng":20.609},{"city":"Perlez","state":"Vojvodina","population":4283,"lat":45.20813,"lng":20.38197},{"city":"Plandište","state":"Vojvodina","population":4122,"lat":45.22722,"lng":21.12167},{"city":"Uljma","state":"Vojvodina","population":4115,"lat":45.04213,"lng":21.15393},{"city":"Ostružnica","state":"Central Serbia","population":4060,"lat":44.72769,"lng":20.31845},{"city":"Pocerski Pričinović","state":"Central Serbia","population":4018,"lat":44.72222,"lng":19.70722},{"city":"Novi Banovci","state":"Vojvodina","population":4007,"lat":44.95691,"lng":20.28076},{"city":"Boljevci","state":"Central Serbia","population":3990,"lat":44.72355,"lng":20.22348},{"city":"Feketić","state":"Vojvodina","population":3980,"lat":45.66431,"lng":19.69974},{"city":"Uzdin","state":"Vojvodina","population":3885,"lat":45.20512,"lng":20.62342},{"city":"Bašaid","state":"Vojvodina","population":3864,"lat":45.64102,"lng":20.41434},{"city":"Aradac","state":"Vojvodina","population":3825,"lat":45.38346,"lng":20.30137},{"city":"Alibunar","state":"Vojvodina","population":3803,"lat":45.08083,"lng":20.96583},{"city":"Krupanj","state":"Central Serbia","population":3779,"lat":44.36556,"lng":19.36194},{"city":"Vrdnik","state":"Vojvodina","population":3704,"lat":45.12174,"lng":19.79227},{"city":"Mačvanska Mitrovica","state":"Vojvodina","population":3661,"lat":44.96739,"lng":19.59314},{"city":"Rusko Selo","state":"Vojvodina","population":3657,"lat":45.76291,"lng":20.57117},{"city":"Klenje","state":"Central Serbia","population":3653,"lat":44.80794,"lng":19.43508},{"city":"Jaša Tomić","state":"Vojvodina","population":3625,"lat":45.44725,"lng":20.85546},{"city":"Ravno Selo","state":"Vojvodina","population":3574,"lat":45.44967,"lng":19.62097},{"city":"Dublje","state":"Central Serbia","population":3558,"lat":44.80117,"lng":19.50902},{"city":"Šajkaš","state":"Vojvodina","population":3541,"lat":45.27315,"lng":20.09051},{"city":"Lokve","state":"Vojvodina","population":3511,"lat":45.15198,"lng":21.03073},{"city":"Lazarevo","state":"Vojvodina","population":3480,"lat":45.38893,"lng":20.53999},{"city":"Padej","state":"Vojvodina","population":3465,"lat":45.82756,"lng":20.16279},{"city":"Osečina","state":"Central Serbia","population":3422,"lat":44.37306,"lng":19.60139},{"city":"Ratkovo","state":"Vojvodina","population":3411,"lat":45.45566,"lng":19.33728},{"city":"Ostojićevo","state":"Vojvodina","population":3395,"lat":45.88863,"lng":20.16642},{"city":"Stari Banovci","state":"Vojvodina","population":3393,"lat":44.9842,"lng":20.28382},{"city":"Klenak","state":"Vojvodina","population":3388,"lat":44.78846,"lng":19.71004},{"city":"Banatsko Veliko Selo","state":"Vojvodina","population":3332,"lat":45.81961,"lng":20.60772},{"city":"Lugavčina","state":"Central Serbia","population":3300,"lat":44.52314,"lng":21.07083},{"city":"Srpski Itebej","state":"Vojvodina","population":3281,"lat":45.56715,"lng":20.7135},{"city":"Ugrinovci","state":"Central Serbia","population":3278,"lat":44.87635,"lng":20.18763},{"city":"Lipolist","state":"Central Serbia","population":3212,"lat":44.69783,"lng":19.50101},{"city":"Novi Slankamen","state":"Vojvodina","population":3210,"lat":45.12554,"lng":20.23914},{"city":"Kulpin","state":"Vojvodina","population":3207,"lat":45.4024,"lng":19.58814},{"city":"Čenta","state":"Vojvodina","population":3192,"lat":45.10814,"lng":20.38947},{"city":"Riđica","state":"Vojvodina","population":3186,"lat":45.99088,"lng":19.10635},{"city":"Obrovac","state":"Vojvodina","population":3177,"lat":45.32106,"lng":19.35048},{"city":"Čajetina","state":"Central Serbia","population":3162,"lat":43.74977,"lng":19.71273},{"city":"Lovćenac","state":"Vojvodina","population":3161,"lat":45.6816,"lng":19.69205},{"city":"Putinci","state":"Vojvodina","population":3075,"lat":44.99259,"lng":19.97102},{"city":"Grabovac","state":"Central Serbia","population":3072,"lat":44.60049,"lng":20.08539},{"city":"Aleksandrovo","state":"Vojvodina","population":3061,"lat":45.63755,"lng":20.59288},{"city":"Žitište","state":"Vojvodina","population":3060,"lat":45.485,"lng":20.54972},{"city":"Novi Karlovci","state":"Vojvodina","population":3050,"lat":45.07636,"lng":20.17948},{"city":"Vranić","state":"Central Serbia","population":3044,"lat":44.60237,"lng":20.32872},{"city":"Ljig","state":"Central Serbia","population":2979,"lat":44.23007,"lng":20.23819},{"city":"Ralja","state":"Central Serbia","population":2933,"lat":44.57222,"lng":20.56222},{"city":"Stubline","state":"Central Serbia","population":2898,"lat":44.57476,"lng":20.13477},{"city":"Krčedin","state":"Vojvodina","population":2877,"lat":45.13871,"lng":20.13308},{"city":"Miratovac","state":"Central Serbia","population":2872,"lat":42.25846,"lng":21.66456},{"city":"Banatsko Karađorđevo","state":"Vojvodina","population":2855,"lat":45.58693,"lng":20.56421},{"city":"Hrtkovci","state":"Vojvodina","population":2855,"lat":44.88155,"lng":19.76374},{"city":"Samoljica","state":"Central Serbia","population":2852,"lat":42.38445,"lng":21.73708},{"city":"Sefkerin","state":"Vojvodina","population":2836,"lat":45.00501,"lng":20.48256},{"city":"Platičevo","state":"Vojvodina","population":2812,"lat":44.82213,"lng":19.79487},{"city":"Stepojevac","state":"Central Serbia","population":2773,"lat":44.51278,"lng":20.295},{"city":"Velika Moštanica","state":"Central Serbia","population":2751,"lat":44.66486,"lng":20.35395},{"city":"Nova Crnja","state":"Vojvodina","population":2739,"lat":45.66833,"lng":20.605},{"city":"Erdevik","state":"Vojvodina","population":2736,"lat":45.11721,"lng":19.40881},{"city":"Maglić","state":"Vojvodina","population":2733,"lat":45.36248,"lng":19.53211},{"city":"Sečanj","state":"Vojvodina","population":2718,"lat":45.36667,"lng":20.77222},{"city":"Ljubovija","state":"Central Serbia","population":2717,"lat":44.18944,"lng":19.37667},{"city":"Torda","state":"Vojvodina","population":2697,"lat":45.58423,"lng":20.459},{"city":"Kupusina","state":"Vojvodina","population":2694,"lat":45.73759,"lng":19.01082},{"city":"Novi Kozarci","state":"Vojvodina","population":2668,"lat":45.78241,"lng":20.62289},{"city":"Drenovac","state":"Central Serbia","population":2629,"lat":44.86649,"lng":19.70943},{"city":"Ritopek","state":"Central Serbia","population":2613,"lat":44.73849,"lng":20.65499},{"city":"Crna Bara","state":"Central Serbia","population":2606,"lat":44.87374,"lng":19.3948},{"city":"Nakovo","state":"Vojvodina","population":2604,"lat":45.87503,"lng":20.56709},{"city":"Botoš","state":"Vojvodina","population":2569,"lat":45.30837,"lng":20.63514},{"city":"Ovča","state":"Central Serbia","population":2567,"lat":44.88349,"lng":20.53336},{"city":"Gornji Breg","state":"Vojvodina","population":2536,"lat":45.91995,"lng":20.01766},{"city":"Glušci","state":"Central Serbia","population":2512,"lat":44.89021,"lng":19.54913},{"city":"Krajišnik","state":"Vojvodina","population":2495,"lat":45.45283,"lng":20.72976},{"city":"Bečmen","state":"Central Serbia","population":2494,"lat":44.77983,"lng":20.20577},{"city":"Gložan","state":"Vojvodina","population":2487,"lat":45.27954,"lng":19.56838},{"city":"Mošorin","state":"Vojvodina","population":2483,"lat":45.30196,"lng":20.16919},{"city":"Belegiš","state":"Vojvodina","population":2430,"lat":45.0192,"lng":20.33323},{"city":"Ilandža","state":"Vojvodina","population":2426,"lat":45.16897,"lng":20.92008},{"city":"Nikinci","state":"Vojvodina","population":2425,"lat":44.85017,"lng":19.82321},{"city":"Donji Milanovac","state":"Central Serbia","population":2410,"lat":44.46593,"lng":22.1517},{"city":"Novi Žednik","state":"Vojvodina","population":2381,"lat":45.94117,"lng":19.67141},{"city":"Šimanovci","state":"Vojvodina","population":2376,"lat":44.87393,"lng":20.09175},{"city":"Jadranska Lešnica","state":"Central Serbia","population":2355,"lat":44.58625,"lng":19.34701},{"city":"Sumulicë","state":"Central Serbia","population":2350,"lat":42.38682,"lng":21.734},{"city":"Biljača","state":"Central Serbia","population":2349,"lat":42.3543,"lng":21.7437},{"city":"Klek","state":"Vojvodina","population":2344,"lat":45.42254,"lng":20.48049},{"city":"Zlatibor","state":"Central Serbia","population":2344,"lat":43.729,"lng":19.70029},{"city":"Iđoš","state":"Vojvodina","population":2338,"lat":45.82648,"lng":20.31791},{"city":"Bogojevo","state":"Vojvodina","population":2312,"lat":45.53015,"lng":19.13022},{"city":"Jarkovac","state":"Vojvodina","population":2291,"lat":45.26985,"lng":20.76078},{"city":"Sakule","state":"Vojvodina","population":2280,"lat":45.14667,"lng":20.48619},{"city":"Boka","state":"Vojvodina","population":2246,"lat":45.3554,"lng":20.82987},{"city":"Lipnički Šor","state":"Central Serbia","population":2240,"lat":44.58058,"lng":19.26572},{"city":"Pećinci","state":"Vojvodina","population":2232,"lat":44.90889,"lng":19.96639},{"city":"Knićanin","state":"Vojvodina","population":2226,"lat":45.18675,"lng":20.319},{"city":"Ribari","state":"Central Serbia","population":2206,"lat":44.70961,"lng":19.42472},{"city":"Lukićevo","state":"Vojvodina","population":2186,"lat":45.33815,"lng":20.49895},{"city":"Štitar","state":"Central Serbia","population":2183,"lat":44.79415,"lng":19.59529},{"city":"Orlovat","state":"Vojvodina","population":2159,"lat":45.24171,"lng":20.58089},{"city":"Tomaševac","state":"Vojvodina","population":2149,"lat":45.26855,"lng":20.62272},{"city":"Sutjeska","state":"Vojvodina","population":2145,"lat":45.38312,"lng":20.6962},{"city":"Pavliš","state":"Vojvodina","population":2137,"lat":45.10569,"lng":21.23952},{"city":"Doroslovo","state":"Vojvodina","population":2131,"lat":45.60699,"lng":19.18868},{"city":"Čenej","state":"Vojvodina","population":2125,"lat":45.36826,"lng":19.80423},{"city":"Gakovo","state":"Vojvodina","population":2122,"lat":45.90078,"lng":19.06138},{"city":"Bočar","state":"Vojvodina","population":2095,"lat":45.76994,"lng":20.2839},{"city":"Izbište","state":"Vojvodina","population":2094,"lat":45.02253,"lng":21.18388},{"city":"Jarak","state":"Vojvodina","population":2092,"lat":44.91843,"lng":19.75477},{"city":"Despotovo","state":"Vojvodina","population":2077,"lat":45.45983,"lng":19.52653},{"city":"Vojvoda Stepa","state":"Vojvodina","population":2032,"lat":45.68537,"lng":20.65536},{"city":"Višnjićevo","state":"Vojvodina","population":2030,"lat":44.96731,"lng":19.28993},{"city":"Rajince","state":"Central Serbia","population":2020,"lat":42.3787,"lng":21.69591},{"city":"Dobrica","state":"Vojvodina","population":2006,"lat":45.21339,"lng":20.84995},{"city":"Kupinovo","state":"Vojvodina","population":2002,"lat":44.70708,"lng":20.04959},{"city":"Zuce","state":"Central Serbia","population":2001,"lat":44.69806,"lng":20.55524},{"city":"Stepanovićevo","state":"Vojvodina","population":1999,"lat":45.41369,"lng":19.7},{"city":"Buđanovci","state":"Vojvodina","population":1999,"lat":44.89388,"lng":19.86344},{"city":"Stajićevo","state":"Vojvodina","population":1993,"lat":45.29489,"lng":20.45845},{"city":"Banatski Despotovac","state":"Vojvodina","population":1993,"lat":45.36606,"lng":20.66407},{"city":"Šašinci","state":"Vojvodina","population":1983,"lat":44.96514,"lng":19.74151},{"city":"Jelenča","state":"Central Serbia","population":1950,"lat":44.727,"lng":19.735},{"city":"Stari Žednik","state":"Vojvodina","population":1947,"lat":45.94864,"lng":19.63029},{"city":"Jevremovac","state":"Central Serbia","population":1940,"lat":44.72172,"lng":19.66364},{"city":"Ledinci","state":"Vojvodina","population":1912,"lat":45.18697,"lng":19.80554},{"city":"Nikolinci","state":"Vojvodina","population":1905,"lat":45.05245,"lng":21.06695},{"city":"Draginje","state":"Central Serbia","population":1888,"lat":44.53302,"lng":19.7625},{"city":"Kolut","state":"Vojvodina","population":1886,"lat":45.89292,"lng":18.9276},{"city":"Salaš Noćajski","state":"Vojvodina","population":1876,"lat":44.94722,"lng":19.58611},{"city":"Radojevo","state":"Vojvodina","population":1872,"lat":45.74617,"lng":20.78917},{"city":"Vladimirci","state":"Central Serbia","population":1857,"lat":44.61472,"lng":19.78528},{"city":"Čortanovci","state":"Vojvodina","population":1853,"lat":45.1546,"lng":20.01851},{"city":"Preljina","state":"Central Serbia","population":1840,"lat":43.91454,"lng":20.40677},{"city":"Duboka","state":"Central Serbia","population":1804,"lat":44.52281,"lng":21.75987},{"city":"Belotić","state":"Central Serbia","population":1801,"lat":44.81782,"lng":19.54801},{"city":"Bački Breg","state":"Vojvodina","population":1770,"lat":45.92034,"lng":18.92944},{"city":"Seleuš","state":"Vojvodina","population":1765,"lat":45.1277,"lng":20.91461},{"city":"Belo Blato","state":"Vojvodina","population":1746,"lat":45.27278,"lng":20.375},{"city":"Prislonica","state":"Central Serbia","population":1735,"lat":43.95223,"lng":20.43521},{"city":"Banovo Polje","state":"Central Serbia","population":1732,"lat":44.9104,"lng":19.44916},{"city":"Veliko Središte","state":"Vojvodina","population":1698,"lat":45.17919,"lng":21.40353},{"city":"Donji Dobrić","state":"Central Serbia","population":1695,"lat":44.61183,"lng":19.33109},{"city":"Ravnje","state":"Vojvodina","population":1692,"lat":44.94326,"lng":19.4228},{"city":"Brdarica","state":"Central Serbia","population":1690,"lat":44.55376,"lng":19.7715},{"city":"Farkaždin","state":"Vojvodina","population":1662,"lat":45.19172,"lng":20.47239},{"city":"Samoš","state":"Vojvodina","population":1658,"lat":45.20255,"lng":20.77392},{"city":"Neuzina","state":"Vojvodina","population":1657,"lat":45.3446,"lng":20.71418},{"city":"Ravni Topolovac","state":"Vojvodina","population":1656,"lat":45.46082,"lng":20.56939},{"city":"Baranda","state":"Vojvodina","population":1656,"lat":45.08459,"lng":20.44264},{"city":"Sajan","state":"Vojvodina","population":1655,"lat":45.84227,"lng":20.27815},{"city":"Golubac","state":"Central Serbia","population":1655,"lat":44.65296,"lng":21.63199},{"city":"Međa","state":"Vojvodina","population":1636,"lat":45.53815,"lng":20.80677},{"city":"Velika Ivanča","state":"Central Serbia","population":1585,"lat":44.42639,"lng":20.58028},{"city":"Velika Greda","state":"Vojvodina","population":1585,"lat":45.24376,"lng":21.03498},{"city":"Sanad","state":"Vojvodina","population":1584,"lat":45.97596,"lng":20.10816},{"city":"Čestereg","state":"Vojvodina","population":1581,"lat":45.56361,"lng":20.53194},{"city":"Novi Itebej","state":"Vojvodina","population":1553,"lat":45.55918,"lng":20.7003},{"city":"Margita","state":"Vojvodina","population":1550,"lat":45.21598,"lng":21.17527},{"city":"Varna","state":"Central Serbia","population":1549,"lat":44.67914,"lng":19.6515},{"city":"Jarebice","state":"Central Serbia","population":1549,"lat":44.53995,"lng":19.42418},{"city":"Kisač","state":"Vojvodina","population":1545,"lat":45.35421,"lng":19.72975},{"city":"Radenka","state":"Central Serbia","population":1541,"lat":44.58345,"lng":21.76469},{"city":"Gornja Bukovica","state":"Central Serbia","population":1541,"lat":44.34233,"lng":19.78647},{"city":"Salaš Crnobarski","state":"Central Serbia","population":1538,"lat":44.82843,"lng":19.39437},{"city":"Zminjak","state":"Central Serbia","population":1536,"lat":44.75711,"lng":19.4707},{"city":"Hajdučica","state":"Vojvodina","population":1519,"lat":45.2501,"lng":20.96016},{"city":"Gardinovci","state":"Vojvodina","population":1515,"lat":45.20359,"lng":20.13558},{"city":"Lok","state":"Vojvodina","population":1509,"lat":45.21583,"lng":20.21222},{"city":"Grabovci","state":"Vojvodina","population":1480,"lat":44.76496,"lng":19.84489},{"city":"Brasina","state":"Central Serbia","population":1479,"lat":44.4652,"lng":19.15673},{"city":"Banatska Topola","state":"Vojvodina","population":1463,"lat":45.67248,"lng":20.4653},{"city":"Ševarice","state":"Central Serbia","population":1458,"lat":44.86704,"lng":19.66006},{"city":"Jermenovci","state":"Vojvodina","population":1454,"lat":45.18635,"lng":21.0455},{"city":"Novo Selo","state":"Central Serbia","population":1452,"lat":44.67041,"lng":19.34495},{"city":"Gudurica","state":"Vojvodina","population":1448,"lat":45.16816,"lng":21.44264},{"city":"Idvor","state":"Vojvodina","population":1442,"lat":45.18895,"lng":20.51442},{"city":"Osječenik","state":"Central Serbia","population":1430,"lat":43.14528,"lng":19.85889},{"city":"Progar","state":"Central Serbia","population":1428,"lat":44.71744,"lng":20.16047},{"city":"Metković","state":"Central Serbia","population":1419,"lat":44.85617,"lng":19.54654},{"city":"Mali Požarevac","state":"Central Serbia","population":1391,"lat":44.56327,"lng":20.65433},{"city":"Dobrić","state":"Central Serbia","population":1375,"lat":44.70224,"lng":19.57931},{"city":"Banatski Dvor","state":"Vojvodina","population":1374,"lat":45.51866,"lng":20.51146},{"city":"Janošik","state":"Vojvodina","population":1372,"lat":45.17141,"lng":21.00658},{"city":"Kamenica","state":"Central Serbia","population":1371,"lat":44.343,"lng":19.72333},{"city":"Vlajkovac","state":"Vojvodina","population":1356,"lat":45.07207,"lng":21.19945},{"city":"Stari Lec","state":"Vojvodina","population":1341,"lat":45.28401,"lng":20.96433},{"city":"Surduk","state":"Vojvodina","population":1332,"lat":45.07118,"lng":20.3251},{"city":"Taraš","state":"Vojvodina","population":1328,"lat":45.46737,"lng":20.19867},{"city":"Mihajlovo","state":"Vojvodina","population":1318,"lat":45.47085,"lng":20.41508},{"city":"Bosut","state":"Vojvodina","population":1311,"lat":44.92977,"lng":19.36086},{"city":"Krivaja","state":"Central Serbia","population":1296,"lat":44.55021,"lng":19.59153},{"city":"Tabanović","state":"Central Serbia","population":1286,"lat":44.82018,"lng":19.64128},{"city":"Žujince","state":"Central Serbia","population":1284,"lat":42.31568,"lng":21.70212},{"city":"Uzveće","state":"Central Serbia","population":1263,"lat":44.87861,"lng":19.60356},{"city":"Čokešina","state":"Central Serbia","population":1262,"lat":44.65319,"lng":19.39016},{"city":"Jazovo","state":"Vojvodina","population":1261,"lat":45.89876,"lng":20.2213},{"city":"Sokolovo Brdo","state":"Central Serbia","population":1261,"lat":43.13694,"lng":19.80556},{"city":"Ševica","state":"Central Serbia","population":1249,"lat":44.50883,"lng":21.72296},{"city":"Borča","state":"Central Serbia","population":1246,"lat":44.86969,"lng":20.45413},{"city":"Sinošević","state":"Central Serbia","population":1246,"lat":44.61503,"lng":19.63601},{"city":"Joševa","state":"Central Serbia","population":1228,"lat":44.58772,"lng":19.40967},{"city":"Petkovica","state":"Central Serbia","population":1227,"lat":44.66627,"lng":19.43923},{"city":"Mala Ivanča","state":"Central Serbia","population":1222,"lat":44.58961,"lng":20.61634},{"city":"Tršić","state":"Central Serbia","population":1214,"lat":44.49502,"lng":19.2649},{"city":"Konak","state":"Vojvodina","population":1211,"lat":45.31575,"lng":20.91468},{"city":"Rumska","state":"Central Serbia","population":1208,"lat":44.57261,"lng":19.58988},{"city":"Adorjan","state":"Vojvodina","population":1203,"lat":46.00333,"lng":20.04007},{"city":"Rudnik","state":"Central Serbia","population":1201,"lat":44.13982,"lng":20.49398},{"city":"Kozjak","state":"Central Serbia","population":1201,"lat":44.58727,"lng":19.28412},{"city":"Lagja e Poshtme","state":"Central Serbia","population":1200,"lat":42.38853,"lng":21.72971},{"city":"Ljukovo","state":"Vojvodina","population":1191,"lat":45.02604,"lng":20.02737},{"city":"Bogosavac","state":"Central Serbia","population":1191,"lat":44.71799,"lng":19.59533},{"city":"Kuštilj","state":"Vojvodina","population":1189,"lat":45.03487,"lng":21.37989},{"city":"Kozjak","state":"Vojvodina","population":1170,"lat":45.18264,"lng":20.86381},{"city":"Bukor","state":"Central Serbia","population":1167,"lat":44.49523,"lng":19.57116},{"city":"Hetin","state":"Vojvodina","population":1139,"lat":45.66202,"lng":20.79138},{"city":"Mala Moštanica","state":"Central Serbia","population":1125,"lat":44.63834,"lng":20.306},{"city":"Jajinci","state":"Central Serbia","population":1105,"lat":44.74061,"lng":20.48634},{"city":"Toba","state":"Vojvodina","population":1099,"lat":45.68943,"lng":20.55714},{"city":"Vilovo","state":"Vojvodina","population":1089,"lat":45.24859,"lng":20.15521},{"city":"Ðurići","state":"Central Serbia","population":1081,"lat":43.84678,"lng":19.40935},{"city":"Radovnica","state":"Central Serbia","population":1062,"lat":42.43364,"lng":22.22861},{"city":"Barice","state":"Vojvodina","population":1044,"lat":45.18189,"lng":21.08279},{"city":"Radenković","state":"Vojvodina","population":1040,"lat":44.92191,"lng":19.49543},{"city":"Veliki Gaj","state":"Vojvodina","population":1039,"lat":45.28849,"lng":21.17057},{"city":"Turija","state":"Central Serbia","population":1039,"lat":44.52273,"lng":21.63945},{"city":"Sokolovica","state":"Central Serbia","population":1022,"lat":43.21528,"lng":20.31556},{"city":"Glogovac","state":"Central Serbia","population":1000,"lat":44.04213,"lng":21.3134},{"city":"Brezovica","state":"Central Serbia","population":1000,"lat":43.74669,"lng":20.41436},{"city":"Brezovica","state":"Central Serbia","population":1000,"lat":42.95229,"lng":22.17869},{"city":"Glogovac","state":"Central Serbia","population":998,"lat":44.86341,"lng":19.41532},{"city":"Donja Dubona","state":"Central Serbia","population":988,"lat":44.52136,"lng":20.7268},{"city":"Buštranje","state":"Central Serbia","population":988,"lat":42.33152,"lng":21.75407},{"city":"Donja Gorevnica","state":"Central Serbia","population":981,"lat":43.87701,"lng":20.50004},{"city":"Ritiševo","state":"Vojvodina","population":954,"lat":45.06454,"lng":21.2281},{"city":"Sremska Rača","state":"Vojvodina","population":942,"lat":44.92077,"lng":19.28577},{"city":"Zasavica Prva","state":"Vojvodina","population":924,"lat":44.95448,"lng":19.48938},{"city":"Gornji Dobrić","state":"Central Serbia","population":884,"lat":44.58286,"lng":19.30858},{"city":"Dolac naselje","state":"Central Serbia","population":855,"lat":43.29511,"lng":22.20626},{"city":"Jankov Most","state":"Vojvodina","population":841,"lat":45.47498,"lng":20.43835},{"city":"Bešenovo","state":"Vojvodina","population":841,"lat":45.08364,"lng":19.70408},{"city":"Culjković","state":"Central Serbia","population":840,"lat":44.66595,"lng":19.54562},{"city":"Miletićevo","state":"Vojvodina","population":811,"lat":45.30508,"lng":21.06404},{"city":"Gornje Nedeljice","state":"Central Serbia","population":811,"lat":44.51645,"lng":19.33915},{"city":"Žitni Potok","state":"Central Serbia","population":810,"lat":43.09021,"lng":21.57476},{"city":"Kovilovo","state":"Central Serbia","population":808,"lat":44.90791,"lng":20.42319},{"city":"Belotić","state":"Central Serbia","population":784,"lat":44.58099,"lng":19.71932},{"city":"Beloljin","state":"Central Serbia","population":769,"lat":43.23846,"lng":21.39673},{"city":"Donja Badanja","state":"Central Serbia","population":756,"lat":44.50556,"lng":19.47543},{"city":"Nakučani","state":"Central Serbia","population":749,"lat":44.6014,"lng":19.66718},{"city":"Vojvodinci","state":"Vojvodina","population":727,"lat":45.01557,"lng":21.34793},{"city":"Kremna","state":"Central Serbia","population":727,"lat":43.83807,"lng":19.57433},{"city":"Lagja e Shimshirve","state":"Central Serbia","population":720,"lat":42.38025,"lng":21.74045},{"city":"Markovac","state":"Vojvodina","population":717,"lat":45.14964,"lng":21.47242},{"city":"Mrovska","state":"Central Serbia","population":715,"lat":44.54278,"lng":19.675},{"city":"Lukino Selo","state":"Vojvodina","population":703,"lat":45.30244,"lng":20.42632},{"city":"Kriva Feja","state":"Central Serbia","population":700,"lat":42.55909,"lng":22.17487},{"city":"Lagja e Korbajve","state":"Central Serbia","population":680,"lat":42.38674,"lng":21.7434},{"city":"Sot","state":"Vojvodina","population":679,"lat":45.16077,"lng":19.31782},{"city":"Crna Bara","state":"Vojvodina","population":678,"lat":45.97326,"lng":20.27614},{"city":"Vrbica","state":"Vojvodina","population":654,"lat":46.00584,"lng":20.31325},{"city":"Sirogojno","state":"Central Serbia","population":643,"lat":43.689,"lng":19.88746},{"city":"Stari Slankamen","state":"Vojvodina","population":638,"lat":45.14249,"lng":20.25765},{"city":"Tekeriš","state":"Central Serbia","population":616,"lat":44.55726,"lng":19.5297},{"city":"Grnčara","state":"Central Serbia","population":608,"lat":44.53516,"lng":19.29971},{"city":"Suvi Do","state":"Central Serbia","population":605,"lat":43.25829,"lng":21.33269},{"city":"Mokra Gora","state":"Central Serbia","population":605,"lat":43.78853,"lng":19.50033},{"city":"Spančevac","state":"Central Serbia","population":578,"lat":42.36263,"lng":21.85619},{"city":"Banatska Dubica","state":"Vojvodina","population":566,"lat":45.27146,"lng":20.82833},{"city":"Mali Žam","state":"Vojvodina","population":565,"lat":45.20979,"lng":21.33729},{"city":"Ravanica","state":"Central Serbia","population":545,"lat":43.74771,"lng":20.8843},{"city":"Kupinik","state":"Vojvodina","population":545,"lat":45.29254,"lng":21.13702},{"city":"Gamzigrad","state":"Central Serbia","population":537,"lat":43.90873,"lng":22.17507},{"city":"Jablanka","state":"Vojvodina","population":536,"lat":45.07524,"lng":21.39067},{"city":"Tulare","state":"Central Serbia","population":533,"lat":43.228,"lng":21.37961},{"city":"Lagja e Ternovcalive","state":"Central Serbia","population":520,"lat":42.38999,"lng":21.74365},{"city":"Bace","state":"Central Serbia","population":509,"lat":43.21963,"lng":21.34463},{"city":"Donja Konjuša","state":"Central Serbia","population":508,"lat":43.22293,"lng":21.41421},{"city":"Zapadni Mojstir","state":"Central Serbia","population":505,"lat":42.9094,"lng":20.41451},{"city":"Tutin","state":"Central Serbia","population":4,"lat":42.99028,"lng":20.33139},{"city":"Ćićevac","state":"Central Serbia","population":4,"lat":43.71882,"lng":21.44085},{"city":"Raška","state":"Central Serbia","population":4,"lat":43.28722,"lng":20.61528},{"city":"Mali Zvornik","state":"Central Serbia","population":4,"lat":44.37344,"lng":19.10651},{"city":"Prijepolje","state":"Central Serbia","population":3,"lat":43.38996,"lng":19.6487},{"city":"Priboj","state":"Central Serbia","population":3,"lat":43.58306,"lng":19.52519},{"city":"Žitorađa","state":"Central Serbia","population":0,"lat":43.19,"lng":21.71306},{"city":"Žagubica","state":"Central Serbia","population":0,"lat":44.19685,"lng":21.78838},{"city":"Žabari","state":"Central Serbia","population":0,"lat":44.35611,"lng":21.215},{"city":"Vranjska Banja","state":"Central Serbia","population":0,"lat":42.555,"lng":21.99222},{"city":"Vračar","state":"Central Serbia","population":0,"lat":44.79256,"lng":20.47491},{"city":"Vlasotince","state":"Central Serbia","population":0,"lat":42.96697,"lng":22.13402},{"city":"Vladičin Han","state":"Central Serbia","population":0,"lat":42.70778,"lng":22.06333},{"city":"Veliko Gradište","state":"Central Serbia","population":0,"lat":44.76329,"lng":21.51646},{"city":"Velika Plana","state":"Central Serbia","population":0,"lat":44.33389,"lng":21.07676},{"city":"Varvarin","state":"Central Serbia","population":0,"lat":43.72397,"lng":21.3624},{"city":"Ub","state":"Central Serbia","population":0,"lat":44.45611,"lng":20.07389},{"city":"Trgovište","state":"Central Serbia","population":0,"lat":42.36417,"lng":22.0825},{"city":"Topola","state":"Central Serbia","population":0,"lat":44.25417,"lng":20.6825},{"city":"Svrljig","state":"Central Serbia","population":0,"lat":43.41333,"lng":22.12111},{"city":"Svilajnac","state":"Central Serbia","population":0,"lat":44.2337,"lng":21.1967},{"city":"Surdulica","state":"Central Serbia","population":0,"lat":42.69056,"lng":22.17083},{"city":"Sopot","state":"Central Serbia","population":0,"lat":44.51972,"lng":20.57361},{"city":"Soko Banja","state":"Central Serbia","population":0,"lat":43.64333,"lng":21.87111},{"city":"Rekovac","state":"Central Serbia","population":0,"lat":43.863,"lng":21.09345},{"city":"Ražanj","state":"Central Serbia","population":0,"lat":43.67222,"lng":21.54944},{"city":"Rakovica","state":"Central Serbia","population":0,"lat":44.74194,"lng":20.44139},{"city":"Rača","state":"Central Serbia","population":0,"lat":44.22712,"lng":20.97754},{"city":"Preševo","state":"Central Serbia","population":0,"lat":42.30917,"lng":21.64917},{"city":"Požega","state":"Central Serbia","population":0,"lat":43.84889,"lng":20.03632},{"city":"Petrovac","state":"Central Serbia","population":0,"lat":44.37694,"lng":21.41917},{"city":"Novi Beograd","state":"Central Serbia","population":0,"lat":44.80556,"lng":20.42417},{"city":"Novi Bečej","state":"Vojvodina","population":0,"lat":45.59861,"lng":20.13556},{"city":"Mladenovac","state":"Central Serbia","population":0,"lat":44.43861,"lng":20.69917},{"city":"Mionica","state":"Central Serbia","population":0,"lat":44.25194,"lng":20.08167},{"city":"Merošina","state":"Central Serbia","population":0,"lat":43.28358,"lng":21.7204},{"city":"Medveđa","state":"Central Serbia","population":0,"lat":42.84306,"lng":21.58333},{"city":"Malo Crniće","state":"Central Serbia","population":0,"lat":44.55611,"lng":21.28556},{"city":"Lučani","state":"Central Serbia","population":0,"lat":43.86083,"lng":20.13806},{"city":"Lebane","state":"Central Serbia","population":0,"lat":42.92389,"lng":21.7375},{"city":"Lajkovac","state":"Central Serbia","population":0,"lat":44.36944,"lng":20.16528},{"city":"Kuršumlija","state":"Central Serbia","population":0,"lat":43.13826,"lng":21.27339},{"city":"Kučevo","state":"Central Serbia","population":0,"lat":44.4775,"lng":21.67},{"city":"Kladovo","state":"Central Serbia","population":0,"lat":44.61147,"lng":22.60955},{"city":"Ivanjica","state":"Central Serbia","population":0,"lat":43.58028,"lng":20.23111},{"city":"Grocka","state":"Central Serbia","population":0,"lat":44.67152,"lng":20.71648},{"city":"Gadžin Han","state":"Central Serbia","population":0,"lat":43.22278,"lng":22.03194},{"city":"Doljevac","state":"Central Serbia","population":0,"lat":43.19817,"lng":21.83258},{"city":"Dimitrovgrad","state":"Central Serbia","population":0,"lat":43.01417,"lng":22.77556},{"city":"Despotovac","state":"Central Serbia","population":0,"lat":44.0925,"lng":21.44694},{"city":"Čukarica","state":"Central Serbia","population":0,"lat":44.7825,"lng":20.42028},{"city":"Crna Trava","state":"Central Serbia","population":0,"lat":42.80988,"lng":22.29881},{"city":"Bujanovac","state":"Central Serbia","population":0,"lat":42.45917,"lng":21.76667},{"city":"Bosilegrad","state":"Central Serbia","population":0,"lat":42.5011,"lng":22.47238},{"city":"Boljevac","state":"Central Serbia","population":0,"lat":43.83028,"lng":21.95306},{"city":"Bojnik","state":"Central Serbia","population":0,"lat":43.01224,"lng":21.721},{"city":"Blace","state":"Central Serbia","population":0,"lat":43.29528,"lng":21.28583},{"city":"Bela Palanka","state":"Central Serbia","population":0,"lat":43.21833,"lng":22.31111},{"city":"Batočina","state":"Central Serbia","population":0,"lat":44.15361,"lng":21.08167},{"city":"Barajevo","state":"Central Serbia","population":0,"lat":44.57889,"lng":20.41583},{"city":"Aleksinac","state":"Central Serbia","population":0,"lat":43.54167,"lng":21.70778},{"city":"Aleksandrovac","state":"Central Serbia","population":0,"lat":43.45861,"lng":21.0525},{"city":"Ada","state":"Vojvodina","population":0,"lat":45.8025,"lng":20.12583},{"city":"Niška Banja","state":"Central Serbia","population":0,"lat":43.29507,"lng":22.0057},{"city":"Voždovac","state":"Central Serbia","population":0,"lat":44.77833,"lng":20.47583},{"city":"Zvezdara","state":"Central Serbia","population":0,"lat":44.77465,"lng":20.53207},{"city":"Knić","state":"Central Serbia","population":0,"lat":43.92694,"lng":20.71889},{"city":"Savski Venac","state":"Central Serbia","population":0,"lat":44.77917,"lng":20.45389},{"city":"Palilula","state":"Central Serbia","population":0,"lat":44.81167,"lng":20.51611},{"city":"Stari Grad","state":"Central Serbia","population":0,"lat":44.81789,"lng":20.46186},{"city":"Temerin","state":"Vojvodina","population":0,"lat":45.40861,"lng":19.88917},{"city":"Srbobran","state":"Vojvodina","population":0,"lat":45.55389,"lng":19.80278},{"city":"Sjenica","state":"Central Serbia","population":0,"lat":43.27306,"lng":19.99944},{"city":"Šid","state":"Vojvodina","population":0,"lat":45.12833,"lng":19.22639},{"city":"Odžaci","state":"Vojvodina","population":0,"lat":45.50667,"lng":19.26111},{"city":"Nova Varoš","state":"Central Serbia","population":0,"lat":43.46056,"lng":19.81139},{"city":"Mali Iđoš","state":"Vojvodina","population":0,"lat":45.70833,"lng":19.66528},{"city":"Kula","state":"Vojvodina","population":0,"lat":45.60889,"lng":19.52639},{"city":"Kosjerić","state":"Central Serbia","population":0,"lat":43.99611,"lng":19.90694},{"city":"Koceljeva","state":"Central Serbia","population":0,"lat":44.47361,"lng":19.81167},{"city":"Irig","state":"Vojvodina","population":0,"lat":45.10111,"lng":19.85833},{"city":"Beočin","state":"Vojvodina","population":0,"lat":45.20829,"lng":19.72063},{"city":"Bač","state":"Vojvodina","population":0,"lat":45.39194,"lng":19.23667},{"city":"Pirot Centralni Trg","state":"Central Serbia","population":0,"lat":43.15635,"lng":22.58515}]}}