{"timezone":"Europe/Luxembourg","countries":{"Luxembourg":[{"city":"Luxembourg","state":"Luxembourg","population":76684,"lat":49.60982,"lng":6.13268},{"city":"Esch-sur-Alzette","state":"Esch-sur-Alzette","population":36625,"lat":49.49583,"lng":5.98056},{"city":"Dudelange","state":"Esch-sur-Alzette","population":18013,"lat":49.48056,"lng":6.0875},{"city":"Bonnevoie-Sud","state":"Luxembourg","population":13372,"lat":49.59679,"lng":6.14719},{"city":"Belair","state":"Luxembourg","population":12990,"lat":49.6116,"lng":6.10682},{"city":"Limpertsberg","state":"Luxembourg","population":11521,"lat":49.62083,"lng":6.12167},{"city":"Gare","state":"Luxembourg","population":11360,"lat":49.60175,"lng":6.12971},{"city":"Kirchberg","state":"Luxembourg","population":10725,"lat":49.62389,"lng":6.14944},{"city":"Gasperich","state":"Luxembourg","population":10208,"lat":49.58556,"lng":6.12306},{"city":"Belvaux","state":"Esch-sur-Alzette","population":8329,"lat":49.51014,"lng":5.92414},{"city":"Schifflange","state":"Esch-sur-Alzette","population":8155,"lat":49.50639,"lng":6.01278},{"city":"Walferdange","state":"Luxembourg","population":7819,"lat":49.66321,"lng":6.13224},{"city":"Hollerich","state":"Luxembourg","population":7781,"lat":49.60314,"lng":6.11423},{"city":"Rodange","state":"Esch-sur-Alzette","population":7774,"lat":49.54639,"lng":5.84083},{"city":"Bettembourg","state":"Esch-sur-Alzette","population":7437,"lat":49.51861,"lng":6.10278},{"city":"Diekirch","state":"Diekirch","population":7295,"lat":49.86687,"lng":6.15451},{"city":"Pétange","state":"Esch-sur-Alzette","population":7187,"lat":49.55833,"lng":5.88056},{"city":"Neudorf-Weimershof","state":"Luxembourg","population":7029,"lat":49.6256,"lng":6.16926},{"city":"Merl","state":"Luxembourg","population":6552,"lat":49.60333,"lng":6.09556},{"city":"Cents","state":"Luxembourg","population":6517,"lat":49.61707,"lng":6.16413},{"city":"Soleuvre","state":"Esch-sur-Alzette","population":6420,"lat":49.52148,"lng":5.93781},{"city":"Ettelbruck","state":"Diekirch","population":6364,"lat":49.8475,"lng":6.10417},{"city":"Strassen","state":"Luxembourg","population":6006,"lat":49.62056,"lng":6.07333},{"city":"Howald","state":"Luxembourg","population":5815,"lat":49.58387,"lng":6.14277},{"city":"Bertrange","state":"Luxembourg","population":5615,"lat":49.61111,"lng":6.05},{"city":"Differdange","state":"Esch-sur-Alzette","population":5296,"lat":49.52417,"lng":5.89139},{"city":"Schengen","state":"Remich","population":5196,"lat":49.47,"lng":6.362},{"city":"Cessange","state":"Luxembourg","population":5111,"lat":49.58944,"lng":6.10694},{"city":"Grevenmacher","state":"Grevenmacher","population":5092,"lat":49.67751,"lng":6.44022},{"city":"Mamer","state":"Capellen","population":5017,"lat":49.6275,"lng":6.02333},{"city":"Rollingergrund-Belair-Nord","state":"Luxembourg","population":4820,"lat":49.6332,"lng":6.09291},{"city":"Wiltz","state":"Wiltz","population":4816,"lat":49.96547,"lng":5.9339},{"city":"Echternach","state":"Echternach","population":4787,"lat":49.81212,"lng":6.41846},{"city":"Obercorn","state":"Esch-sur-Alzette","population":4666,"lat":49.51361,"lng":5.89611},{"city":"Béreldange","state":"Luxembourg","population":4665,"lat":49.65507,"lng":6.11874},{"city":"Bascharage","state":"Capellen","population":4645,"lat":49.56727,"lng":5.9073},{"city":"Bonnevoie-Nord-Verlorenkost","state":"Luxembourg","population":4582,"lat":49.60431,"lng":6.14187},{"city":"Kayl","state":"Esch-sur-Alzette","population":4396,"lat":49.48917,"lng":6.03972},{"city":"Tétange","state":"Esch-sur-Alzette","population":4033,"lat":49.47583,"lng":6.04222},{"city":"Remich","state":"Remich","population":4015,"lat":49.545,"lng":6.36694},{"city":"Beggen","state":"Luxembourg","population":3954,"lat":49.64506,"lng":6.12932},{"city":"Wasserbillig","state":"Grevenmacher","population":3485,"lat":49.71534,"lng":6.49861},{"city":"Mersch","state":"Mersch","population":3464,"lat":49.75055,"lng":6.10627},{"city":"Bridel","state":"Capellen","population":3456,"lat":49.65579,"lng":6.07999},{"city":"Ville Haute","state":"Luxembourg","population":3449,"lat":49.61173,"lng":6.12648},{"city":"Mondercange","state":"Esch-sur-Alzette","population":3306,"lat":49.53306,"lng":5.98833},{"city":"Lamadelaine","state":"Esch-sur-Alzette","population":3219,"lat":49.54639,"lng":5.85639},{"city":"Niedercorn","state":"Esch-sur-Alzette","population":3164,"lat":49.53611,"lng":5.89306},{"city":"Helmsange","state":"Luxembourg","population":3118,"lat":49.65278,"lng":6.14139},{"city":"Mondorf-les-Bains","state":"Remich","population":3113,"lat":49.505,"lng":6.28111},{"city":"Dommeldange","state":"Luxembourg","population":3012,"lat":49.63411,"lng":6.13864},{"city":"Alzingen","state":"Luxembourg","population":2988,"lat":49.565,"lng":6.16361},{"city":"Eich","state":"Luxembourg","population":2976,"lat":49.62889,"lng":6.13194},{"city":"Fentange","state":"Luxembourg","population":2705,"lat":49.56278,"lng":6.15389},{"city":"Bissen","state":"Mersch","population":2547,"lat":49.78733,"lng":6.0654},{"city":"Sandweiler","state":"Luxembourg","population":2522,"lat":49.61471,"lng":6.22221},{"city":"Muhlenbach","state":"Luxembourg","population":2497,"lat":49.63167,"lng":6.11917},{"city":"Sanem","state":"Esch-sur-Alzette","population":2489,"lat":49.54806,"lng":5.92889},{"city":"Weimerskirch","state":"Luxembourg","population":2480,"lat":49.62361,"lng":6.13639},{"city":"Itzig","state":"Luxembourg","population":2414,"lat":49.58769,"lng":6.17065},{"city":"Capellen","state":"Capellen","population":2371,"lat":49.645,"lng":5.99083},{"city":"Junglinster","state":"Grevenmacher","population":2358,"lat":49.70722,"lng":6.25306},{"city":"Rollingen","state":"Mersch","population":2245,"lat":49.74167,"lng":6.11444},{"city":"Steinfort","state":"Capellen","population":2225,"lat":49.66139,"lng":5.91917},{"city":"Eischen","state":"Capellen","population":2206,"lat":49.68556,"lng":5.87861},{"city":"Vianden","state":"Vianden","population":2203,"lat":49.935,"lng":6.20889},{"city":"Roodt-sur-Syre","state":"Grevenmacher","population":2017,"lat":49.66591,"lng":6.30257},{"city":"Gonderange","state":"Grevenmacher","population":1983,"lat":49.69537,"lng":6.24577},{"city":"Hautcharage","state":"Capellen","population":1971,"lat":49.57499,"lng":5.9097},{"city":"Hesperange","state":"Luxembourg","population":1937,"lat":49.56806,"lng":6.15139},{"city":"Leudelange","state":"Esch-sur-Alzette","population":1924,"lat":49.56833,"lng":6.06528},{"city":"Steinsel","state":"Luxembourg","population":1879,"lat":49.67694,"lng":6.12389},{"city":"Senningerberg","state":"Luxembourg","population":1856,"lat":49.64907,"lng":6.22607},{"city":"Clemency","state":"Capellen","population":1821,"lat":49.59667,"lng":5.87583},{"city":"Colmar","state":"Mersch","population":1776,"lat":49.81028,"lng":6.09722},{"city":"Olm","state":"Luxembourg","population":1763,"lat":49.65722,"lng":6.00028},{"city":"Lintgen","state":"Mersch","population":1752,"lat":49.72243,"lng":6.13016},{"city":"Canach","state":"Remich","population":1722,"lat":49.60694,"lng":6.32583},{"city":"Aspelt","state":"Esch-sur-Alzette","population":1710,"lat":49.52278,"lng":6.22472},{"city":"Kehlen","state":"Capellen","population":1658,"lat":49.66833,"lng":6.03583},{"city":"Crauthem","state":"Esch-sur-Alzette","population":1632,"lat":49.53556,"lng":6.14694},{"city":"Schouweiler","state":"Capellen","population":1610,"lat":49.5825,"lng":5.95639},{"city":"Hagen","state":"Capellen","population":1591,"lat":49.64944,"lng":5.93167},{"city":"Heisdorf","state":"Luxembourg","population":1586,"lat":49.67207,"lng":6.14202},{"city":"Bergem","state":"Esch-sur-Alzette","population":1575,"lat":49.525,"lng":6.04222},{"city":"Hamm","state":"Luxembourg","population":1557,"lat":49.60694,"lng":6.16861},{"city":"Warken","state":"Diekirch","population":1554,"lat":49.85918,"lng":6.08415},{"city":"Moutfort","state":"Luxembourg","population":1524,"lat":49.58528,"lng":6.25556},{"city":"Niederanven","state":"Luxembourg","population":1508,"lat":49.65196,"lng":6.26199},{"city":"Mertzig","state":"Diekirch","population":1482,"lat":49.83389,"lng":6.0075},{"city":"Troisvierges","state":"Clervaux","population":1457,"lat":50.12111,"lng":6.00028},{"city":"Beaufort","state":"Echternach","population":1418,"lat":49.83583,"lng":6.29167},{"city":"Larochette","state":"Mersch","population":1410,"lat":49.78362,"lng":6.21891},{"city":"Schieren","state":"Diekirch","population":1397,"lat":49.83056,"lng":6.09861},{"city":"Bettange-sur-Mess","state":"Capellen","population":1385,"lat":49.57583,"lng":5.98389},{"city":"Dalheim","state":"Remich","population":1364,"lat":49.54083,"lng":6.25972},{"city":"Frisange","state":"Esch-sur-Alzette","population":1355,"lat":49.51616,"lng":6.18858},{"city":"Pfaffenthal","state":"Luxembourg","population":1343,"lat":49.61667,"lng":6.13333},{"city":"Nospelt","state":"Capellen","population":1241,"lat":49.67528,"lng":6.00889},{"city":"Consdorf","state":"Echternach","population":1241,"lat":49.78018,"lng":6.3395},{"city":"Müllendorf","state":"Luxembourg","population":1239,"lat":49.68028,"lng":6.13},{"city":"Beringen","state":"Mersch","population":1199,"lat":49.75833,"lng":6.11694},{"city":"Redange-sur-Attert","state":"Redange","population":1164,"lat":49.76437,"lng":5.88997},{"city":"Mertert","state":"Grevenmacher","population":1163,"lat":49.70261,"lng":6.47966},{"city":"Kleinbettingen","state":"Capellen","population":1163,"lat":49.64639,"lng":5.91639},{"city":"Bofferdange","state":"Mersch","population":1152,"lat":49.69062,"lng":6.13998},{"city":"Gilsdorf","state":"Diekirch","population":1145,"lat":49.86499,"lng":6.17979},{"city":"Pontpierre","state":"Esch-sur-Alzette","population":1140,"lat":49.53639,"lng":6.02944},{"city":"Niederfeulen","state":"Diekirch","population":1125,"lat":49.85556,"lng":6.04722},{"city":"Bivange","state":"Esch-sur-Alzette","population":1107,"lat":49.54444,"lng":6.13778},{"city":"Clervaux","state":"Clervaux","population":1103,"lat":50.05472,"lng":6.03139},{"city":"Contern","state":"Luxembourg","population":1083,"lat":49.58194,"lng":6.22667},{"city":"Noertzange","state":"Esch-sur-Alzette","population":1072,"lat":49.50917,"lng":6.05611},{"city":"Bettendorf","state":"Diekirch","population":1072,"lat":49.87667,"lng":6.21806},{"city":"Koerich","state":"Capellen","population":1066,"lat":49.67,"lng":5.95},{"city":"Clausen","state":"Luxembourg","population":1052,"lat":49.61313,"lng":6.14278},{"city":"Hobscheid","state":"Capellen","population":1051,"lat":49.68861,"lng":5.91472},{"city":"Reckange","state":"Mersch","population":1046,"lat":49.74972,"lng":6.08306},{"city":"Brouch","state":"Mersch","population":1033,"lat":49.73611,"lng":6.02306},{"city":"Oetrange","state":"Luxembourg","population":985,"lat":49.59639,"lng":6.26},{"city":"Grund","state":"Luxembourg","population":984,"lat":49.60997,"lng":6.13791},{"city":"Eschdorf","state":"Wiltz","population":972,"lat":49.8859,"lng":5.93421},{"city":"Greiveldange","state":"Remich","population":959,"lat":49.58389,"lng":6.35917},{"city":"Mensdorf","state":"Grevenmacher","population":951,"lat":49.65467,"lng":6.30416},{"city":"Ehnen","state":"Grevenmacher","population":944,"lat":49.60155,"lng":6.38664},{"city":"Peppange","state":"Esch-sur-Alzette","population":928,"lat":49.52444,"lng":6.12972},{"city":"Medernach","state":"Diekirch","population":907,"lat":49.80955,"lng":6.21521},{"city":"Berdorf","state":"Echternach","population":900,"lat":49.82051,"lng":6.34945},{"city":"Rameldange","state":"Luxembourg","population":890,"lat":49.66032,"lng":6.23238},{"city":"Hellange","state":"Esch-sur-Alzette","population":875,"lat":49.50759,"lng":6.14978},{"city":"Berchem","state":"Esch-sur-Alzette","population":863,"lat":49.54028,"lng":6.12917},{"city":"Schrassig","state":"Luxembourg","population":856,"lat":49.61014,"lng":6.25903},{"city":"Erpeldange","state":"Diekirch","population":845,"lat":49.86472,"lng":6.11472},{"city":"Schuttrange","state":"Luxembourg","population":841,"lat":49.62056,"lng":6.26861},{"city":"Garnich","state":"Capellen","population":824,"lat":49.61667,"lng":5.9525},{"city":"Ingeldorf","state":"Diekirch","population":816,"lat":49.85194,"lng":6.13472},{"city":"Hosingen","state":"Clervaux","population":811,"lat":50.01218,"lng":6.09089},{"city":"Dippach","state":"Capellen","population":808,"lat":49.58701,"lng":5.9833},{"city":"Oberanven","state":"Luxembourg","population":796,"lat":49.65743,"lng":6.24302},{"city":"Weidingen","state":"Wiltz","population":795,"lat":49.97068,"lng":5.93884},{"city":"Wormeldange","state":"Grevenmacher","population":786,"lat":49.61114,"lng":6.40546},{"city":"Keispelt","state":"Capellen","population":781,"lat":49.69394,"lng":6.06789},{"city":"Bourglinster","state":"Grevenmacher","population":776,"lat":49.70306,"lng":6.21725},{"city":"Uebersyren","state":"Luxembourg","population":772,"lat":49.6319,"lng":6.2771},{"city":"Lorentzweiler","state":"Mersch","population":772,"lat":49.70131,"lng":6.14234},{"city":"Helmdange","state":"Mersch","population":770,"lat":49.69387,"lng":6.14166},{"city":"Vichten","state":"Redange","population":764,"lat":49.80306,"lng":6.0},{"city":"Münsbach","state":"Luxembourg","population":762,"lat":49.63277,"lng":6.26459},{"city":"Remerschen","state":"Remich","population":761,"lat":49.48861,"lng":6.35167},{"city":"Marnach","state":"Clervaux","population":760,"lat":50.05333,"lng":6.06194},{"city":"Ehlerange","state":"Esch-sur-Alzette","population":756,"lat":49.52417,"lng":5.96611},{"city":"Stadtbredimus","state":"Remich","population":749,"lat":49.56278,"lng":6.36444},{"city":"Senningen","state":"Luxembourg","population":749,"lat":49.64535,"lng":6.23927},{"city":"Wecker","state":"Grevenmacher","population":743,"lat":49.69473,"lng":6.38525},{"city":"Hassel","state":"Luxembourg","population":743,"lat":49.55019,"lng":6.20826},{"city":"Holzem","state":"Capellen","population":742,"lat":49.61639,"lng":5.99028},{"city":"Gosseldange","state":"Mersch","population":734,"lat":49.72639,"lng":6.11694},{"city":"Goeblange","state":"Capellen","population":722,"lat":49.66972,"lng":5.96528},{"city":"Elvange","state":"Remich","population":713,"lat":49.50528,"lng":6.31639},{"city":"Roeser","state":"Esch-sur-Alzette","population":708,"lat":49.53721,"lng":6.14629},{"city":"Syren","state":"Luxembourg","population":707,"lat":49.56194,"lng":6.22167},{"city":"Huncherange","state":"Esch-sur-Alzette","population":706,"lat":49.51694,"lng":6.065},{"city":"Erpeldange","state":"Remich","population":703,"lat":49.54444,"lng":6.3275},{"city":"Weiswampach","state":"Clervaux","population":691,"lat":50.13722,"lng":6.075},{"city":"Heiderscheid","state":"Wiltz","population":687,"lat":49.88734,"lng":5.97892},{"city":"Bech-Kleinmacher","state":"Remich","population":685,"lat":49.53083,"lng":6.355},{"city":"Wellenstein","state":"Remich","population":684,"lat":49.52389,"lng":6.34222},{"city":"Rosport","state":"Echternach","population":681,"lat":49.8047,"lng":6.50532},{"city":"Heinerscheid","state":"Clervaux","population":678,"lat":50.09611,"lng":6.08806},{"city":"Beckerich","state":"Redange","population":672,"lat":49.73114,"lng":5.88241},{"city":"Berbourg","state":"Grevenmacher","population":664,"lat":49.7306,"lng":6.39355},{"city":"Useldange","state":"Redange","population":657,"lat":49.76972,"lng":5.98222},{"city":"Kopstal","state":"Capellen","population":657,"lat":49.66444,"lng":6.07306},{"city":"Grosbous","state":"Redange","population":656,"lat":49.82778,"lng":5.96722},{"city":"Steinheim","state":"Echternach","population":654,"lat":49.81794,"lng":6.47713},{"city":"Biwer","state":"Grevenmacher","population":653,"lat":49.70605,"lng":6.37201},{"city":"Perlé","state":"Redange","population":649,"lat":49.81167,"lng":5.76583},{"city":"Bastendorf","state":"Vianden","population":640,"lat":49.89194,"lng":6.16528},{"city":"Linger","state":"Capellen","population":629,"lat":49.56583,"lng":5.88667},{"city":"Godbrange","state":"Grevenmacher","population":624,"lat":49.73395,"lng":6.23238},{"city":"Heffingen","state":"Mersch","population":623,"lat":49.76907,"lng":6.24049},{"city":"Noerdange","state":"Redange","population":617,"lat":49.74222,"lng":5.92611},{"city":"Altwies","state":"Remich","population":617,"lat":49.51056,"lng":6.25722},{"city":"Tuntange","state":"Mersch","population":605,"lat":49.71778,"lng":6.01028},{"city":"Buschdorf","state":"Mersch","population":594,"lat":49.75083,"lng":6.00833},{"city":"Machtum","state":"Grevenmacher","population":592,"lat":49.65897,"lng":6.43599},{"city":"Hunsdorf","state":"Mersch","population":592,"lat":49.69667,"lng":6.13167},{"city":"Harlange","state":"Wiltz","population":590,"lat":49.93139,"lng":5.79},{"city":"Boevange-sur-Attert","state":"Mersch","population":576,"lat":49.77256,"lng":6.01532},{"city":"Reckange-sur-Mess","state":"Esch-sur-Alzette","population":571,"lat":49.5625,"lng":6.00889},{"city":"Sprinkange","state":"Capellen","population":562,"lat":49.58049,"lng":5.96493},{"city":"Bous","state":"Remich","population":560,"lat":49.55389,"lng":6.32917},{"city":"Hostert","state":"Luxembourg","population":558,"lat":49.65749,"lng":6.23268},{"city":"Goetzingen","state":"Capellen","population":556,"lat":49.66028,"lng":5.98167},{"city":"Filsdorf","state":"Remich","population":556,"lat":49.5325,"lng":6.24833},{"city":"Pratz","state":"Redange","population":545,"lat":49.80167,"lng":5.93917},{"city":"Platen","state":"Redange","population":544,"lat":49.78933,"lng":5.93382},{"city":"Hollenfels","state":"Mersch","population":539,"lat":49.71306,"lng":6.05083},{"city":"Moestroff","state":"Diekirch","population":538,"lat":49.86778,"lng":6.23944},{"city":"Gostingen","state":"Grevenmacher","population":523,"lat":49.61917,"lng":6.35444},{"city":"Wolwelange","state":"Redange","population":521,"lat":49.82861,"lng":5.76472},{"city":"Blaschette","state":"Mersch","population":521,"lat":49.70279,"lng":6.16876},{"city":"Scheidgen","state":"Echternach","population":510,"lat":49.78059,"lng":6.3607},{"city":"Fingig","state":"Capellen","population":510,"lat":49.60361,"lng":5.90083},{"city":"Eselborn","state":"Clervaux","population":508,"lat":50.06278,"lng":6.00361},{"city":"Olingen","state":"Grevenmacher","population":502,"lat":49.67985,"lng":6.31392},{"city":"Reisdorf","state":"Diekirch","population":493,"lat":49.86861,"lng":6.26778},{"city":"Weiler-la-Tour","state":"Luxembourg","population":484,"lat":49.54083,"lng":6.20083},{"city":"Manternach","state":"Grevenmacher","population":443,"lat":49.70278,"lng":6.42639},{"city":"Waldbredimus","state":"Remich","population":416,"lat":49.55676,"lng":6.28789},{"city":"Waldbillig","state":"Echternach","population":408,"lat":49.79636,"lng":6.28431},{"city":"Rambrouch","state":"Redange","population":401,"lat":49.83083,"lng":5.845},{"city":"Boulaide","state":"Wiltz","population":396,"lat":49.88778,"lng":5.81639},{"city":"Bech","state":"Echternach","population":380,"lat":49.7526,"lng":6.36379},{"city":"Septfontaines","state":"Capellen","population":363,"lat":49.70111,"lng":5.96722},{"city":"Ell","state":"Redange","population":359,"lat":49.76389,"lng":5.85722},{"city":"Flaxweiler","state":"Grevenmacher","population":358,"lat":49.66602,"lng":6.34321},{"city":"Lenningen","state":"Remich","population":338,"lat":49.60045,"lng":6.36719},{"city":"Esch-sur-Sûre","state":"Wiltz","population":333,"lat":49.91139,"lng":5.93639},{"city":"Saeul","state":"Redange","population":316,"lat":49.72722,"lng":5.98639},{"city":"Bourscheid","state":"Diekirch","population":275,"lat":49.90862,"lng":6.0675},{"city":"Nommern","state":"Mersch","population":272,"lat":49.78694,"lng":6.17472},{"city":"Goesdorf","state":"Wiltz","population":251,"lat":49.92131,"lng":5.96601},{"city":"Wilwerwiltz","state":"Wiltz","population":249,"lat":49.98889,"lng":5.99917},{"city":"Betzdorf","state":"Grevenmacher","population":248,"lat":49.68333,"lng":6.35},{"city":"Wahl","state":"Redange","population":235,"lat":49.83667,"lng":5.90639},{"city":"Bettborn","state":"Redange","population":231,"lat":49.79528,"lng":5.94111},{"city":"Wincrange","state":"Clervaux","population":210,"lat":50.05333,"lng":5.91917},{"city":"Fischbach","state":"Mersch","population":184,"lat":49.746,"lng":6.18702},{"city":"Bavigne","state":"Wiltz","population":132,"lat":49.92194,"lng":5.84944},{"city":"Winseler","state":"Wiltz","population":126,"lat":49.96778,"lng":5.89028},{"city":"Mompach","state":"Echternach","population":100,"lat":49.74611,"lng":6.465},{"city":"Tandel","state":"Vianden","population":89,"lat":49.8975,"lng":6.18333},{"city":"Putscheid","state":"Vianden","population":38,"lat":49.96083,"lng":6.14306},{"city":"Rumelange","state":"Esch-sur-Alzette","population":0,"lat":49.45964,"lng":6.03089}]}}