{"timezone":"Europe/Mariehamn","countries":{"Aland Islands":[{"city":"Mariehamn","state":"Mariehamns stad","population":10682,"lat":60.09726,"lng":19.93481},{"city":"Ytterby","state":"Ålands landsbygd","population":6384,"lat":60.16667,"lng":20.01667},{"city":"Yomala","state":"Ålands landsbygd","population":5789,"lat":60.16689,"lng":19.93341},{"city":"Jomala","state":"Ålands landsbygd","population":3662,"lat":60.14902,"lng":19.951},{"city":"Tjudö","state":"Ålands landsbygd","population":2630,"lat":60.33333,"lng":19.95},{"city":"Finström","state":"Ålands landsbygd","population":2412,"lat":60.26667,"lng":19.93333},{"city":"Lemland","state":"Ålands landsbygd","population":1829,"lat":60.07178,"lng":20.08472},{"city":"Saltvik","state":"Ålands landsbygd","population":1691,"lat":60.28333,"lng":20.05},{"city":"Hammarland","state":"Ålands landsbygd","population":1395,"lat":60.21667,"lng":19.75},{"city":"Godby","state":"Ålands landsbygd","population":1369,"lat":60.22995,"lng":19.9881},{"city":"Sund","state":"Ålands landsbygd","population":1016,"lat":60.25,"lng":20.11667},{"city":"Bomarsund","state":"Ålands landsbygd","population":1016,"lat":60.21234,"lng":20.24023},{"city":"Eckerö","state":"Ålands landsbygd","population":959,"lat":60.21249,"lng":19.61442},{"city":"Föglö","state":"Ålands skärgård","population":632,"lat":60.01392,"lng":20.41377},{"city":"Brändö","state":"Ålands skärgård","population":515,"lat":60.41165,"lng":21.04534},{"city":"Geta","state":"Ålands landsbygd","population":452,"lat":60.37453,"lng":19.84455},{"city":"Vårdö","state":"Ålands skärgård","population":411,"lat":60.25,"lng":20.38333},{"city":"Kumlinge","state":"Ålands skärgård","population":384,"lat":60.26013,"lng":20.77892},{"city":"Kökar","state":"Ålands skärgård","population":355,"lat":59.92051,"lng":20.90883},{"city":"Lumparland","state":"Ålands landsbygd","population":335,"lat":60.11695,"lng":20.25819},{"city":"Sottunga","state":"Ålands skärgård","population":144,"lat":60.13023,"lng":20.66683}]}}