{"timezone":"Europe/Prague","countries":{"Czechia":[{"city":"Prague","state":"Prague","population":1165581,"lat":50.08804,"lng":14.42076},{"city":"Brno","state":"South Moravian","population":379466,"lat":49.19522,"lng":16.60796},{"city":"Ostrava","state":"Moravskoslezský","population":279791,"lat":49.83465,"lng":18.28204},{"city":"Pilsen","state":"Plzeň Region","population":168733,"lat":49.74747,"lng":13.37759},{"city":"Liberec","state":"Liberecký kraj","population":102951,"lat":50.76711,"lng":15.05619},{"city":"Olomouc","state":"Olomoucký","population":99496,"lat":49.59552,"lng":17.25175},{"city":"České Budějovice","state":"Jihočeský kraj","population":93426,"lat":48.97447,"lng":14.47434},{"city":"Hradec Králové","state":"Královéhradecký kraj","population":90596,"lat":50.20923,"lng":15.83277},{"city":"Ústí nad Labem","state":"Ústecký kraj","population":90378,"lat":50.6607,"lng":14.03227},{"city":"Pardubice","state":"Pardubický","population":88520,"lat":50.04075,"lng":15.77659},{"city":"Havířov","state":"Moravskoslezský","population":82768,"lat":49.77984,"lng":18.43688},{"city":"Zlín","state":"Zlín","population":72973,"lat":49.22645,"lng":17.67065},{"city":"Most","state":"Ústecký kraj","population":67905,"lat":50.50301,"lng":13.63617},{"city":"Kladno","state":"Central Bohemia","population":66903,"lat":50.14734,"lng":14.10285},{"city":"Karviná","state":"Moravskoslezský","population":63677,"lat":49.854,"lng":18.54169},{"city":"Stodůlky","state":"Prague","population":60758,"lat":50.05,"lng":14.31667},{"city":"Opava","state":"Moravskoslezský","population":60252,"lat":49.93866,"lng":17.90257},{"city":"Frýdek-Místek","state":"Moravskoslezský","population":59416,"lat":49.68333,"lng":18.35},{"city":"Žižkov","state":"Prague","population":58267,"lat":50.08333,"lng":14.45},{"city":"Děčín","state":"Ústecký kraj","population":52058,"lat":50.78215,"lng":14.21478},{"city":"Teplice","state":"Ústecký kraj","population":51223,"lat":50.6404,"lng":13.82451},{"city":"Chomutov","state":"Ústecký kraj","population":50251,"lat":50.46048,"lng":13.41779},{"city":"Jihlava","state":"Vysočina","population":50108,"lat":49.3961,"lng":15.59124},{"city":"Chodov","state":"Prague","population":50043,"lat":50.03669,"lng":14.50444},{"city":"Královské Vinohrady","state":"Prague","population":48805,"lat":50.07438,"lng":14.44367},{"city":"Přerov","state":"Olomoucký","population":47311,"lat":49.45511,"lng":17.4509},{"city":"Karlovy Vary","state":"Karlovarský kraj","population":45500,"lat":50.23271,"lng":12.87117},{"city":"Jablonec nad Nisou","state":"Liberecký kraj","population":44878,"lat":50.72431,"lng":15.17108},{"city":"Mladá Boleslav","state":"Central Bohemia","population":43684,"lat":50.41135,"lng":14.90318},{"city":"Prostějov","state":"Olomoucký","population":43408,"lat":49.47188,"lng":17.11184},{"city":"Česká Lípa","state":"Liberecký kraj","population":38841,"lat":50.68551,"lng":14.53764},{"city":"Třebíč","state":"Vysočina","population":38785,"lat":49.21492,"lng":15.88166},{"city":"Třinec","state":"Moravskoslezský","population":38415,"lat":49.67763,"lng":18.67078},{"city":"Staré Strašnice","state":"Prague","population":37665,"lat":50.07649,"lng":14.51037},{"city":"Holešovice","state":"Prague","population":37664,"lat":50.10468,"lng":14.44946},{"city":"Vršovice","state":"Prague","population":36836,"lat":50.06732,"lng":14.46026},{"city":"Tábor","state":"Jihočeský kraj","population":36264,"lat":49.41441,"lng":14.6578},{"city":"Libeň","state":"Prague","population":36151,"lat":50.10819,"lng":14.47457},{"city":"Znojmo","state":"South Moravian","population":35280,"lat":48.8555,"lng":16.0488},{"city":"Příbram","state":"Central Bohemia","population":35251,"lat":49.68988,"lng":14.01043},{"city":"Záběhlice","state":"Prague","population":35228,"lat":50.0573,"lng":14.5038},{"city":"Nusle","state":"Prague","population":35150,"lat":50.06458,"lng":14.4399},{"city":"Smíchov","state":"Prague","population":34987,"lat":50.07204,"lng":14.40415},{"city":"Orlová","state":"Moravskoslezský","population":34282,"lat":49.84527,"lng":18.43011},{"city":"Modřany","state":"Prague","population":33574,"lat":50.01116,"lng":14.4096},{"city":"Cheb","state":"Karlovarský kraj","population":33242,"lat":50.07963,"lng":12.37392},{"city":"Trutnov","state":"Královéhradecký kraj","population":31398,"lat":50.56101,"lng":15.9127},{"city":"Písek","state":"Jihočeský kraj","population":29774,"lat":49.3088,"lng":14.1475},{"city":"Kolín","state":"Central Bohemia","population":29690,"lat":50.02806,"lng":15.1998},{"city":"Šumperk","state":"Olomoucký","population":28768,"lat":49.96528,"lng":16.97061},{"city":"Vsetín","state":"Zlín","population":28575,"lat":49.33871,"lng":17.99619},{"city":"Kroměříž","state":"Zlín","population":27917,"lat":49.29785,"lng":17.39312},{"city":"Valašské Meziříčí","state":"Zlín","population":27481,"lat":49.47181,"lng":17.97113},{"city":"Krč","state":"Prague","population":27344,"lat":50.0416,"lng":14.44573},{"city":"Nové Město","state":"Prague","population":27105,"lat":50.07829,"lng":14.42089},{"city":"Kobylisy","state":"Prague","population":27030,"lat":50.12366,"lng":14.45209},{"city":"Litvínov","state":"Ústecký kraj","population":27022,"lat":50.6042,"lng":13.61812},{"city":"Nový Jičín","state":"Moravskoslezský","population":26547,"lat":49.59438,"lng":18.01028},{"city":"Uherské Hradiště","state":"Zlín","population":26421,"lat":49.06975,"lng":17.45969},{"city":"Hodonín","state":"South Moravian","population":26345,"lat":48.84893,"lng":17.13244},{"city":"Břeclav","state":"South Moravian","population":25789,"lat":48.75897,"lng":16.88203},{"city":"Český Těšín","state":"Moravskoslezský","population":25750,"lat":49.74613,"lng":18.62613},{"city":"Krnov","state":"Moravskoslezský","population":25547,"lat":50.08967,"lng":17.70385},{"city":"Sokolov","state":"Karlovarský kraj","population":24901,"lat":50.1813,"lng":12.6401},{"city":"Litoměřice","state":"Ústecký kraj","population":24489,"lat":50.53348,"lng":14.1318},{"city":"Havlíčkův Brod","state":"Vysočina","population":24356,"lat":49.6069,"lng":15.57937},{"city":"Chrudim","state":"Pardubický","population":23630,"lat":49.95109,"lng":15.79558},{"city":"Strakonice","state":"Jihočeský kraj","population":23545,"lat":49.26141,"lng":13.90237},{"city":"Hlubočepy","state":"Prague","population":23461,"lat":50.04364,"lng":14.40162},{"city":"Kopřivnice","state":"Moravskoslezský","population":23424,"lat":49.59947,"lng":18.1448},{"city":"Dejvice","state":"Prague","population":23401,"lat":50.10079,"lng":14.39071},{"city":"Klatovy","state":"Plzeň Region","population":23102,"lat":49.39552,"lng":13.29505},{"city":"Bohumín","state":"Moravskoslezský","population":23075,"lat":49.90411,"lng":18.35755},{"city":"Starý Bohumín","state":"Moravskoslezský","population":23034,"lat":49.9169,"lng":18.33619},{"city":"Jindřichův Hradec","state":"Jihočeský kraj","population":22812,"lat":49.14404,"lng":15.00301},{"city":"Černý Most","state":"Prague","population":22466,"lat":50.10475,"lng":14.57974},{"city":"Řepy","state":"Prague","population":22461,"lat":50.07064,"lng":14.30051},{"city":"Vyškov","state":"South Moravian","population":22265,"lat":49.27747,"lng":16.99897},{"city":"Háje","state":"Prague","population":22059,"lat":50.03611,"lng":14.52672},{"city":"Letňany","state":"Prague","population":21702,"lat":50.13333,"lng":14.51667},{"city":"Michle","state":"Prague","population":21402,"lat":50.04795,"lng":14.46217},{"city":"Kutná Hora","state":"Central Bohemia","population":21280,"lat":49.94839,"lng":15.26816},{"city":"Náchod","state":"Královéhradecký kraj","population":21263,"lat":50.4167,"lng":16.16289},{"city":"Jirkov","state":"Ústecký kraj","population":21056,"lat":50.49979,"lng":13.44769},{"city":"Žďár nad Sázavou","state":"Vysočina","population":20847,"lat":49.56263,"lng":15.93924},{"city":"Blansko","state":"South Moravian","population":20384,"lat":49.36304,"lng":16.64446},{"city":"Žatec","state":"Ústecký kraj","population":19607,"lat":50.32717,"lng":13.54577},{"city":"Hranice","state":"Olomoucký","population":19582,"lat":49.54796,"lng":17.73469},{"city":"Mělník","state":"Central Bohemia","population":19231,"lat":50.3505,"lng":14.47411},{"city":"Hostivař","state":"Prague","population":19161,"lat":50.04862,"lng":14.5244},{"city":"Louny","state":"Ústecký kraj","population":19147,"lat":50.35699,"lng":13.79667},{"city":"Otrokovice","state":"Zlín","population":18857,"lat":49.20934,"lng":17.53944},{"city":"Kadaň","state":"Ústecký kraj","population":18759,"lat":50.38333,"lng":13.26667},{"city":"Braník","state":"Prague","population":17777,"lat":50.03498,"lng":14.41518},{"city":"Bruntál","state":"Moravskoslezský","population":17686,"lat":49.98844,"lng":17.4647},{"city":"Beroun","state":"Central Bohemia","population":17550,"lat":49.96382,"lng":14.072},{"city":"Uherský Brod","state":"Zlín","population":17508,"lat":49.02513,"lng":17.64715},{"city":"Vysočany","state":"Prague","population":17465,"lat":50.10938,"lng":14.51667},{"city":"Svitavy","state":"Pardubický","population":17427,"lat":49.75594,"lng":16.46829},{"city":"Kralupy nad Vltavou","state":"Central Bohemia","population":17373,"lat":50.24107,"lng":14.31149},{"city":"Rožnov pod Radhoštěm","state":"Zlín","population":17238,"lat":49.45853,"lng":18.14302},{"city":"Ostrov","state":"Karlovarský kraj","population":17206,"lat":50.30592,"lng":12.93907},{"city":"Prosek","state":"Prague","population":16850,"lat":50.11525,"lng":14.50685},{"city":"Česká Třebová","state":"Pardubický","population":16655,"lat":49.90436,"lng":16.44413},{"city":"Pelhřimov","state":"Vysočina","population":16541,"lat":49.43134,"lng":15.22336},{"city":"Rakovník","state":"Central Bohemia","population":16473,"lat":50.1037,"lng":13.7334},{"city":"Bohnice","state":"Prague","population":16444,"lat":50.13333,"lng":14.41667},{"city":"Neratovice","state":"Central Bohemia","population":16427,"lat":50.25926,"lng":14.51759},{"city":"Jičín","state":"Královéhradecký kraj","population":16328,"lat":50.43723,"lng":15.35162},{"city":"Benešov","state":"Central Bohemia","population":16257,"lat":49.78162,"lng":14.68697},{"city":"Dvůr Králové nad Labem","state":"Královéhradecký kraj","population":16150,"lat":50.43172,"lng":15.81402},{"city":"Košíře","state":"Prague","population":16145,"lat":50.06708,"lng":14.36328},{"city":"Varnsdorf","state":"Ústecký kraj","population":15895,"lat":50.91154,"lng":14.61824},{"city":"Bílina","state":"Ústecký kraj","population":15738,"lat":50.54854,"lng":13.77535},{"city":"Střížkov","state":"Prague","population":15705,"lat":50.12674,"lng":14.49363},{"city":"Brandýs nad Labem-Stará Boleslav","state":"Central Bohemia","population":15398,"lat":50.18709,"lng":14.66326},{"city":"Horní Měcholupy","state":"Prague","population":15303,"lat":50.05,"lng":14.56667},{"city":"Ústí nad Orlicí","state":"Pardubický","population":15151,"lat":49.97387,"lng":16.39361},{"city":"Slaný","state":"Central Bohemia","population":15070,"lat":50.23046,"lng":14.08693},{"city":"Klášterec nad Ohří","state":"Ústecký kraj","population":15040,"lat":50.3886,"lng":13.18342},{"city":"Turnov","state":"Liberecký kraj","population":14507,"lat":50.58356,"lng":15.15186},{"city":"Chodov","state":"Karlovarský kraj","population":14454,"lat":50.24018,"lng":12.74551},{"city":"Nymburk","state":"Central Bohemia","population":14373,"lat":50.18605,"lng":15.04167},{"city":"Zábřeh","state":"Olomoucký","population":14360,"lat":49.8826,"lng":16.87223},{"city":"Troja","state":"Prague","population":14303,"lat":50.11659,"lng":14.42458},{"city":"Horní Počernice","state":"Prague","population":14296,"lat":50.1121,"lng":14.61036},{"city":"Mariánské Lázně","state":"Karlovarský kraj","population":14277,"lat":49.96459,"lng":12.70118},{"city":"Hlučín","state":"Moravskoslezský","population":14228,"lat":49.89795,"lng":18.19196},{"city":"Bohunice","state":"South Moravian","population":14212,"lat":49.16734,"lng":16.57751},{"city":"Český Krumlov","state":"Jihočeský kraj","population":14146,"lat":48.81091,"lng":14.31521},{"city":"Hloubětín","state":"Prague","population":14074,"lat":50.10621,"lng":14.53723},{"city":"Šternberk","state":"Olomoucký","population":13967,"lat":49.73044,"lng":17.29889},{"city":"Rokycany","state":"Plzeň Region","population":13826,"lat":49.7427,"lng":13.59459},{"city":"Krupka","state":"Ústecký kraj","population":13687,"lat":50.68449,"lng":13.85815},{"city":"Podolí","state":"Prague","population":13611,"lat":50.05504,"lng":14.42033},{"city":"Aš","state":"Karlovarský kraj","population":13210,"lat":50.22387,"lng":12.19499},{"city":"Poděbrady","state":"Central Bohemia","population":13128,"lat":50.14242,"lng":15.11881},{"city":"Roudnice nad Labem","state":"Ústecký kraj","population":13084,"lat":50.42528,"lng":14.26175},{"city":"Vrchlabí","state":"Královéhradecký kraj","population":12898,"lat":50.62697,"lng":15.60937},{"city":"Jaroměř","state":"Královéhradecký kraj","population":12831,"lat":50.3562,"lng":15.92136},{"city":"Tachov","state":"Plzeň Region","population":12640,"lat":49.79528,"lng":12.63365},{"city":"Jeseník","state":"Olomoucký","population":12457,"lat":50.22937,"lng":17.20464},{"city":"Uničov","state":"Olomoucký","population":12385,"lat":49.77092,"lng":17.12144},{"city":"Holešov","state":"Zlín","population":12384,"lat":49.33331,"lng":17.57832},{"city":"Vysoké Mýto","state":"Pardubický","population":12293,"lat":49.9532,"lng":16.16169},{"city":"Karlín","state":"Prague","population":12261,"lat":50.09272,"lng":14.44711},{"city":"Vlašim","state":"Central Bohemia","population":12225,"lat":49.70632,"lng":14.89881},{"city":"Kyjov","state":"South Moravian","population":12191,"lat":49.01018,"lng":17.12253},{"city":"Nový Bor","state":"Liberecký kraj","population":12171,"lat":50.75761,"lng":14.55555},{"city":"Veselí nad Moravou","state":"South Moravian","population":12081,"lat":48.95363,"lng":17.37648},{"city":"Prachatice","state":"Jihočeský kraj","population":11803,"lat":49.01292,"lng":13.99752},{"city":"Velké Meziříčí","state":"Vysočina","population":11753,"lat":49.35522,"lng":16.01224},{"city":"Rychnov nad Kněžnou","state":"Královéhradecký kraj","population":11695,"lat":50.16284,"lng":16.27488},{"city":"Sušice","state":"Plzeň Region","population":11483,"lat":49.23106,"lng":13.52018},{"city":"Moravská Třebová","state":"Pardubický","population":11414,"lat":49.75793,"lng":16.66426},{"city":"Frenštát pod Radhoštěm","state":"Moravskoslezský","population":11334,"lat":49.54835,"lng":18.21078},{"city":"Říčany","state":"Central Bohemia","population":11329,"lat":49.99168,"lng":14.65427},{"city":"Malešice","state":"Prague","population":11237,"lat":50.08471,"lng":14.50938},{"city":"Boskovice","state":"South Moravian","population":11121,"lat":49.48751,"lng":16.65997},{"city":"Rumburk","state":"Ústecký kraj","population":11101,"lat":50.95151,"lng":14.55699},{"city":"Vokovice","state":"Prague","population":11083,"lat":50.09856,"lng":14.34488},{"city":"Uhříněves","state":"Prague","population":10992,"lat":50.02885,"lng":14.59948},{"city":"Domažlice","state":"Plzeň Region","population":10944,"lat":49.44049,"lng":12.92976},{"city":"Humpolec","state":"Vysočina","population":10914,"lat":49.54152,"lng":15.35932},{"city":"Újezd nad Lesy","state":"Prague","population":10429,"lat":50.07648,"lng":14.6595},{"city":"Hlinsko","state":"Pardubický","population":10411,"lat":49.76213,"lng":15.90756},{"city":"Studénka","state":"Moravskoslezský","population":10341,"lat":49.72342,"lng":18.07853},{"city":"Litomyšl","state":"Pardubický","population":10146,"lat":49.86809,"lng":16.31298},{"city":"Nové Město nad Metují","state":"Královéhradecký kraj","population":10126,"lat":50.34456,"lng":16.15147},{"city":"Čelákovice","state":"Central Bohemia","population":10125,"lat":50.16038,"lng":14.75005},{"city":"Nové Město na Moravě","state":"Vysočina","population":10098,"lat":49.56144,"lng":16.07418},{"city":"Kunratice","state":"Prague","population":10091,"lat":50.01364,"lng":14.48341},{"city":"Litovel","state":"Olomoucký","population":10062,"lat":49.70121,"lng":17.07615},{"city":"Kyje","state":"Prague","population":10031,"lat":50.09729,"lng":14.5477},{"city":"Čáslav","state":"Central Bohemia","population":10025,"lat":49.91099,"lng":15.38972},{"city":"Ivančice","state":"South Moravian","population":9898,"lat":49.10144,"lng":16.37752},{"city":"Chotěboř","state":"Vysočina","population":9849,"lat":49.72072,"lng":15.67018},{"city":"Lanškroun","state":"Pardubický","population":9847,"lat":49.91217,"lng":16.6119},{"city":"Frýdlant nad Ostravicí","state":"Moravskoslezský","population":9824,"lat":49.5928,"lng":18.35967},{"city":"Zbraslav","state":"Prague","population":9759,"lat":49.97604,"lng":14.39329},{"city":"Mohelnice","state":"Olomoucký","population":9742,"lat":49.77698,"lng":16.91946},{"city":"Milevsko","state":"Jihočeský kraj","population":9343,"lat":49.45089,"lng":14.36},{"city":"Kuřim","state":"South Moravian","population":9283,"lat":49.29852,"lng":16.53144},{"city":"Nová Paka","state":"Královéhradecký kraj","population":9219,"lat":50.49449,"lng":15.51503},{"city":"Lovosice","state":"Ústecký kraj","population":9196,"lat":50.51504,"lng":14.05103},{"city":"Štětí","state":"Ústecký kraj","population":9165,"lat":50.45298,"lng":14.37421},{"city":"Polička","state":"Pardubický","population":9129,"lat":49.71465,"lng":16.26543},{"city":"Rýmařov","state":"Moravskoslezský","population":9069,"lat":49.93183,"lng":17.27177},{"city":"Semily","state":"Liberecký kraj","population":9040,"lat":50.60191,"lng":15.33552},{"city":"Choceň","state":"Pardubický","population":9008,"lat":50.00161,"lng":16.22303},{"city":"Bystřice nad Pernštejnem","state":"Vysočina","population":8996,"lat":49.52295,"lng":16.26147},{"city":"Duchcov","state":"Ústecký kraj","population":8937,"lat":50.60376,"lng":13.74621},{"city":"Hořice","state":"Královéhradecký kraj","population":8899,"lat":50.36609,"lng":15.63183},{"city":"Třeboň","state":"Jihočeský kraj","population":8862,"lat":49.00364,"lng":14.77065},{"city":"Dobříš","state":"Central Bohemia","population":8828,"lat":49.78113,"lng":14.16717},{"city":"Čakovice","state":"Prague","population":8807,"lat":50.15128,"lng":14.52393},{"city":"Příbor","state":"Moravskoslezský","population":8789,"lat":49.64094,"lng":18.14499},{"city":"Hostivice","state":"Central Bohemia","population":8777,"lat":50.08158,"lng":14.25856},{"city":"Bystřice pod Hostýnem","state":"Zlín","population":8727,"lat":49.39924,"lng":17.67401},{"city":"Roztoky","state":"Central Bohemia","population":8611,"lat":50.15841,"lng":14.3976},{"city":"Přelouč","state":"Pardubický","population":8586,"lat":50.03985,"lng":15.56031},{"city":"Nejdek","state":"Karlovarský kraj","population":8565,"lat":50.32242,"lng":12.72936},{"city":"Radotín","state":"Prague","population":8462,"lat":49.98985,"lng":14.36572},{"city":"Červený Kostelec","state":"Královéhradecký kraj","population":8441,"lat":50.47626,"lng":16.09289},{"city":"Lipník nad Bečvou","state":"Olomoucký","population":8369,"lat":49.52721,"lng":17.58594},{"city":"Mnichovo Hradiště","state":"Central Bohemia","population":8368,"lat":50.5272,"lng":14.97134},{"city":"Týn nad Vltavou","state":"Jihočeský kraj","population":8296,"lat":49.2234,"lng":14.42057},{"city":"Broumov","state":"Královéhradecký kraj","population":8254,"lat":50.58566,"lng":16.33181},{"city":"Tišnov","state":"South Moravian","population":8227,"lat":49.34872,"lng":16.42438},{"city":"Lysá nad Labem","state":"Central Bohemia","population":8194,"lat":50.20143,"lng":14.83281},{"city":"Ruzyně","state":"Prague","population":8188,"lat":50.09033,"lng":14.31287},{"city":"Vimperk","state":"Jihočeský kraj","population":8043,"lat":49.05857,"lng":13.78286},{"city":"Moravské Budějovice","state":"Vysočina","population":7971,"lat":49.05209,"lng":15.80864},{"city":"Dačice","state":"Jihočeský kraj","population":7958,"lat":49.08154,"lng":15.43727},{"city":"Sedlčany","state":"Central Bohemia","population":7836,"lat":49.66057,"lng":14.42664},{"city":"Stříbro","state":"Plzeň Region","population":7689,"lat":49.75565,"lng":12.997},{"city":"Napajedla","state":"Zlín","population":7662,"lat":49.17156,"lng":17.51194},{"city":"Mikulov","state":"South Moravian","population":7608,"lat":48.80556,"lng":16.6378},{"city":"Dubí","state":"Ústecký kraj","population":7591,"lat":50.68558,"lng":13.78561},{"city":"Zlíčín","state":"Prague","population":7579,"lat":50.06182,"lng":14.28965},{"city":"Hulín","state":"Zlín","population":7571,"lat":49.31689,"lng":17.46374},{"city":"Jinonice","state":"Prague","population":7556,"lat":50.05042,"lng":14.37835},{"city":"Bílovec","state":"Moravskoslezský","population":7486,"lat":49.75639,"lng":18.01581},{"city":"Frýdlant","state":"Liberecký kraj","population":7471,"lat":50.92139,"lng":15.07974},{"city":"Sezimovo Ústí","state":"Jihočeský kraj","population":7420,"lat":49.38519,"lng":14.6848},{"city":"Odry","state":"Moravskoslezský","population":7395,"lat":49.66255,"lng":17.83084},{"city":"Černošice","state":"Central Bohemia","population":7329,"lat":49.96008,"lng":14.31979},{"city":"Hrádek nad Nisou","state":"Liberecký kraj","population":7327,"lat":50.85279,"lng":14.84455},{"city":"Soběslav","state":"Jihočeský kraj","population":7308,"lat":49.25993,"lng":14.71861},{"city":"Kbely","state":"Prague","population":7216,"lat":50.13333,"lng":14.55},{"city":"Kaplice","state":"Jihočeský kraj","population":7195,"lat":48.73881,"lng":14.49449},{"city":"Nový Bydžov","state":"Královéhradecký kraj","population":7160,"lat":50.2415,"lng":15.49082},{"city":"Kraslice","state":"Karlovarský kraj","population":7159,"lat":50.32372,"lng":12.51747},{"city":"Šlapanice","state":"South Moravian","population":7109,"lat":49.16863,"lng":16.72731},{"city":"Dobruška","state":"Královéhradecký kraj","population":7085,"lat":50.29201,"lng":16.16001},{"city":"Slavičín","state":"Zlín","population":7079,"lat":49.08799,"lng":17.87349},{"city":"Český Brod","state":"Central Bohemia","population":7071,"lat":50.0742,"lng":14.86081},{"city":"Světlá nad Sázavou","state":"Vysočina","population":7037,"lat":49.66801,"lng":15.40393},{"city":"Nýřany","state":"Plzeň Region","population":6942,"lat":49.71145,"lng":13.21185},{"city":"Tanvald","state":"Liberecký kraj","population":6921,"lat":50.73735,"lng":15.30585},{"city":"Petřvald","state":"Moravskoslezský","population":6854,"lat":49.831,"lng":18.3894},{"city":"Benátky nad Jizerou","state":"Central Bohemia","population":6818,"lat":50.29085,"lng":14.82343},{"city":"Kravaře","state":"Moravskoslezský","population":6787,"lat":49.93203,"lng":18.00472},{"city":"Rychvald","state":"Moravskoslezský","population":6771,"lat":49.86625,"lng":18.37626},{"city":"Staré Město","state":"Zlín","population":6742,"lat":49.07515,"lng":17.43338},{"city":"Blatná","state":"Jihočeský kraj","population":6735,"lat":49.42489,"lng":13.88176},{"city":"Letovice","state":"South Moravian","population":6720,"lat":49.54709,"lng":16.57357},{"city":"Mimoň","state":"Liberecký kraj","population":6692,"lat":50.65869,"lng":14.72474},{"city":"Vodňany","state":"Jihočeský kraj","population":6687,"lat":49.14789,"lng":14.17513},{"city":"Dubňany","state":"South Moravian","population":6649,"lat":48.91694,"lng":17.09004},{"city":"Veleslavín","state":"Prague","population":6614,"lat":50.09151,"lng":14.35776},{"city":"Střešovice","state":"Prague","population":6592,"lat":50.09526,"lng":14.38268},{"city":"Čimice","state":"Prague","population":6586,"lat":50.13757,"lng":14.43279},{"city":"Veselí nad Lužnicí","state":"Jihočeský kraj","population":6534,"lat":49.1843,"lng":14.69734},{"city":"Hronov","state":"Královéhradecký kraj","population":6516,"lat":50.47968,"lng":16.1823},{"city":"Železný Brod","state":"Liberecký kraj","population":6442,"lat":50.64274,"lng":15.25408},{"city":"Hořovice","state":"Central Bohemia","population":6431,"lat":49.83597,"lng":13.90268},{"city":"Kojetín","state":"Olomoucký","population":6397,"lat":49.35179,"lng":17.30207},{"city":"Bučovice","state":"South Moravian","population":6386,"lat":49.14896,"lng":17.00191},{"city":"Vratimov","state":"Moravskoslezský","population":6378,"lat":49.76995,"lng":18.31015},{"city":"Přeštice","state":"Plzeň Region","population":6353,"lat":49.57298,"lng":13.3335},{"city":"Malá Strana","state":"Prague","population":6350,"lat":50.08774,"lng":14.40449},{"city":"Týniště nad Orlicí","state":"Královéhradecký kraj","population":6342,"lat":50.15136,"lng":16.0777},{"city":"Staré Město","state":"Prague","population":6272,"lat":50.087,"lng":14.42024},{"city":"Suchdol","state":"Prague","population":6270,"lat":50.14136,"lng":14.38367},{"city":"Holice","state":"Pardubický","population":6219,"lat":50.06601,"lng":15.9859},{"city":"Podbořany","state":"Ústecký kraj","population":6212,"lat":50.22937,"lng":13.41192},{"city":"Vítkov","state":"Moravskoslezský","population":6202,"lat":49.77445,"lng":17.74941},{"city":"Letohrad","state":"Pardubický","population":6195,"lat":50.0358,"lng":16.49879},{"city":"Kostelec nad Orlicí","state":"Královéhradecký kraj","population":6184,"lat":50.12267,"lng":16.21319},{"city":"Fulnek","state":"Moravskoslezský","population":6107,"lat":49.71238,"lng":17.90319},{"city":"Žamberk","state":"Pardubický","population":6082,"lat":50.08601,"lng":16.46738},{"city":"Vrbno pod Pradědem","state":"Moravskoslezský","population":6072,"lat":50.12095,"lng":17.38316},{"city":"Chrastava","state":"Liberecký kraj","population":6051,"lat":50.81693,"lng":14.96884},{"city":"Moravský Krumlov","state":"South Moravian","population":6050,"lat":49.04893,"lng":16.31169},{"city":"Ledeč nad Sázavou","state":"Vysočina","population":6048,"lat":49.69517,"lng":15.27772},{"city":"Třešť","state":"Vysočina","population":5979,"lat":49.29092,"lng":15.48211},{"city":"Úpice","state":"Královéhradecký kraj","population":5959,"lat":50.51237,"lng":16.01607},{"city":"Lomnice nad Popelkou","state":"Liberecký kraj","population":5957,"lat":50.53062,"lng":15.37341},{"city":"Slavkov u Brna","state":"South Moravian","population":5936,"lat":49.15325,"lng":16.87649},{"city":"Hustopeče","state":"South Moravian","population":5913,"lat":48.94085,"lng":16.73762},{"city":"Strážnice","state":"South Moravian","population":5900,"lat":48.90102,"lng":17.3168},{"city":"Telč","state":"Vysočina","population":5883,"lat":49.18418,"lng":15.45275},{"city":"Horní Slavkov","state":"Karlovarský kraj","population":5818,"lat":50.13863,"lng":12.80758},{"city":"Králův Dvůr","state":"Central Bohemia","population":5805,"lat":49.94981,"lng":14.03445},{"city":"Jablunkov","state":"Moravskoslezský","population":5782,"lat":49.57672,"lng":18.76458},{"city":"Dobřany","state":"Plzeň Region","population":5779,"lat":49.65482,"lng":13.29307},{"city":"Jilemnice","state":"Liberecký kraj","population":5777,"lat":50.6089,"lng":15.50653},{"city":"Bechyně","state":"Jihočeský kraj","population":5755,"lat":49.29523,"lng":14.4681},{"city":"Petrovice","state":"Prague","population":5753,"lat":50.03399,"lng":14.54676},{"city":"Rousínov","state":"South Moravian","population":5730,"lat":49.20128,"lng":16.88215},{"city":"Horažďovice","state":"Plzeň Region","population":5727,"lat":49.32069,"lng":13.701},{"city":"Šluknov","state":"Ústecký kraj","population":5701,"lat":51.00369,"lng":14.45258},{"city":"Třebechovice pod Orebem","state":"Královéhradecký kraj","population":5611,"lat":50.20097,"lng":15.99223},{"city":"Luhačovice","state":"Zlín","population":5554,"lat":49.09982,"lng":17.75747},{"city":"Libuš","state":"Prague","population":5540,"lat":50.00956,"lng":14.46196},{"city":"Stochov","state":"Central Bohemia","population":5538,"lat":50.14631,"lng":13.96345},{"city":"Česká Kamenice","state":"Ústecký kraj","population":5475,"lat":50.7978,"lng":14.41767},{"city":"Šenov","state":"Moravskoslezský","population":5462,"lat":49.79315,"lng":18.37607},{"city":"Milovice","state":"Central Bohemia","population":5461,"lat":50.22596,"lng":14.88863},{"city":"Kunovice","state":"Zlín","population":5452,"lat":49.04499,"lng":17.47011},{"city":"Planá","state":"Plzeň Region","population":5450,"lat":49.86816,"lng":12.74378},{"city":"Skuteč","state":"Pardubický","population":5415,"lat":49.84347,"lng":15.99655},{"city":"Zubří","state":"Zlín","population":5409,"lat":49.46603,"lng":18.09249},{"city":"Česká Skalice","state":"Královéhradecký kraj","population":5402,"lat":50.39467,"lng":16.04276},{"city":"Brumov-Bylnice","state":"Zlín","population":5400,"lat":49.09177,"lng":18.02238},{"city":"Františkovy Lázně","state":"Karlovarský kraj","population":5355,"lat":50.12033,"lng":12.35174},{"city":"Habartov","state":"Karlovarský kraj","population":5337,"lat":50.18297,"lng":12.55054},{"city":"Pohořelice","state":"South Moravian","population":5312,"lat":48.98119,"lng":16.52445},{"city":"Jílové","state":"Ústecký kraj","population":5307,"lat":50.76082,"lng":14.10383},{"city":"Chlumec nad Cidlinou","state":"Královéhradecký kraj","population":5292,"lat":50.1544,"lng":15.46026},{"city":"Rosice","state":"South Moravian","population":5287,"lat":49.18232,"lng":16.38787},{"city":"Hradec nad Moravicí","state":"Moravskoslezský","population":5255,"lat":49.87042,"lng":17.87843},{"city":"Valašské Klobouky","state":"Zlín","population":5201,"lat":49.14064,"lng":18.0076},{"city":"Chropyně","state":"Zlín","population":5172,"lat":49.35644,"lng":17.36451},{"city":"Týnec nad Sázavou","state":"Central Bohemia","population":5165,"lat":49.83348,"lng":14.58983},{"city":"Pacov","state":"Vysočina","population":5145,"lat":49.47076,"lng":15.00168},{"city":"Kynšperk nad Ohří","state":"Karlovarský kraj","population":5085,"lat":50.11893,"lng":12.53027},{"city":"Nové Strašecí","state":"Central Bohemia","population":5082,"lat":50.15272,"lng":13.90043},{"city":"Bystřice","state":"Moravskoslezský","population":5076,"lat":49.63657,"lng":18.72038},{"city":"Nýrsko","state":"Plzeň Region","population":5070,"lat":49.29387,"lng":13.14353},{"city":"Dolní Chabry","state":"Prague","population":5035,"lat":50.14633,"lng":14.44848},{"city":"Doksy","state":"Liberecký kraj","population":5025,"lat":50.56471,"lng":14.65553},{"city":"Polná","state":"Vysočina","population":5006,"lat":49.487,"lng":15.71881},{"city":"Kdyně","state":"Plzeň Region","population":4985,"lat":49.39077,"lng":13.03968},{"city":"Osek","state":"Ústecký kraj","population":4975,"lat":50.62115,"lng":13.69274},{"city":"Petrovice u Karviné","state":"Moravskoslezský","population":4971,"lat":49.89587,"lng":18.54779},{"city":"Zruč nad Sázavou","state":"Central Bohemia","population":4925,"lat":49.7401,"lng":15.10606},{"city":"Postoloprty","state":"Ústecký kraj","population":4924,"lat":50.35979,"lng":13.70291},{"city":"Jílové u Prahy","state":"Central Bohemia","population":4919,"lat":49.89545,"lng":14.49333},{"city":"Horšovský Týn","state":"Plzeň Region","population":4905,"lat":49.52965,"lng":12.94405},{"city":"Meziboři","state":"Ústecký kraj","population":4885,"lat":50.62115,"lng":13.5987},{"city":"Adamov","state":"South Moravian","population":4871,"lat":49.30162,"lng":16.65253},{"city":"Bělá pod Bezdězem","state":"Central Bohemia","population":4855,"lat":50.50121,"lng":14.80418},{"city":"Velká Bíteš","state":"Vysočina","population":4843,"lat":49.28838,"lng":16.22742},{"city":"Heřmanův Městec","state":"Pardubický","population":4841,"lat":49.94707,"lng":15.66492},{"city":"Úvaly","state":"Central Bohemia","population":4797,"lat":50.07394,"lng":14.7308},{"city":"Hostinné","state":"Královéhradecký kraj","population":4795,"lat":50.54066,"lng":15.72334},{"city":"Vamberk","state":"Královéhradecký kraj","population":4768,"lat":50.11756,"lng":16.29067},{"city":"Náměšť nad Oslavou","state":"Vysočina","population":4767,"lat":49.20726,"lng":16.15849},{"city":"Protivín","state":"Jihočeský kraj","population":4760,"lat":49.19949,"lng":14.21717},{"city":"Bojkovice","state":"Zlín","population":4742,"lat":49.03864,"lng":17.81487},{"city":"Řeporyje","state":"Prague","population":4729,"lat":50.03179,"lng":14.31667},{"city":"Králíky","state":"Pardubický","population":4723,"lat":50.08384,"lng":16.76054},{"city":"Dolní Lutyně","state":"Moravskoslezský","population":4712,"lat":49.89876,"lng":18.42815},{"city":"Trhové Sviny","state":"Jihočeský kraj","population":4705,"lat":48.84231,"lng":14.63924},{"city":"Hluboká nad Vltavou","state":"Jihočeský kraj","population":4682,"lat":49.05225,"lng":14.43427},{"city":"Holýšov","state":"Plzeň Region","population":4659,"lat":49.59361,"lng":13.10129},{"city":"Třemošná","state":"Plzeň Region","population":4654,"lat":49.81584,"lng":13.39499},{"city":"Ludgeřovice","state":"Moravskoslezský","population":4635,"lat":49.89042,"lng":18.24008},{"city":"Oslavany","state":"South Moravian","population":4561,"lat":49.12335,"lng":16.33653},{"city":"Uherský Ostroh","state":"Zlín","population":4526,"lat":48.98556,"lng":17.38984},{"city":"Vizovice","state":"Zlín","population":4518,"lat":49.22287,"lng":17.85455},{"city":"Vracov","state":"South Moravian","population":4491,"lat":48.97523,"lng":17.211},{"city":"Horní Suchá","state":"Moravskoslezský","population":4466,"lat":49.7978,"lng":18.48189},{"city":"Horní Bříza","state":"Plzeň Region","population":4463,"lat":49.84012,"lng":13.35558},{"city":"Votice","state":"Central Bohemia","population":4461,"lat":49.64013,"lng":14.63809},{"city":"Odolena Voda","state":"Central Bohemia","population":4451,"lat":50.23341,"lng":14.41078},{"city":"Hlubočky","state":"Olomoucký","population":4448,"lat":49.61783,"lng":17.39436},{"city":"Zlaté Hory","state":"Olomoucký","population":4446,"lat":50.2638,"lng":17.39602},{"city":"Cvikov","state":"Liberecký kraj","population":4435,"lat":50.77668,"lng":14.63298},{"city":"Hluk","state":"Zlín","population":4424,"lat":48.98805,"lng":17.52744},{"city":"Bakov nad Jizerou","state":"Central Bohemia","population":4417,"lat":50.4823,"lng":14.94149},{"city":"Starý Plzenec","state":"Plzeň Region","population":4387,"lat":49.69768,"lng":13.4735},{"city":"Pečky","state":"Central Bohemia","population":4317,"lat":50.09043,"lng":15.03017},{"city":"Police nad Metují","state":"Královéhradecký kraj","population":4316,"lat":50.53687,"lng":16.2335},{"city":"Bzenec","state":"South Moravian","population":4315,"lat":48.97336,"lng":17.26685},{"city":"Dolní Benešov","state":"Moravskoslezský","population":4314,"lat":49.92101,"lng":18.10835},{"city":"Jemnice","state":"Vysočina","population":4311,"lat":49.01898,"lng":15.56994},{"city":"Rožmitál pod Třemšínem","state":"Central Bohemia","population":4203,"lat":49.60196,"lng":13.8643},{"city":"Bolatice","state":"Moravskoslezský","population":4186,"lat":49.95172,"lng":18.08358},{"city":"Mníšek pod Brdy","state":"Central Bohemia","population":4181,"lat":49.8665,"lng":14.26176},{"city":"Jaroměřice nad Rokytnou","state":"Vysočina","population":4171,"lat":49.09408,"lng":15.89331},{"city":"Chlumec","state":"Ústecký kraj","population":4170,"lat":50.69972,"lng":13.93964},{"city":"Velké Opatovice","state":"South Moravian","population":4169,"lat":49.61237,"lng":16.67947},{"city":"Kostelec nad Labem","state":"Central Bohemia","population":4156,"lat":50.22653,"lng":14.58552},{"city":"Kamenice nad Lipou","state":"Vysočina","population":4148,"lat":49.30303,"lng":15.07519},{"city":"Horní Těrlicko","state":"Moravskoslezský","population":4134,"lat":49.75177,"lng":18.4829},{"city":"Stráž pod Ralskem","state":"Liberecký kraj","population":4068,"lat":50.7028,"lng":14.80102},{"city":"Volary","state":"Jihočeský kraj","population":4059,"lat":48.90881,"lng":13.88657},{"city":"Zdice","state":"Central Bohemia","population":4047,"lat":49.91207,"lng":13.97747},{"city":"Nová Role","state":"Karlovarský kraj","population":4047,"lat":50.27092,"lng":12.78422},{"city":"Benešov nad Ploučnicí","state":"Ústecký kraj","population":4043,"lat":50.74159,"lng":14.31239},{"city":"Bor","state":"Plzeň Region","population":4025,"lat":49.71159,"lng":12.77516},{"city":"Velešín","state":"Jihočeský kraj","population":4023,"lat":48.82949,"lng":14.46252},{"city":"Albrechtice","state":"Moravskoslezský","population":4019,"lat":49.78645,"lng":18.52444},{"city":"Slatiňany","state":"Pardubický","population":4004,"lat":49.9211,"lng":15.81377},{"city":"Bystřice","state":"Central Bohemia","population":3993,"lat":49.73213,"lng":14.6674},{"city":"Mosty u Jablunkova","state":"Moravskoslezský","population":3989,"lat":49.52737,"lng":18.75417},{"city":"Lišov","state":"Jihočeský kraj","population":3989,"lat":49.01597,"lng":14.60838},{"city":"Kamenický Šenov","state":"Liberecký kraj","population":3982,"lat":50.77359,"lng":14.47287},{"city":"Přibyslav","state":"Vysočina","population":3965,"lat":49.57684,"lng":15.73855},{"city":"Rajhrad","state":"South Moravian","population":3956,"lat":49.09021,"lng":16.60388},{"city":"Ratíškovice","state":"South Moravian","population":3955,"lat":48.92002,"lng":17.16561},{"city":"Jiříkov","state":"Ústecký kraj","population":3926,"lat":50.99514,"lng":14.5691},{"city":"Vendryně","state":"Moravskoslezský","population":3918,"lat":49.66662,"lng":18.71307},{"city":"Nové Město pod Smrkem","state":"Liberecký kraj","population":3915,"lat":50.92491,"lng":15.22943},{"city":"Blovice","state":"Plzeň Region","population":3901,"lat":49.5822,"lng":13.54009},{"city":"Zbýšov","state":"South Moravian","population":3890,"lat":49.15524,"lng":16.34951},{"city":"Návsí","state":"Moravskoslezský","population":3880,"lat":49.5872,"lng":18.75907},{"city":"Větřní","state":"Jihočeský kraj","population":3870,"lat":48.77425,"lng":14.28616},{"city":"Modřice","state":"South Moravian","population":3866,"lat":49.11928,"lng":16.60446},{"city":"Kosmonosy","state":"Central Bohemia","population":3822,"lat":50.4385,"lng":14.93},{"city":"Dětmarovice","state":"Moravskoslezský","population":3821,"lat":49.89412,"lng":18.46079},{"city":"Strání","state":"Zlín","population":3803,"lat":48.90216,"lng":17.70671},{"city":"Sázava","state":"Central Bohemia","population":3797,"lat":49.87164,"lng":14.89674},{"city":"Klimkovice","state":"Moravskoslezský","population":3779,"lat":49.78809,"lng":18.12585},{"city":"Kostelec nad Černými Lesy","state":"Central Bohemia","population":3773,"lat":49.99403,"lng":14.85922},{"city":"Zdiby","state":"Central Bohemia","population":3766,"lat":50.16799,"lng":14.45118},{"city":"Paskov","state":"Moravskoslezský","population":3754,"lat":49.73179,"lng":18.29037},{"city":"Lázně Bělohrad","state":"Královéhradecký kraj","population":3744,"lat":50.42874,"lng":15.58269},{"city":"Brtnice","state":"Vysočina","population":3744,"lat":49.30695,"lng":15.67642},{"city":"Borovany","state":"Jihočeský kraj","population":3739,"lat":48.8986,"lng":14.64227},{"city":"Lom u Mostu","state":"Ústecký kraj","population":3736,"lat":50.59328,"lng":13.65729},{"city":"Toužim","state":"Karlovarský kraj","population":3732,"lat":50.06049,"lng":12.98506},{"city":"Velké Bílovice","state":"South Moravian","population":3727,"lat":48.84929,"lng":16.89227},{"city":"Jablonné v Podještědí","state":"Liberecký kraj","population":3699,"lat":50.76528,"lng":14.76052},{"city":"Břidličná","state":"Moravskoslezský","population":3698,"lat":49.91167,"lng":17.37107},{"city":"Krásná Lípa","state":"Ústecký kraj","population":3677,"lat":50.48378,"lng":13.3575},{"city":"Nepomuk","state":"Plzeň Region","population":3670,"lat":49.48616,"lng":13.58225},{"city":"Krásná Lípa","state":"Ústecký kraj","population":3666,"lat":50.91303,"lng":14.50999},{"city":"Březnice","state":"Central Bohemia","population":3662,"lat":49.55763,"lng":13.95063},{"city":"Suchdol nad Lužnicí","state":"Jihočeský kraj","population":3659,"lat":48.89,"lng":14.8772},{"city":"Zliv","state":"Jihočeský kraj","population":3656,"lat":49.06608,"lng":14.36613},{"city":"Valtice","state":"South Moravian","population":3656,"lat":48.74069,"lng":16.75499},{"city":"Dobřichovice","state":"Central Bohemia","population":3651,"lat":49.92749,"lng":14.27469},{"city":"Mutěnice","state":"South Moravian","population":3647,"lat":48.90413,"lng":17.02917},{"city":"Město Albrechtice","state":"Moravskoslezský","population":3638,"lat":50.16294,"lng":17.57481},{"city":"Libochovice","state":"Ústecký kraj","population":3627,"lat":50.40626,"lng":14.04439},{"city":"Brušperk","state":"Moravskoslezský","population":3620,"lat":49.7001,"lng":18.2221},{"city":"Rájec-Jestřebí","state":"South Moravian","population":3619,"lat":49.41094,"lng":16.63902},{"city":"Žacléř","state":"Královéhradecký kraj","population":3613,"lat":50.66329,"lng":15.91063},{"city":"Lanžhot","state":"South Moravian","population":3608,"lat":48.72443,"lng":16.96695},{"city":"Klecany","state":"Central Bohemia","population":3601,"lat":50.17599,"lng":14.41148},{"city":"Řevnice","state":"Central Bohemia","population":3584,"lat":49.91395,"lng":14.23589},{"city":"Hodkovičky","state":"Prague","population":3584,"lat":50.02346,"lng":14.41415},{"city":"Hanušovice","state":"Olomoucký","population":3556,"lat":50.08049,"lng":16.93641},{"city":"Fryšták","state":"Zlín","population":3540,"lat":49.2852,"lng":17.68346},{"city":"Stod","state":"Plzeň Region","population":3532,"lat":49.63909,"lng":13.16474},{"city":"Hrušovany u Brna","state":"South Moravian","population":3528,"lat":49.03863,"lng":16.59429},{"city":"Kralovice","state":"Plzeň Region","population":3526,"lat":49.98192,"lng":13.48747},{"city":"Desná","state":"Liberecký kraj","population":3481,"lat":50.75987,"lng":15.30284},{"city":"Unhošť","state":"Central Bohemia","population":3480,"lat":50.08535,"lng":14.13007},{"city":"České Velenice","state":"Jihočeský kraj","population":3479,"lat":48.76851,"lng":14.96368},{"city":"Libčice nad Vltavou","state":"Central Bohemia","population":3456,"lat":50.19778,"lng":14.36385},{"city":"Smržovka","state":"Liberecký kraj","population":3433,"lat":50.7382,"lng":15.24639},{"city":"Rohatec","state":"South Moravian","population":3413,"lat":48.8804,"lng":17.1833},{"city":"Rotava","state":"Karlovarský kraj","population":3403,"lat":50.29627,"lng":12.57341},{"city":"Štramberk","state":"Moravskoslezský","population":3380,"lat":49.59181,"lng":18.11741},{"city":"Újezd u Brna","state":"South Moravian","population":3375,"lat":49.10489,"lng":16.75621},{"city":"Nová Bystřice","state":"Jihočeský kraj","population":3371,"lat":49.01926,"lng":15.10316},{"city":"Moravský Beroun","state":"Olomoucký","population":3369,"lat":49.79374,"lng":17.44212},{"city":"Rudná","state":"Central Bohemia","population":3360,"lat":50.03502,"lng":14.23435},{"city":"Ostrožská Nová Ves","state":"Zlín","population":3360,"lat":49.00434,"lng":17.43632},{"city":"Vrahovice","state":"Olomoucký","population":3330,"lat":49.48512,"lng":17.15143},{"city":"Háj ve Slezsku","state":"Moravskoslezský","population":3322,"lat":49.89856,"lng":18.0954},{"city":"Postřelmov","state":"Olomoucký","population":3314,"lat":49.90756,"lng":16.91226},{"city":"Štěpánov","state":"Olomoucký","population":3310,"lat":49.68404,"lng":17.22041},{"city":"Hrušovany nad Jevišovkou","state":"South Moravian","population":3309,"lat":48.82991,"lng":16.40271},{"city":"Štěpánov","state":"Olomoucký","population":3306,"lat":50.16238,"lng":16.91702},{"city":"Rokytnice nad Jizerou","state":"Liberecký kraj","population":3281,"lat":50.72561,"lng":15.43357},{"city":"Libušín","state":"Central Bohemia","population":3281,"lat":50.16819,"lng":14.05458},{"city":"Nivnice","state":"Zlín","population":3278,"lat":48.97465,"lng":17.64757},{"city":"Lázně Bohdaneč","state":"Pardubický","population":3274,"lat":50.0756,"lng":15.67978},{"city":"Vejprty","state":"Ústecký kraj","population":3273,"lat":50.49232,"lng":13.03212},{"city":"Třemošnice","state":"Pardubický","population":3273,"lat":49.86912,"lng":15.58002},{"city":"Kobeřice","state":"Moravskoslezský","population":3228,"lat":49.98548,"lng":18.05212},{"city":"Chvaletice","state":"Pardubický","population":3223,"lat":50.03443,"lng":15.41846},{"city":"Baška","state":"Moravskoslezský","population":3222,"lat":49.64584,"lng":18.37233},{"city":"Sadská","state":"Central Bohemia","population":3221,"lat":50.13596,"lng":14.98633},{"city":"Jesenice","state":"Central Bohemia","population":3221,"lat":49.96814,"lng":14.5135},{"city":"Loket","state":"Karlovarský kraj","population":3217,"lat":50.186,"lng":12.75405},{"city":"Lutín","state":"Olomoucký","population":3194,"lat":49.55845,"lng":17.13572},{"city":"Volyně","state":"Jihočeský kraj","population":3190,"lat":49.16578,"lng":13.88624},{"city":"Chrast","state":"Pardubický","population":3186,"lat":49.90205,"lng":15.93396},{"city":"Červená Voda","state":"Pardubický","population":3180,"lat":50.04029,"lng":16.74268},{"city":"Opočno","state":"Královéhradecký kraj","population":3177,"lat":50.26742,"lng":16.1148},{"city":"Budišov nad Budišovkou","state":"Moravskoslezský","population":3159,"lat":49.79511,"lng":17.62969},{"city":"Bludov","state":"Olomoucký","population":3155,"lat":49.9408,"lng":16.92849},{"city":"Velká nad Veličkou","state":"South Moravian","population":3149,"lat":48.88257,"lng":17.5206},{"city":"Jablonné nad Orlicí","state":"Pardubický","population":3147,"lat":50.02964,"lng":16.60059},{"city":"Jáchymov","state":"Karlovarský kraj","population":3143,"lat":50.35846,"lng":12.93465},{"city":"Zeleneč","state":"Central Bohemia","population":3133,"lat":50.13362,"lng":14.6607},{"city":"Planá nad Lužnicí","state":"Jihočeský kraj","population":3128,"lat":49.35444,"lng":14.70147},{"city":"Smiřice","state":"Královéhradecký kraj","population":3122,"lat":50.29978,"lng":15.86508},{"city":"Střelice","state":"South Moravian","population":3103,"lat":49.15221,"lng":16.50399},{"city":"Loštice","state":"Olomoucký","population":3098,"lat":49.7447,"lng":16.92892},{"city":"Sezemice","state":"Pardubický","population":3097,"lat":50.06651,"lng":15.8527},{"city":"Štěpánkovice","state":"Moravskoslezský","population":3096,"lat":49.95738,"lng":18.03741},{"city":"Žirovnice","state":"Vysočina","population":3085,"lat":49.25318,"lng":15.18824},{"city":"Ždírec nad Doubravkou","state":"Vysočina","population":3083,"lat":49.69662,"lng":15.81283},{"city":"Velké Pavlovice","state":"South Moravian","population":3078,"lat":48.90469,"lng":16.81605},{"city":"Židlochovice","state":"South Moravian","population":3075,"lat":49.03952,"lng":16.61881},{"city":"Vnorovy","state":"South Moravian","population":3062,"lat":48.93096,"lng":17.3505},{"city":"Uhlířské Janovice","state":"Central Bohemia","population":3058,"lat":49.88019,"lng":15.06481},{"city":"Kaznějov","state":"Plzeň Region","population":3053,"lat":49.89313,"lng":13.38295},{"city":"Vlčnov","state":"Zlín","population":3037,"lat":49.0099,"lng":17.58183},{"city":"Klášter","state":"Karlovarský kraj","population":3034,"lat":49.96762,"lng":12.87623},{"city":"Dobrá","state":"Moravskoslezský","population":3032,"lat":49.67383,"lng":18.41393},{"city":"Staňkov","state":"Plzeň Region","population":3026,"lat":49.55348,"lng":13.06976},{"city":"Rtyně v Podkrkonoší","state":"Královéhradecký kraj","population":3023,"lat":50.50523,"lng":16.07187},{"city":"Miroslav","state":"South Moravian","population":3017,"lat":48.94767,"lng":16.31252},{"city":"Teplá","state":"Karlovarský kraj","population":3013,"lat":49.97997,"lng":12.86432},{"city":"Kamenice","state":"Central Bohemia","population":3011,"lat":49.90151,"lng":14.58242},{"city":"Rapotín","state":"Olomoucký","population":3009,"lat":50.01094,"lng":17.03121},{"city":"Terezín","state":"Ústecký kraj","population":2992,"lat":50.511,"lng":14.15055},{"city":"Jirny","state":"Central Bohemia","population":2988,"lat":50.11578,"lng":14.69923},{"city":"Morkovice-Slížany","state":"Zlín","population":2975,"lat":49.24726,"lng":17.21128},{"city":"Javorník","state":"Olomoucký","population":2967,"lat":50.39077,"lng":17.00272},{"city":"Dolní Němčí","state":"Zlín","population":2957,"lat":48.96837,"lng":17.58585},{"city":"Dobrovice","state":"Central Bohemia","population":2954,"lat":50.36933,"lng":14.96233},{"city":"Vrdy","state":"Central Bohemia","population":2953,"lat":49.92153,"lng":15.47243},{"city":"Velvary","state":"Central Bohemia","population":2934,"lat":50.28152,"lng":14.23616},{"city":"Podivín","state":"South Moravian","population":2929,"lat":48.82554,"lng":16.84822},{"city":"Čerčany","state":"Central Bohemia","population":2923,"lat":49.85293,"lng":14.70299},{"city":"Karolinka","state":"Zlín","population":2916,"lat":49.35128,"lng":18.24006},{"city":"Velká Bystřice","state":"Olomoucký","population":2913,"lat":49.5948,"lng":17.36544},{"city":"Městec Králové","state":"Central Bohemia","population":2913,"lat":50.20718,"lng":15.29758},{"city":"Slušovice","state":"Zlín","population":2904,"lat":49.24782,"lng":17.8015},{"city":"Koryčany","state":"Zlín","population":2900,"lat":49.10639,"lng":17.16433},{"city":"Hrádek","state":"Plzeň Region","population":2897,"lat":49.71316,"lng":13.65296},{"city":"Jevíčko","state":"Pardubický","population":2886,"lat":49.6322,"lng":16.71125},{"city":"Ivanovice na Hané","state":"South Moravian","population":2884,"lat":49.30542,"lng":17.09343},{"city":"Rychnov u Jablonce nad Nisou","state":"Liberecký kraj","population":2865,"lat":50.68263,"lng":15.15124},{"city":"Velké Losiny","state":"Olomoucký","population":2862,"lat":50.03197,"lng":17.04058},{"city":"Trmice","state":"Ústecký kraj","population":2862,"lat":50.64286,"lng":13.99449},{"city":"Dolní Bojanovice","state":"South Moravian","population":2859,"lat":48.85861,"lng":17.02859},{"city":"Kozlovice","state":"Moravskoslezský","population":2852,"lat":49.5904,"lng":18.25656},{"city":"Kostelec na Hané","state":"Olomoucký","population":2851,"lat":49.51398,"lng":17.05824},{"city":"Suchdol nad Odrou","state":"Moravskoslezský","population":2850,"lat":49.65707,"lng":17.92703},{"city":"Veverská Bítýška","state":"South Moravian","population":2842,"lat":49.27591,"lng":16.43686},{"city":"Raspenava","state":"Liberecký kraj","population":2826,"lat":50.90415,"lng":15.11465},{"city":"Březová","state":"Karlovarský kraj","population":2826,"lat":50.14557,"lng":12.64996},{"city":"Žlutice","state":"Karlovarský kraj","population":2817,"lat":50.09192,"lng":13.16297},{"city":"Kunštát","state":"South Moravian","population":2798,"lat":49.50645,"lng":16.51722},{"city":"Zákupy","state":"Liberecký kraj","population":2792,"lat":50.68475,"lng":14.64522},{"city":"Zašová","state":"Zlín","population":2790,"lat":49.4741,"lng":18.04436},{"city":"Meziměstí","state":"Královéhradecký kraj","population":2784,"lat":50.62461,"lng":16.24207},{"city":"Mladá Vožice","state":"Jihočeský kraj","population":2772,"lat":49.53313,"lng":14.80857},{"city":"Velké Hamry","state":"Liberecký kraj","population":2754,"lat":50.71373,"lng":15.31539},{"city":"Palkovice","state":"Moravskoslezský","population":2751,"lat":49.63467,"lng":18.31508},{"city":"Hejnice","state":"Liberecký kraj","population":2751,"lat":50.8772,"lng":15.18168},{"city":"Mikulovice","state":"Olomoucký","population":2750,"lat":50.29854,"lng":17.32155},{"city":"Lužice","state":"South Moravian","population":2750,"lat":48.84098,"lng":17.07104},{"city":"Ždánice","state":"South Moravian","population":2721,"lat":49.06729,"lng":17.02751},{"city":"Netolice","state":"Jihočeský kraj","population":2721,"lat":49.0493,"lng":14.197},{"city":"Počátky","state":"Vysočina","population":2719,"lat":49.2602,"lng":15.24022},{"city":"Nový Hrozenkov","state":"Zlín","population":2714,"lat":49.33697,"lng":18.19793},{"city":"Nový Malín","state":"Olomoucký","population":2713,"lat":49.94262,"lng":17.03191},{"city":"Slavonice","state":"Jihočeský kraj","population":2706,"lat":48.99753,"lng":15.35154},{"city":"Košťany","state":"Ústecký kraj","population":2700,"lat":50.65507,"lng":13.75554},{"city":"Český Dub","state":"Liberecký kraj","population":2698,"lat":50.66054,"lng":14.99617},{"city":"Chotěšov","state":"Plzeň Region","population":2688,"lat":49.65408,"lng":13.20271},{"city":"Nové Sedlo","state":"Karlovarský kraj","population":2669,"lat":50.20647,"lng":12.738},{"city":"Úštěk","state":"Ústecký kraj","population":2664,"lat":50.58474,"lng":14.34332},{"city":"Konice","state":"Olomoucký","population":2664,"lat":49.5903,"lng":16.88911},{"city":"Hodkovice nad Mohelkou","state":"Liberecký kraj","population":2659,"lat":50.66586,"lng":15.08985},{"city":"Dobrá Voda u Českých Budějovic","state":"Jihočeský kraj","population":2652,"lat":48.97158,"lng":14.53276},{"city":"Velké Karlovice","state":"Zlín","population":2651,"lat":49.36064,"lng":18.28355},{"city":"Golčův Jeníkov","state":"Vysočina","population":2644,"lat":49.81626,"lng":15.47686},{"city":"Obrnice","state":"Ústecký kraj","population":2631,"lat":50.50498,"lng":13.6954},{"city":"Vyšší Brod","state":"Jihočeský kraj","population":2628,"lat":48.61598,"lng":14.31183},{"city":"Vejprnice","state":"Plzeň Region","population":2626,"lat":49.72988,"lng":13.27628},{"city":"Zbiroh","state":"Plzeň Region","population":2625,"lat":49.86024,"lng":13.77262},{"city":"Kelč","state":"Zlín","population":2623,"lat":49.47844,"lng":17.81533},{"city":"Mokrá Hora","state":"South Moravian","population":2612,"lat":49.26176,"lng":16.59107},{"city":"Tovačov","state":"Olomoucký","population":2605,"lat":49.43083,"lng":17.28795},{"city":"Bílovice nad Svitavou","state":"South Moravian","population":2600,"lat":49.24708,"lng":16.67247},{"city":"Luže","state":"Pardubický","population":2591,"lat":49.89341,"lng":16.0285},{"city":"Nové Hrady","state":"Jihočeský kraj","population":2590,"lat":48.78963,"lng":14.77839},{"city":"Luka nad Jihlavou","state":"Vysočina","population":2586,"lat":49.37403,"lng":15.70194},{"city":"Jedovnice","state":"South Moravian","population":2578,"lat":49.34453,"lng":16.75595},{"city":"Česká Ves","state":"Olomoucký","population":2554,"lat":50.25736,"lng":17.22805},{"city":"Bohušovice nad Ohří","state":"Ústecký kraj","population":2544,"lat":50.49316,"lng":14.15048},{"city":"Dolní Dobrouč","state":"Pardubický","population":2543,"lat":49.99273,"lng":16.49766},{"city":"Hať","state":"Moravskoslezský","population":2539,"lat":49.94644,"lng":18.23931},{"city":"Velká Chuchle","state":"Prague","population":2538,"lat":50.01177,"lng":14.38703},{"city":"Spálené Poříčí","state":"Plzeň Region","population":2529,"lat":49.61371,"lng":13.60556},{"city":"Plasy","state":"Plzeň Region","population":2527,"lat":49.93449,"lng":13.39035},{"city":"Čejkovice","state":"South Moravian","population":2527,"lat":48.90592,"lng":16.9423},{"city":"Luby","state":"Karlovarský kraj","population":2525,"lat":50.25248,"lng":12.40595},{"city":"Moravská Nová Ves","state":"South Moravian","population":2517,"lat":48.80304,"lng":17.01371},{"city":"Křemže","state":"Jihočeský kraj","population":2516,"lat":48.90497,"lng":14.30568},{"city":"Štítná nad Vláří-Popov","state":"Zlín","population":2500,"lat":49.06881,"lng":17.98274},{"city":"Ruda nad Moravou","state":"Olomoucký","population":2490,"lat":49.981,"lng":16.87782},{"city":"Buchlovice","state":"Zlín","population":2487,"lat":49.08627,"lng":17.33852},{"city":"Tlučná","state":"Plzeň Region","population":2482,"lat":49.72425,"lng":13.23534},{"city":"Klobouky u Brna","state":"South Moravian","population":2476,"lat":48.99609,"lng":16.86298},{"city":"Chýnov","state":"Jihočeský kraj","population":2472,"lat":49.40677,"lng":14.81122},{"city":"Tlumačov","state":"Zlín","population":2468,"lat":49.25351,"lng":17.49559},{"city":"Sobotín","state":"Olomoucký","population":2468,"lat":50.01039,"lng":17.09129},{"city":"Studená","state":"Jihočeský kraj","population":2464,"lat":49.18516,"lng":15.28688},{"city":"Rokytnice v Orlických Horách","state":"Královéhradecký kraj","population":2463,"lat":50.16473,"lng":16.46567},{"city":"Vranovice","state":"South Moravian","population":2460,"lat":48.966,"lng":16.6066},{"city":"Horní Benešov","state":"Moravskoslezský","population":2460,"lat":49.96682,"lng":17.60262},{"city":"Stará Ves nad Ondřejnicí","state":"Moravskoslezský","population":2450,"lat":49.72775,"lng":18.1885},{"city":"Nová Včelnice","state":"Jihočeský kraj","population":2449,"lat":49.23935,"lng":15.0726},{"city":"Strašice","state":"Plzeň Region","population":2442,"lat":49.73552,"lng":13.75755},{"city":"Kryry","state":"Ústecký kraj","population":2431,"lat":50.17437,"lng":13.4266},{"city":"Horní Bečva","state":"Zlín","population":2420,"lat":49.43216,"lng":18.28859},{"city":"Komárov","state":"Central Bohemia","population":2418,"lat":49.8065,"lng":13.85636},{"city":"Dobšice","state":"South Moravian","population":2418,"lat":48.84834,"lng":16.08218},{"city":"Mořkov","state":"Moravskoslezský","population":2414,"lat":49.53684,"lng":18.05968},{"city":"Vřesina","state":"Moravskoslezský","population":2410,"lat":49.82418,"lng":18.12569},{"city":"Zastávka","state":"South Moravian","population":2405,"lat":49.188,"lng":16.3631},{"city":"Starý Jičín","state":"Moravskoslezský","population":2405,"lat":49.57686,"lng":17.96169},{"city":"Dolní Kounice","state":"South Moravian","population":2403,"lat":49.07011,"lng":16.46492},{"city":"Bohuňovice","state":"Olomoucký","population":2390,"lat":49.66301,"lng":17.28693},{"city":"Batelov","state":"Vysočina","population":2388,"lat":49.31425,"lng":15.39465},{"city":"Rudolfov","state":"Jihočeský kraj","population":2384,"lat":48.99339,"lng":14.54179},{"city":"Chlumčany","state":"Plzeň Region","population":2383,"lat":49.63256,"lng":13.31323},{"city":"Mikulášovice","state":"Ústecký kraj","population":2375,"lat":50.96507,"lng":14.36368},{"city":"Ořechov","state":"South Moravian","population":2368,"lat":49.11118,"lng":16.52329},{"city":"Halenkov","state":"Zlín","population":2367,"lat":49.3174,"lng":18.14749},{"city":"Neveklov","state":"Central Bohemia","population":2357,"lat":49.75373,"lng":14.53291},{"city":"Lednice","state":"South Moravian","population":2355,"lat":48.79992,"lng":16.80339},{"city":"Fryčovice","state":"Moravskoslezský","population":2353,"lat":49.66677,"lng":18.22321},{"city":"Hovězí","state":"Zlín","population":2351,"lat":49.30365,"lng":18.06062},{"city":"Proboštov","state":"Ústecký kraj","population":2333,"lat":50.66773,"lng":13.83601},{"city":"Libiš","state":"Central Bohemia","population":2333,"lat":50.27417,"lng":14.5024},{"city":"Chabařovice","state":"Ústecký kraj","population":2329,"lat":50.67318,"lng":13.94184},{"city":"Ostravice","state":"Moravskoslezský","population":2324,"lat":49.5351,"lng":18.39164},{"city":"Líně","state":"Plzeň Region","population":2311,"lat":49.69472,"lng":13.25693},{"city":"Buštěhrad","state":"Central Bohemia","population":2295,"lat":50.15594,"lng":14.18897},{"city":"Kvasice","state":"Zlín","population":2282,"lat":49.24223,"lng":17.46974},{"city":"Horní Planá","state":"Jihočeský kraj","population":2278,"lat":48.76736,"lng":14.03257},{"city":"Velké Poříčí","state":"Královéhradecký kraj","population":2275,"lat":50.46177,"lng":16.18931},{"city":"Dolní Bousov","state":"Central Bohemia","population":2275,"lat":50.43825,"lng":15.12812},{"city":"Sobotka","state":"Královéhradecký kraj","population":2274,"lat":50.46741,"lng":15.17619},{"city":"Hranice","state":"Karlovarský kraj","population":2268,"lat":50.30459,"lng":12.17577},{"city":"Mnichovice","state":"Central Bohemia","population":2256,"lat":49.93601,"lng":14.70907},{"city":"Dolní Černilov","state":"Královéhradecký kraj","population":2255,"lat":50.2611,"lng":15.96107},{"city":"Plumlov","state":"Olomoucký","population":2254,"lat":49.46614,"lng":17.01502},{"city":"Lány","state":"Central Bohemia","population":2252,"lat":50.12471,"lng":13.95041},{"city":"Psáry","state":"Central Bohemia","population":2243,"lat":49.93622,"lng":14.51276},{"city":"Valašská Bystřice","state":"Zlín","population":2240,"lat":49.41507,"lng":18.10977},{"city":"Boršice","state":"Zlín","population":2239,"lat":49.06254,"lng":17.35084},{"city":"Mirošov","state":"Plzeň Region","population":2237,"lat":49.68782,"lng":13.65807},{"city":"Černilov","state":"Královéhradecký kraj","population":2233,"lat":50.26265,"lng":15.92254},{"city":"Zlonice","state":"Central Bohemia","population":2232,"lat":50.2875,"lng":14.09214},{"city":"Mladé Buky","state":"Královéhradecký kraj","population":2232,"lat":50.60643,"lng":15.83348},{"city":"Hovorany","state":"South Moravian","population":2232,"lat":48.95493,"lng":16.99346},{"city":"Kopidlno","state":"Královéhradecký kraj","population":2231,"lat":50.33085,"lng":15.27029},{"city":"Drnovice","state":"South Moravian","population":2225,"lat":49.2763,"lng":16.95146},{"city":"Ralsko","state":"Liberecký kraj","population":2220,"lat":50.61287,"lng":14.78945},{"city":"Povrly","state":"Ústecký kraj","population":2219,"lat":50.67276,"lng":14.16033},{"city":"Opatovice nad Labem","state":"Pardubický","population":2218,"lat":50.14541,"lng":15.79045},{"city":"Svoboda nad Úpou","state":"Královéhradecký kraj","population":2216,"lat":50.62596,"lng":15.81648},{"city":"Horoměřice","state":"Central Bohemia","population":2212,"lat":50.13173,"lng":14.33879},{"city":"Náměšť na Hané","state":"Olomoucký","population":2210,"lat":49.60213,"lng":17.06539},{"city":"Šardice","state":"South Moravian","population":2205,"lat":48.96403,"lng":17.02812},{"city":"Novosedlice","state":"Ústecký kraj","population":2204,"lat":50.65633,"lng":13.82304},{"city":"Moravský Písek","state":"South Moravian","population":2201,"lat":48.99016,"lng":17.33269},{"city":"Šťáhlavy","state":"Plzeň Region","population":2200,"lat":49.67555,"lng":13.50394},{"city":"Ledenice","state":"Jihočeský kraj","population":2193,"lat":48.93329,"lng":14.61886},{"city":"Černá Hora","state":"South Moravian","population":2190,"lat":49.41361,"lng":16.5814},{"city":"Prušánky","state":"South Moravian","population":2183,"lat":48.8284,"lng":16.98068},{"city":"Nechanice","state":"Královéhradecký kraj","population":2183,"lat":50.23737,"lng":15.63276},{"city":"Chlum u Třeboně","state":"Jihočeský kraj","population":2183,"lat":48.96235,"lng":14.92799},{"city":"Staré Nechanice","state":"Královéhradecký kraj","population":2180,"lat":50.24298,"lng":15.61787},{"city":"Huslenky","state":"Zlín","population":2174,"lat":49.30315,"lng":18.09067},{"city":"Velká Hleďsebe","state":"Karlovarský kraj","population":2164,"lat":49.96151,"lng":12.66763},{"city":"Rakvice","state":"South Moravian","population":2162,"lat":48.85811,"lng":16.8133},{"city":"Dolany","state":"Olomoucký","population":2162,"lat":49.64987,"lng":17.3224},{"city":"Rudník","state":"Královéhradecký kraj","population":2161,"lat":50.59517,"lng":15.73362},{"city":"Vacenovice","state":"South Moravian","population":2157,"lat":48.9451,"lng":17.17404},{"city":"Dolní Počernice","state":"Prague","population":2157,"lat":50.0876,"lng":14.57199},{"city":"Čeladná","state":"Moravskoslezský","population":2152,"lat":49.54873,"lng":18.33759},{"city":"Borohrádek","state":"Královéhradecký kraj","population":2152,"lat":50.09777,"lng":16.09326},{"city":"Velký Týnec","state":"Olomoucký","population":2150,"lat":49.54994,"lng":17.33359},{"city":"Velký Osek","state":"Central Bohemia","population":2150,"lat":50.09867,"lng":15.18629},{"city":"Tuchlovice","state":"Central Bohemia","population":2141,"lat":50.13803,"lng":13.99115},{"city":"Žebrák","state":"Central Bohemia","population":2139,"lat":49.87574,"lng":13.89735},{"city":"Jince","state":"Central Bohemia","population":2139,"lat":49.78624,"lng":13.97867},{"city":"Lhenice","state":"Jihočeský kraj","population":2127,"lat":48.99479,"lng":14.1498},{"city":"Trojanovice","state":"Moravskoslezský","population":2114,"lat":49.52039,"lng":18.238},{"city":"Peruc","state":"Ústecký kraj","population":2109,"lat":50.3425,"lng":13.95986},{"city":"Horka nad Moravou","state":"Olomoucký","population":2101,"lat":49.64009,"lng":17.2107},{"city":"Solnice","state":"Královéhradecký kraj","population":2099,"lat":50.20366,"lng":16.23762},{"city":"Proseč","state":"Pardubický","population":2098,"lat":49.8059,"lng":16.11621},{"city":"Železná Ruda","state":"Plzeň Region","population":2096,"lat":49.13743,"lng":13.2352},{"city":"Píšť","state":"Moravskoslezský","population":2096,"lat":49.97857,"lng":18.19349},{"city":"Němčice nad Hanou","state":"Olomoucký","population":2095,"lat":49.34181,"lng":17.20596},{"city":"Bánov","state":"Zlín","population":2095,"lat":48.98801,"lng":17.71752},{"city":"Říčany","state":"South Moravian","population":2088,"lat":49.21497,"lng":16.39362},{"city":"Šenov u Nového Jičína","state":"Moravskoslezský","population":2085,"lat":49.61321,"lng":17.99458},{"city":"Plesná","state":"Karlovarský kraj","population":2077,"lat":50.2207,"lng":12.34669},{"city":"Bečov","state":"Ústecký kraj","population":2072,"lat":50.44972,"lng":13.71784},{"city":"Kardašova Řečice","state":"Jihočeský kraj","population":2071,"lat":49.18478,"lng":14.85315},{"city":"Satalice","state":"Prague","population":2069,"lat":50.12484,"lng":14.57191},{"city":"Vikýřovice","state":"Olomoucký","population":2064,"lat":49.97792,"lng":17.01234},{"city":"Zdounky","state":"Zlín","population":2055,"lat":49.22771,"lng":17.31899},{"city":"Břasy","state":"Plzeň Region","population":2055,"lat":49.837,"lng":13.57833},{"city":"Staré Město","state":"Olomoucký","population":2054,"lat":50.16174,"lng":16.94734},{"city":"Milín","state":"Central Bohemia","population":2053,"lat":49.63192,"lng":14.046},{"city":"Štíty","state":"Olomoucký","population":2049,"lat":49.96122,"lng":16.76576},{"city":"Janovice nad Úhlavou","state":"Plzeň Region","population":2049,"lat":49.34515,"lng":13.21813},{"city":"Jistebnice","state":"Jihočeský kraj","population":2048,"lat":49.48553,"lng":14.5276},{"city":"Lipová-lázně","state":"Olomoucký","population":2047,"lat":50.22766,"lng":17.14039},{"city":"Tvrdonice","state":"South Moravian","population":2042,"lat":48.76048,"lng":16.99446},{"city":"Hýskov","state":"Central Bohemia","population":2042,"lat":49.99072,"lng":14.05055},{"city":"Blučina","state":"South Moravian","population":2040,"lat":49.05497,"lng":16.6445},{"city":"Hošťálková","state":"Zlín","population":2036,"lat":49.35467,"lng":17.86944},{"city":"Stará Paka","state":"Královéhradecký kraj","population":2026,"lat":50.51032,"lng":15.49444},{"city":"Velim","state":"Central Bohemia","population":2021,"lat":50.05965,"lng":15.10711},{"city":"Hrob","state":"Ústecký kraj","population":2020,"lat":50.65919,"lng":13.72676},{"city":"Všetaty","state":"Central Bohemia","population":2019,"lat":50.28187,"lng":14.59297},{"city":"Pozořice","state":"South Moravian","population":2016,"lat":49.20976,"lng":16.79074},{"city":"Okříšky","state":"Vysočina","population":2016,"lat":49.24539,"lng":15.76959},{"city":"Průhonice","state":"Central Bohemia","population":2007,"lat":49.99962,"lng":14.55017},{"city":"Jablůnka","state":"Zlín","population":2004,"lat":49.38355,"lng":17.95021},{"city":"Kamenný Újezd","state":"Jihočeský kraj","population":2002,"lat":48.89753,"lng":14.44638},{"city":"Vysoký Újezd","state":"Central Bohemia","population":1995,"lat":49.99213,"lng":14.2062},{"city":"Kunčice pod Ondřejníkem","state":"Moravskoslezský","population":1995,"lat":49.5507,"lng":18.26113},{"city":"Troubky","state":"Olomoucký","population":1993,"lat":49.43215,"lng":17.34914},{"city":"Veleň","state":"Central Bohemia","population":1987,"lat":50.17321,"lng":14.55421},{"city":"Velký Šenov","state":"Ústecký kraj","population":1978,"lat":50.99078,"lng":14.37428},{"city":"Dlouhá Loučka","state":"Olomoucký","population":1974,"lat":49.81763,"lng":17.18788},{"city":"Bochov","state":"Karlovarský kraj","population":1973,"lat":50.14872,"lng":13.05227},{"city":"Brodek u Přerova","state":"Olomoucký","population":1972,"lat":49.48419,"lng":17.33825},{"city":"Jablonec nad Jizerou","state":"Liberecký kraj","population":1968,"lat":50.70347,"lng":15.42959},{"city":"Kobylí","state":"South Moravian","population":1966,"lat":48.93286,"lng":16.89159},{"city":"Lešná","state":"Zlín","population":1965,"lat":49.52055,"lng":17.93004},{"city":"Budyně nad Ohří","state":"Ústecký kraj","population":1964,"lat":50.40427,"lng":14.12591},{"city":"Horní Jiřetín","state":"Ústecký kraj","population":1963,"lat":50.57309,"lng":13.54717},{"city":"Dolní Újezd","state":"Pardubický","population":1963,"lat":49.82562,"lng":16.25461},{"city":"Šitbořice","state":"South Moravian","population":1958,"lat":49.01433,"lng":16.77975},{"city":"Velké Březno","state":"Ústecký kraj","population":1957,"lat":50.6627,"lng":14.14174},{"city":"Loučovice","state":"Jihočeský kraj","population":1955,"lat":48.62019,"lng":14.25747},{"city":"Skalná","state":"Karlovarský kraj","population":1950,"lat":50.1703,"lng":12.36144},{"city":"Loučná nad Desnou","state":"Olomoucký","population":1949,"lat":50.07433,"lng":17.09052},{"city":"Polešovice","state":"Zlín","population":1941,"lat":49.0339,"lng":17.34064},{"city":"Milotice","state":"South Moravian","population":1941,"lat":48.95528,"lng":17.14241},{"city":"Dolní Poustevna","state":"Ústecký kraj","population":1941,"lat":50.98251,"lng":14.28684},{"city":"Veřovice","state":"Moravskoslezský","population":1936,"lat":49.53916,"lng":18.11425},{"city":"Nýdek","state":"Moravskoslezský","population":1934,"lat":49.65609,"lng":18.75687},{"city":"Velké Popovice","state":"Central Bohemia","population":1926,"lat":49.92252,"lng":14.63934},{"city":"Doudleby nad Orlicí","state":"Královéhradecký kraj","population":1926,"lat":50.10742,"lng":16.26131},{"city":"Hukvaldy","state":"Moravskoslezský","population":1924,"lat":49.62381,"lng":18.22189},{"city":"Vrané nad Vltavou","state":"Central Bohemia","population":1922,"lat":49.93585,"lng":14.37706},{"city":"Dobronín","state":"Vysočina","population":1913,"lat":49.47833,"lng":15.64992},{"city":"Vysehrad","state":"Prague","population":1913,"lat":50.06509,"lng":14.41711},{"city":"Měřín","state":"Vysočina","population":1910,"lat":49.39321,"lng":15.88381},{"city":"Oloví","state":"Karlovarský kraj","population":1909,"lat":50.25113,"lng":12.55877},{"city":"Žandov","state":"Liberecký kraj","population":1907,"lat":50.71394,"lng":14.39623},{"city":"Staříč","state":"Moravskoslezský","population":1906,"lat":49.68594,"lng":18.27281},{"city":"Blatnice pod Svatým Antonínkem","state":"South Moravian","population":1900,"lat":48.94714,"lng":17.46401},{"city":"Hrochův Týnec","state":"Pardubický","population":1899,"lat":49.95946,"lng":15.91054},{"city":"Dolní Roveň","state":"Pardubický","population":1899,"lat":50.02927,"lng":15.96774},{"city":"Vroutek","state":"Ústecký kraj","population":1898,"lat":50.17999,"lng":13.37986},{"city":"Jeseník nad Odrou","state":"Moravskoslezský","population":1898,"lat":49.61194,"lng":17.90526},{"city":"Zbůch","state":"Plzeň Region","population":1890,"lat":49.6784,"lng":13.22564},{"city":"Mikulčice","state":"South Moravian","population":1881,"lat":48.81643,"lng":17.05107},{"city":"Dalovice","state":"Karlovarský kraj","population":1880,"lat":50.24779,"lng":12.89581},{"city":"Stráž nad Nisou","state":"Liberecký kraj","population":1877,"lat":50.79099,"lng":15.02683},{"city":"Lidečko","state":"Zlín","population":1873,"lat":49.20303,"lng":18.0513},{"city":"Kájov","state":"Jihočeský kraj","population":1870,"lat":48.81082,"lng":14.25859},{"city":"Týnec nad Labem","state":"Central Bohemia","population":1868,"lat":50.04202,"lng":15.35836},{"city":"Olšany u Prostějova","state":"Olomoucký","population":1867,"lat":49.53635,"lng":17.16494},{"city":"Horní Cerekev","state":"Vysočina","population":1866,"lat":49.32026,"lng":15.32769},{"city":"Kostice","state":"South Moravian","population":1864,"lat":48.74685,"lng":16.97869},{"city":"Nový Šaldorf-Sedlešovice","state":"South Moravian","population":1864,"lat":48.83001,"lng":16.06061},{"city":"Černovice","state":"Vysočina","population":1863,"lat":49.37265,"lng":14.96089},{"city":"Želechovice nad Dřevnicí","state":"Zlín","population":1859,"lat":49.21736,"lng":17.74477},{"city":"Krmelín","state":"Moravskoslezský","population":1853,"lat":49.72914,"lng":18.23541},{"city":"Pustiměř","state":"South Moravian","population":1852,"lat":49.32251,"lng":17.02792},{"city":"Bystřany","state":"Ústecký kraj","population":1840,"lat":50.62867,"lng":13.86419},{"city":"Chyňava","state":"Central Bohemia","population":1839,"lat":50.02736,"lng":14.07398},{"city":"Křižanov","state":"Vysočina","population":1832,"lat":49.38858,"lng":16.1096},{"city":"Lysice","state":"South Moravian","population":1831,"lat":49.4516,"lng":16.53716},{"city":"Senice na Hané","state":"Olomoucký","population":1824,"lat":49.62401,"lng":17.08578},{"city":"Troubsko","state":"South Moravian","population":1822,"lat":49.16951,"lng":16.51078},{"city":"Bělá nad Radbuzou","state":"Plzeň Region","population":1812,"lat":49.59115,"lng":12.71761},{"city":"Kunín","state":"Moravskoslezský","population":1811,"lat":49.63377,"lng":17.98965},{"city":"Horní Jelení","state":"Pardubický","population":1811,"lat":50.04901,"lng":16.08396},{"city":"Drahanovice","state":"Olomoucký","population":1810,"lat":49.57856,"lng":17.07701},{"city":"Kozmice","state":"Moravskoslezský","population":1808,"lat":49.9128,"lng":18.15584},{"city":"Bukovany","state":"Karlovarský kraj","population":1808,"lat":50.16632,"lng":12.57265},{"city":"Lužná","state":"Central Bohemia","population":1806,"lat":50.12377,"lng":13.77004},{"city":"Teplice nad Metují","state":"Královéhradecký kraj","population":1805,"lat":50.59332,"lng":16.17026},{"city":"Dolní Bečva","state":"Zlín","population":1805,"lat":49.45498,"lng":18.19419},{"city":"Troubelice","state":"Olomoucký","population":1802,"lat":49.81731,"lng":17.081},{"city":"Horní Branná","state":"Liberecký kraj","population":1798,"lat":50.60826,"lng":15.57146},{"city":"Dašice","state":"Pardubický","population":1797,"lat":50.02844,"lng":15.91244},{"city":"Heřmanova Huť","state":"Plzeň Region","population":1794,"lat":49.70679,"lng":13.10069},{"city":"Chodová Planá","state":"Plzeň Region","population":1793,"lat":49.89321,"lng":12.73014},{"city":"Dolní Břežany","state":"Central Bohemia","population":1790,"lat":49.96321,"lng":14.4585},{"city":"Chotoviny","state":"Jihočeský kraj","population":1783,"lat":49.47803,"lng":14.67695},{"city":"Smečno","state":"Central Bohemia","population":1781,"lat":50.18844,"lng":14.04037},{"city":"Hrotovice","state":"Vysočina","population":1780,"lat":49.1077,"lng":16.06067},{"city":"Nový Knín","state":"Central Bohemia","population":1779,"lat":49.788,"lng":14.29355},{"city":"Město Touškov","state":"Plzeň Region","population":1777,"lat":49.77587,"lng":13.25108},{"city":"Písek","state":"Moravskoslezský","population":1776,"lat":49.55924,"lng":18.80231},{"city":"Libouchec","state":"Ústecký kraj","population":1772,"lat":50.75854,"lng":14.04071},{"city":"Kouřim","state":"Central Bohemia","population":1772,"lat":50.00306,"lng":14.97703},{"city":"Stonava","state":"Moravskoslezský","population":1771,"lat":49.81691,"lng":18.52518},{"city":"Raškovice","state":"Moravskoslezský","population":1771,"lat":49.61975,"lng":18.47286},{"city":"Pěnčín","state":"Liberecký kraj","population":1769,"lat":50.68769,"lng":15.23593},{"city":"Markvartovice","state":"Moravskoslezský","population":1766,"lat":49.90595,"lng":18.23602},{"city":"Davle","state":"Central Bohemia","population":1765,"lat":49.89218,"lng":14.40037},{"city":"Šumice","state":"Zlín","population":1764,"lat":49.02858,"lng":17.72205},{"city":"Zásmuky","state":"Central Bohemia","population":1763,"lat":49.9547,"lng":15.03058},{"city":"Sokolnice","state":"South Moravian","population":1761,"lat":49.11392,"lng":16.72156},{"city":"Kamenice","state":"Vysočina","population":1760,"lat":49.36659,"lng":15.78023},{"city":"Olešnice","state":"South Moravian","population":1757,"lat":49.55755,"lng":16.42169},{"city":"Babice","state":"Zlín","population":1754,"lat":49.12167,"lng":17.48075},{"city":"Hrádek","state":"Moravskoslezský","population":1753,"lat":49.61661,"lng":18.7372},{"city":"Dubá","state":"Liberecký kraj","population":1753,"lat":50.54034,"lng":14.54023},{"city":"Radnice","state":"Plzeň Region","population":1749,"lat":49.85677,"lng":13.6057},{"city":"Hustopeče Nad Bečvou","state":"Olomoucký","population":1748,"lat":49.53053,"lng":17.86994},{"city":"Doubrava","state":"Moravskoslezský","population":1744,"lat":49.85873,"lng":18.48018},{"city":"Pchery","state":"Central Bohemia","population":1743,"lat":50.19378,"lng":14.11782},{"city":"Horní Sloupnice","state":"Pardubický","population":1742,"lat":49.92138,"lng":16.33948},{"city":"Vinařice","state":"Central Bohemia","population":1739,"lat":50.17585,"lng":14.09106},{"city":"Křenovice","state":"South Moravian","population":1738,"lat":49.14216,"lng":16.82932},{"city":"Petřvald","state":"Moravskoslezský","population":1735,"lat":49.70872,"lng":18.15719},{"city":"Studenec","state":"Liberecký kraj","population":1734,"lat":50.55344,"lng":15.54936},{"city":"Hostavice","state":"Prague","population":1729,"lat":50.09283,"lng":14.55822},{"city":"Dolní Sloupnice","state":"Pardubický","population":1729,"lat":49.92721,"lng":16.29401},{"city":"Lukov","state":"Zlín","population":1725,"lat":49.29027,"lng":17.72959},{"city":"Třebenice","state":"Ústecký kraj","population":1723,"lat":50.47632,"lng":13.99005},{"city":"Hroznětín","state":"Karlovarský kraj","population":1721,"lat":50.3094,"lng":12.8718},{"city":"Ratiboř","state":"Zlín","population":1719,"lat":49.36769,"lng":17.91499},{"city":"Dolní Dunajovice","state":"South Moravian","population":1717,"lat":48.85447,"lng":16.59283},{"city":"Bělá pod Pradědem","state":"Olomoucký","population":1710,"lat":50.16396,"lng":17.19653},{"city":"Jalubí","state":"Zlín","population":1708,"lat":49.11626,"lng":17.42788},{"city":"Poběžovice","state":"Plzeň Region","population":1707,"lat":49.51029,"lng":12.80261},{"city":"Moravany","state":"Pardubický","population":1706,"lat":50.00095,"lng":15.94071},{"city":"Malšice","state":"Jihočeský kraj","population":1702,"lat":49.36391,"lng":14.57868},{"city":"Halenkovice","state":"Zlín","population":1701,"lat":49.17102,"lng":17.47156},{"city":"Svitávka","state":"South Moravian","population":1700,"lat":49.50178,"lng":16.59793},{"city":"Harrachov","state":"Liberecký kraj","population":1700,"lat":50.77209,"lng":15.43141},{"city":"Chrást","state":"Plzeň Region","population":1700,"lat":49.7932,"lng":13.49358},{"city":"Hodslavice","state":"Moravskoslezský","population":1699,"lat":49.53856,"lng":18.02367},{"city":"Janovice","state":"Moravskoslezský","population":1693,"lat":49.62141,"lng":18.40602},{"city":"Spytihněv","state":"Zlín","population":1692,"lat":49.14115,"lng":17.49808},{"city":"Slavkov","state":"Moravskoslezský","population":1686,"lat":49.9218,"lng":17.83641},{"city":"Seč","state":"Pardubický","population":1686,"lat":49.84694,"lng":15.65643},{"city":"Všenory","state":"Central Bohemia","population":1684,"lat":49.92883,"lng":14.30392},{"city":"Bystré","state":"Pardubický","population":1681,"lat":49.62846,"lng":16.34679},{"city":"Brandýsek","state":"Central Bohemia","population":1679,"lat":50.18923,"lng":14.16199},{"city":"Držovice","state":"Olomoucký","population":1676,"lat":49.49104,"lng":17.13404},{"city":"Drnholec","state":"South Moravian","population":1676,"lat":48.85746,"lng":16.48586},{"city":"Velké Hoštice","state":"Moravskoslezský","population":1675,"lat":49.93609,"lng":17.9738},{"city":"Vlachovo Březí","state":"Jihočeský kraj","population":1672,"lat":49.08135,"lng":13.95842},{"city":"Košťálov","state":"Liberecký kraj","population":1671,"lat":50.57165,"lng":15.40403},{"city":"Kamenné Žehrovice","state":"Central Bohemia","population":1667,"lat":50.12697,"lng":14.01809},{"city":"Šumvald","state":"Olomoucký","population":1666,"lat":49.83104,"lng":17.13275},{"city":"Prostřední Bečva","state":"Zlín","population":1661,"lat":49.43609,"lng":18.252},{"city":"Lomnice nad Lužnicí","state":"Jihočeský kraj","population":1660,"lat":49.08468,"lng":14.71727},{"city":"Mirovice","state":"Jihočeský kraj","population":1658,"lat":49.51555,"lng":14.03582},{"city":"Měnín","state":"South Moravian","population":1657,"lat":49.0824,"lng":16.69424},{"city":"Velké Němčice","state":"South Moravian","population":1654,"lat":48.99168,"lng":16.67208},{"city":"Smržice","state":"Olomoucký","population":1654,"lat":49.50569,"lng":17.10698},{"city":"Horní Bludovice","state":"Moravskoslezský","population":1652,"lat":49.74965,"lng":18.43677},{"city":"Plánice","state":"Plzeň Region","population":1649,"lat":49.38993,"lng":13.47106},{"city":"Rožďalovice","state":"Central Bohemia","population":1648,"lat":50.30476,"lng":15.16962},{"city":"Libáň","state":"Královéhradecký kraj","population":1648,"lat":50.37542,"lng":15.21684},{"city":"Hodonice","state":"South Moravian","population":1648,"lat":48.8368,"lng":16.16337},{"city":"Lázně Kynžvart","state":"Karlovarský kraj","population":1647,"lat":50.01058,"lng":12.62474},{"city":"Mostkovice","state":"Olomoucký","population":1646,"lat":49.47215,"lng":17.05212},{"city":"Ronov nad Doubravou","state":"Pardubický","population":1645,"lat":49.88825,"lng":15.53144},{"city":"Chvalčov","state":"Zlín","population":1644,"lat":49.38918,"lng":17.71149},{"city":"Předměřice nad Labem","state":"Královéhradecký kraj","population":1638,"lat":50.25633,"lng":15.81556},{"city":"Lučany nad Nisou","state":"Liberecký kraj","population":1636,"lat":50.74136,"lng":15.22046},{"city":"Jesenice","state":"Central Bohemia","population":1635,"lat":50.09703,"lng":13.46948},{"city":"Bílovice","state":"Zlín","population":1634,"lat":49.09965,"lng":17.54961},{"city":"Ostrožská Lhota","state":"Zlín","population":1633,"lat":48.97559,"lng":17.46751},{"city":"Hrušky","state":"South Moravian","population":1633,"lat":48.79272,"lng":16.97404},{"city":"Veltrusy","state":"Central Bohemia","population":1632,"lat":50.27046,"lng":14.32857},{"city":"Čebín","state":"South Moravian","population":1632,"lat":49.31324,"lng":16.47791},{"city":"Krucemburk","state":"Vysočina","population":1630,"lat":49.68841,"lng":15.85207},{"city":"Bělotín","state":"Olomoucký","population":1630,"lat":49.5912,"lng":17.80654},{"city":"Koloděje","state":"Prague","population":1626,"lat":50.06257,"lng":14.64265},{"city":"Stěžery","state":"Královéhradecký kraj","population":1625,"lat":50.21572,"lng":15.74831},{"city":"Zborovice","state":"Zlín","population":1619,"lat":49.24889,"lng":17.28464},{"city":"Červené Pečky","state":"Central Bohemia","population":1617,"lat":49.97822,"lng":15.20856},{"city":"Zdíkov","state":"Jihočeský kraj","population":1616,"lat":49.08456,"lng":13.69738},{"city":"Čkyně","state":"Jihočeský kraj","population":1616,"lat":49.11503,"lng":13.82906},{"city":"Francova Lhota","state":"Zlín","population":1615,"lat":49.20174,"lng":18.11175},{"city":"Vidče","state":"Zlín","population":1614,"lat":49.44151,"lng":18.09473},{"city":"Častolovice","state":"Královéhradecký kraj","population":1614,"lat":50.1291,"lng":16.18128},{"city":"Velké Heraltice","state":"Moravskoslezský","population":1613,"lat":49.97493,"lng":17.72879},{"city":"České Meziříčí","state":"Královéhradecký kraj","population":1603,"lat":50.2868,"lng":16.04428},{"city":"Velká Polom","state":"Moravskoslezský","population":1597,"lat":49.86359,"lng":18.09331},{"city":"Bartošovice","state":"Moravskoslezský","population":1596,"lat":49.66884,"lng":18.05461},{"city":"Malé Svatoňovice","state":"Královéhradecký kraj","population":1587,"lat":50.53395,"lng":16.04978},{"city":"Tichá","state":"Moravskoslezský","population":1585,"lat":49.56999,"lng":18.22148},{"city":"Hradec nad Svitavou","state":"Pardubický","population":1584,"lat":49.71143,"lng":16.48058},{"city":"Hazlov","state":"Karlovarský kraj","population":1583,"lat":50.15634,"lng":12.27238},{"city":"Švihov","state":"Plzeň Region","population":1582,"lat":49.48136,"lng":13.28417},{"city":"Řepiště","state":"Moravskoslezský","population":1581,"lat":49.73338,"lng":18.31707},{"city":"Horní Moštěnice","state":"Olomoucký","population":1581,"lat":49.41213,"lng":17.45879},{"city":"Slatinice","state":"Olomoucký","population":1578,"lat":49.56155,"lng":17.09992},{"city":"Svatava","state":"Karlovarský kraj","population":1577,"lat":50.19223,"lng":12.62524},{"city":"Želetava","state":"Vysočina","population":1573,"lat":49.14187,"lng":15.673},{"city":"Dřevohostice","state":"Olomoucký","population":1569,"lat":49.42594,"lng":17.59204},{"city":"Zlechov","state":"Zlín","population":1567,"lat":49.07396,"lng":17.37938},{"city":"Loděnice","state":"Central Bohemia","population":1564,"lat":49.99486,"lng":14.15785},{"city":"Vrbátky","state":"Olomoucký","population":1562,"lat":49.50805,"lng":17.19994},{"city":"Kašperské Hory","state":"Plzeň Region","population":1562,"lat":49.14289,"lng":13.55616},{"city":"Starý Kolín","state":"Central Bohemia","population":1561,"lat":50.00977,"lng":15.29388},{"city":"Ochoz u Brna","state":"South Moravian","population":1560,"lat":49.25447,"lng":16.73733},{"city":"Medlov","state":"Olomoucký","population":1560,"lat":49.78754,"lng":17.06261},{"city":"Hrdějovice","state":"Jihočeský kraj","population":1560,"lat":49.01893,"lng":14.47857},{"city":"Horní Stropnice","state":"Jihočeský kraj","population":1560,"lat":48.76124,"lng":14.73502},{"city":"Bohuslavice","state":"Moravskoslezský","population":1560,"lat":49.94232,"lng":18.12866},{"city":"Tršice","state":"Olomoucký","population":1559,"lat":49.54237,"lng":17.42483},{"city":"Březolupy","state":"Zlín","population":1559,"lat":49.12138,"lng":17.58034},{"city":"Nižbor","state":"Central Bohemia","population":1549,"lat":49.99995,"lng":14.00237},{"city":"Dolní Beřkovice","state":"Central Bohemia","population":1546,"lat":50.39313,"lng":14.45024},{"city":"Zádveřice-Raková","state":"Zlín","population":1546,"lat":49.21629,"lng":17.80499},{"city":"Topolná","state":"Zlín","population":1545,"lat":49.12187,"lng":17.54434},{"city":"Václavovice","state":"Moravskoslezský","population":1544,"lat":49.75531,"lng":18.3722},{"city":"Bohutín","state":"Central Bohemia","population":1544,"lat":49.65551,"lng":13.94389},{"city":"Lubenec","state":"Ústecký kraj","population":1541,"lat":50.13207,"lng":13.31319},{"city":"Štoky","state":"Vysočina","population":1540,"lat":49.50249,"lng":15.58863},{"city":"Svratka","state":"Vysočina","population":1539,"lat":49.71066,"lng":16.03214},{"city":"Stařeč","state":"Vysočina","population":1539,"lat":49.19783,"lng":15.82791},{"city":"Březí","state":"South Moravian","population":1539,"lat":48.81928,"lng":16.56748},{"city":"Všestary","state":"Královéhradecký kraj","population":1537,"lat":50.2566,"lng":15.75983},{"city":"Šilheřovice","state":"Moravskoslezský","population":1534,"lat":49.92602,"lng":18.27017},{"city":"Metylovice","state":"Moravskoslezský","population":1534,"lat":49.60666,"lng":18.33911},{"city":"Vlachovice","state":"Zlín","population":1532,"lat":49.12377,"lng":17.94001},{"city":"Nasavrky","state":"Pardubický","population":1526,"lat":49.8445,"lng":15.80461},{"city":"Smidary","state":"Královéhradecký kraj","population":1523,"lat":50.29146,"lng":15.47725},{"city":"Prachovice","state":"Pardubický","population":1522,"lat":49.89379,"lng":15.62872},{"city":"Dvorce","state":"Moravskoslezský","population":1518,"lat":49.83332,"lng":17.54762},{"city":"Březová nad Svitavou","state":"Pardubický","population":1518,"lat":49.64418,"lng":16.51799},{"city":"Rajhradice","state":"South Moravian","population":1514,"lat":49.09203,"lng":16.62933},{"city":"Strančice","state":"Central Bohemia","population":1505,"lat":49.94811,"lng":14.67745},{"city":"Nedakonice","state":"Zlín","population":1505,"lat":49.03159,"lng":17.38141},{"city":"Včelná","state":"Jihočeský kraj","population":1504,"lat":48.92373,"lng":14.45383},{"city":"Jindřichov","state":"Moravskoslezský","population":1504,"lat":50.25184,"lng":17.51903},{"city":"Městečko Trnávka","state":"Pardubický","population":1502,"lat":49.70926,"lng":16.72744},{"city":"Šakvice","state":"South Moravian","population":1494,"lat":48.89746,"lng":16.71424},{"city":"Zaječí","state":"South Moravian","population":1492,"lat":48.87295,"lng":16.76646},{"city":"Žabčice","state":"South Moravian","population":1492,"lat":49.0116,"lng":16.60257},{"city":"Hnojník","state":"Moravskoslezský","population":1492,"lat":49.6825,"lng":18.54143},{"city":"Hostomice","state":"Central Bohemia","population":1491,"lat":49.82526,"lng":14.0456},{"city":"Cerhenice","state":"Central Bohemia","population":1491,"lat":50.07127,"lng":15.07203},{"city":"Bouzov","state":"Olomoucký","population":1490,"lat":49.70426,"lng":16.89288},{"city":"Hostěradice","state":"South Moravian","population":1488,"lat":48.95006,"lng":16.25931},{"city":"Holoubkov","state":"Plzeň Region","population":1485,"lat":49.77598,"lng":13.69246},{"city":"Dub nad Moravou","state":"Olomoucký","population":1485,"lat":49.48249,"lng":17.27723},{"city":"Dambořice","state":"South Moravian","population":1485,"lat":49.03828,"lng":16.91757},{"city":"Kunžak","state":"Jihočeský kraj","population":1484,"lat":49.12119,"lng":15.19028},{"city":"Litvínovice","state":"Jihočeský kraj","population":1483,"lat":48.96207,"lng":14.45146},{"city":"Brodek u Prostějova","state":"Olomoucký","population":1477,"lat":49.36977,"lng":17.08931},{"city":"Lelekovice","state":"South Moravian","population":1476,"lat":49.29144,"lng":16.57874},{"city":"Valdice","state":"Královéhradecký kraj","population":1474,"lat":50.45501,"lng":15.38488},{"city":"Hošťka","state":"Ústecký kraj","population":1473,"lat":50.48859,"lng":14.335},{"city":"Dolní Bukovsko","state":"Jihočeský kraj","population":1473,"lat":49.17086,"lng":14.58127},{"city":"Kamenný Přívoz","state":"Central Bohemia","population":1472,"lat":49.86299,"lng":14.50339},{"city":"Oskava","state":"Olomoucký","population":1471,"lat":49.89523,"lng":17.13214},{"city":"Kněžmost","state":"Central Bohemia","population":1470,"lat":50.48917,"lng":15.03829},{"city":"Plaňany","state":"Central Bohemia","population":1467,"lat":50.0501,"lng":15.02944},{"city":"Šestajovice","state":"Central Bohemia","population":1465,"lat":50.10845,"lng":14.68013},{"city":"Kovářov","state":"Jihočeský kraj","population":1465,"lat":49.5176,"lng":14.27809},{"city":"Vrbice","state":"Moravskoslezský","population":1464,"lat":49.88333,"lng":18.31667},{"city":"Brumovice","state":"Moravskoslezský","population":1464,"lat":50.0153,"lng":17.74958},{"city":"Jistebník","state":"Moravskoslezský","population":1461,"lat":49.754,"lng":18.13063},{"city":"Tišice","state":"Central Bohemia","population":1460,"lat":50.2698,"lng":14.55411},{"city":"Valdice","state":"Liberecký kraj","population":1459,"lat":50.5835,"lng":15.41248},{"city":"Kněžice","state":"Vysočina","population":1455,"lat":49.27078,"lng":15.67216},{"city":"Chřibská","state":"Ústecký kraj","population":1453,"lat":50.86079,"lng":14.48444},{"city":"Luštěnice","state":"Central Bohemia","population":1447,"lat":50.32296,"lng":14.93667},{"city":"Předklášteří","state":"South Moravian","population":1446,"lat":49.35253,"lng":16.40241},{"city":"Poříčí nad Sázavou","state":"Central Bohemia","population":1441,"lat":49.83895,"lng":14.67446},{"city":"Lipov","state":"South Moravian","population":1437,"lat":48.90495,"lng":17.46171},{"city":"Božice","state":"South Moravian","population":1436,"lat":48.83687,"lng":16.28875},{"city":"Zaječov","state":"Central Bohemia","population":1435,"lat":49.77435,"lng":13.84072},{"city":"Brandýs nad Orlicí","state":"Pardubický","population":1435,"lat":50.00194,"lng":16.28528},{"city":"Nedašov","state":"Zlín","population":1428,"lat":49.10778,"lng":18.07036},{"city":"Velemín","state":"Ústecký kraj","population":1427,"lat":50.53898,"lng":13.97675},{"city":"Kralice na Hané","state":"Olomoucký","population":1427,"lat":49.46296,"lng":17.18048},{"city":"Vidnava","state":"Olomoucký","population":1425,"lat":50.37234,"lng":17.18626},{"city":"Náklo","state":"Olomoucký","population":1425,"lat":49.65462,"lng":17.12969},{"city":"Dýšina","state":"Plzeň Region","population":1424,"lat":49.77735,"lng":13.4915},{"city":"Černčice","state":"Ústecký kraj","population":1423,"lat":50.36138,"lng":13.84521},{"city":"Rokytnice","state":"Olomoucký","population":1422,"lat":49.46592,"lng":17.3912},{"city":"Žihle","state":"Plzeň Region","population":1419,"lat":50.04491,"lng":13.37502},{"city":"Kladruby","state":"Plzeň Region","population":1419,"lat":49.71498,"lng":12.98232},{"city":"Mšeno","state":"Central Bohemia","population":1417,"lat":50.43809,"lng":14.6325},{"city":"Otnice","state":"South Moravian","population":1411,"lat":49.08642,"lng":16.81443},{"city":"Čechtice","state":"Central Bohemia","population":1410,"lat":49.62403,"lng":15.04824},{"city":"Žitenice","state":"Ústecký kraj","population":1407,"lat":50.55528,"lng":14.15665},{"city":"Brněnec","state":"Pardubický","population":1405,"lat":49.62735,"lng":16.52202},{"city":"Liptál","state":"Zlín","population":1403,"lat":49.29051,"lng":17.92177},{"city":"Štěnovice","state":"Plzeň Region","population":1401,"lat":49.67051,"lng":13.39963},{"city":"Liběšice","state":"Ústecký kraj","population":1401,"lat":50.56886,"lng":14.28906},{"city":"Bavorov","state":"Jihočeský kraj","population":1401,"lat":49.12184,"lng":14.07893},{"city":"Strmilov","state":"Jihočeský kraj","population":1399,"lat":49.15846,"lng":15.19934},{"city":"Moravský Žižkov","state":"South Moravian","population":1396,"lat":48.83285,"lng":16.9314},{"city":"Pustá Polom","state":"Moravskoslezský","population":1394,"lat":49.84917,"lng":17.9979},{"city":"Dřiteň","state":"Jihočeský kraj","population":1392,"lat":49.1428,"lng":14.34596},{"city":"Ropice","state":"Moravskoslezský","population":1390,"lat":49.70536,"lng":18.61345},{"city":"Řevničov","state":"Central Bohemia","population":1390,"lat":50.18489,"lng":13.80823},{"city":"Kolinec","state":"Plzeň Region","population":1388,"lat":49.29895,"lng":13.439},{"city":"Mohelno","state":"Vysočina","population":1386,"lat":49.11412,"lng":16.19022},{"city":"Grygov","state":"Olomoucký","population":1385,"lat":49.53841,"lng":17.30887},{"city":"Mýto","state":"Plzeň Region","population":1384,"lat":49.78904,"lng":13.73461},{"city":"Rybitví","state":"Pardubický","population":1379,"lat":50.06015,"lng":15.70472},{"city":"Horní Lideč","state":"Zlín","population":1379,"lat":49.18121,"lng":18.06099},{"city":"Zbraslavice","state":"Central Bohemia","population":1378,"lat":49.81179,"lng":15.18319},{"city":"Štěchovice","state":"Central Bohemia","population":1377,"lat":49.85109,"lng":14.40543},{"city":"Letonice","state":"South Moravian","population":1377,"lat":49.17726,"lng":16.95913},{"city":"Loučeň","state":"Central Bohemia","population":1375,"lat":50.28537,"lng":15.02049},{"city":"Postupice","state":"Central Bohemia","population":1374,"lat":49.72798,"lng":14.77722},{"city":"Nová Ves I","state":"Central Bohemia","population":1374,"lat":50.05265,"lng":15.14375},{"city":"Kožlany","state":"Plzeň Region","population":1374,"lat":49.99389,"lng":13.54107},{"city":"Vacov","state":"Jihočeský kraj","population":1372,"lat":49.13686,"lng":13.72911},{"city":"Křešice","state":"Ústecký kraj","population":1371,"lat":50.52259,"lng":14.2145},{"city":"Dolní Čermná","state":"Pardubický","population":1371,"lat":49.97954,"lng":16.56475},{"city":"Ostroměř","state":"Královéhradecký kraj","population":1368,"lat":50.37246,"lng":15.54949},{"city":"Ráječko","state":"South Moravian","population":1367,"lat":49.39393,"lng":16.64497},{"city":"Ostopovice","state":"South Moravian","population":1367,"lat":49.161,"lng":16.54548},{"city":"Divišov","state":"Central Bohemia","population":1367,"lat":49.78849,"lng":14.87579},{"city":"Holasovice","state":"Moravskoslezský","population":1366,"lat":49.99843,"lng":17.80847},{"city":"Hevlín","state":"South Moravian","population":1366,"lat":48.75209,"lng":16.38131},{"city":"Opařany","state":"Jihočeský kraj","population":1365,"lat":49.39678,"lng":14.48137},{"city":"Řečany nad Labem","state":"Pardubický","population":1364,"lat":50.03589,"lng":15.47735},{"city":"Přimda","state":"Plzeň Region","population":1364,"lat":49.67488,"lng":12.67366},{"city":"Hřebeč","state":"Central Bohemia","population":1364,"lat":50.13595,"lng":14.16446},{"city":"Bukovec","state":"Moravskoslezský","population":1364,"lat":49.55114,"lng":18.82683},{"city":"Vysoké nad Jizerou","state":"Liberecký kraj","population":1363,"lat":50.68559,"lng":15.40152},{"city":"Petrovice","state":"Central Bohemia","population":1362,"lat":49.55426,"lng":14.33737},{"city":"Světlá Hora","state":"Moravskoslezský","population":1362,"lat":50.04644,"lng":17.39944},{"city":"Červenka","state":"Olomoucký","population":1361,"lat":49.72068,"lng":17.07773},{"city":"Mostek","state":"Královéhradecký kraj","population":1360,"lat":50.48623,"lng":15.69622},{"city":"Oldřišov","state":"Moravskoslezský","population":1358,"lat":49.9913,"lng":17.96074},{"city":"Brniště","state":"Liberecký kraj","population":1358,"lat":50.72919,"lng":14.70338},{"city":"Řitka","state":"Central Bohemia","population":1357,"lat":49.89451,"lng":14.29923},{"city":"Kosova Hora","state":"Central Bohemia","population":1356,"lat":49.65414,"lng":14.47173},{"city":"Petrov","state":"South Moravian","population":1354,"lat":48.88196,"lng":17.2781},{"city":"Nezvěstice","state":"Plzeň Region","population":1353,"lat":49.64043,"lng":13.51962},{"city":"Sviadnov","state":"Moravskoslezský","population":1352,"lat":49.68926,"lng":18.32762},{"city":"Krouna","state":"Pardubický","population":1352,"lat":49.7724,"lng":16.02674},{"city":"Křinec","state":"Central Bohemia","population":1351,"lat":50.26449,"lng":15.13782},{"city":"Zadní Mostek","state":"Královéhradecký kraj","population":1350,"lat":50.4967,"lng":15.69804},{"city":"Kvasiny","state":"Královéhradecký kraj","population":1349,"lat":50.2125,"lng":16.26323},{"city":"Lužec nad Vltavou","state":"Central Bohemia","population":1347,"lat":50.32138,"lng":14.40022},{"city":"Bílá Třemešná","state":"Královéhradecký kraj","population":1345,"lat":50.44465,"lng":15.74101},{"city":"Sepekov","state":"Jihočeský kraj","population":1343,"lat":49.42865,"lng":14.41815},{"city":"Újezd","state":"Olomoucký","population":1341,"lat":49.76397,"lng":17.1804},{"city":"Husinec","state":"Jihočeský kraj","population":1339,"lat":49.05496,"lng":13.98697},{"city":"Katovice","state":"Jihočeský kraj","population":1338,"lat":49.27348,"lng":13.83035},{"city":"Dolní Rychnov","state":"Karlovarský kraj","population":1337,"lat":50.16462,"lng":12.64507},{"city":"Lichnov (o. Nový Jičín)","state":"Moravskoslezský","population":1335,"lat":49.56423,"lng":18.16898},{"city":"Vřesina","state":"Moravskoslezský","population":1334,"lat":49.94581,"lng":18.19005},{"city":"Žulová","state":"Olomoucký","population":1332,"lat":50.30933,"lng":17.09871},{"city":"Stěbořice","state":"Moravskoslezský","population":1330,"lat":49.93708,"lng":17.80547},{"city":"Nedvědice","state":"South Moravian","population":1330,"lat":49.45702,"lng":16.33406},{"city":"Radomyšl","state":"Jihočeský kraj","population":1329,"lat":49.31634,"lng":13.93024},{"city":"Dobroměřice","state":"Ústecký kraj","population":1329,"lat":50.37009,"lng":13.79473},{"city":"Čelechovice na Hané","state":"Olomoucký","population":1329,"lat":49.51626,"lng":17.09379},{"city":"Valašská Polanka","state":"Zlín","population":1328,"lat":49.26215,"lng":17.99667},{"city":"Sedlnice","state":"Moravskoslezský","population":1327,"lat":49.6577,"lng":18.0869},{"city":"Strážov","state":"Plzeň Region","population":1326,"lat":49.30326,"lng":13.24623},{"city":"Brozany nad Ohří","state":"Ústecký kraj","population":1326,"lat":50.45423,"lng":14.14525},{"city":"Frymburk","state":"Jihočeský kraj","population":1324,"lat":48.66094,"lng":14.16564},{"city":"Velehrad","state":"Zlín","population":1323,"lat":49.10543,"lng":17.39426},{"city":"Rosice","state":"Pardubický","population":1323,"lat":49.92226,"lng":15.95127},{"city":"Čížkovice","state":"Ústecký kraj","population":1323,"lat":50.48418,"lng":14.02839},{"city":"Žiželice","state":"Central Bohemia","population":1322,"lat":50.13192,"lng":15.3932},{"city":"Lochovice","state":"Central Bohemia","population":1322,"lat":49.85318,"lng":13.98126},{"city":"Hrádek","state":"Plzeň Region","population":1321,"lat":49.26127,"lng":13.4985},{"city":"Kovářská","state":"Ústecký kraj","population":1320,"lat":50.43821,"lng":13.05388},{"city":"Kasejovice","state":"Plzeň Region","population":1320,"lat":49.4627,"lng":13.7406},{"city":"Hradištko","state":"Central Bohemia","population":1320,"lat":49.86828,"lng":14.40935},{"city":"Višňova","state":"Liberecký kraj","population":1319,"lat":50.96663,"lng":15.02495},{"city":"Hlohovec","state":"South Moravian","population":1315,"lat":48.77399,"lng":16.7623},{"city":"Chuchelná","state":"Moravskoslezský","population":1315,"lat":49.98664,"lng":18.11656},{"city":"Abertamy","state":"Karlovarský kraj","population":1315,"lat":50.36874,"lng":12.81826},{"city":"Nelahozeves","state":"Central Bohemia","population":1313,"lat":50.26148,"lng":14.29881},{"city":"Církvice","state":"Central Bohemia","population":1311,"lat":49.9456,"lng":15.33505},