{"timezone":"Europe/Samara","countries":{"Russia":[{"city":"Samara","state":"Samara Oblast","population":1163399,"lat":53.20767,"lng":50.13553},{"city":"Tolyatti","state":"Samara Oblast","population":702879,"lat":53.5303,"lng":49.3461},{"city":"Izhevsk","state":"Udmurtiya Republic","population":648213,"lat":56.85225,"lng":53.19862},{"city":"Syzran","state":"Samara Oblast","population":189338,"lat":53.1585,"lng":48.4681},{"city":"Novokuybyshevsk","state":"Samara Oblast","population":111800,"lat":53.09709,"lng":49.94001},{"city":"Glazov","state":"Udmurtiya Republic","population":100676,"lat":58.14,"lng":52.65619},{"city":"Sarapul","state":"Udmurtiya Republic","population":98830,"lat":56.47633,"lng":53.79782},{"city":"Votkinsk","state":"Udmurtiya Republic","population":98633,"lat":57.04867,"lng":53.9872},{"city":"Chapayevsk","state":"Samara Oblast","population":70147,"lat":52.9771,"lng":49.7086},{"city":"Zhigulëvsk","state":"Samara Oblast","population":57094,"lat":53.40332,"lng":49.51055},{"city":"Otradnyy","state":"Samara Oblast","population":50127,"lat":53.37596,"lng":51.3452},{"city":"Mozhga","state":"Udmurtiya Republic","population":47270,"lat":56.44576,"lng":52.2156},{"city":"Kinel’","state":"Samara Oblast","population":34336,"lat":53.22658,"lng":50.62614},{"city":"Pokhvistnevo","state":"Samara Oblast","population":28300,"lat":53.65237,"lng":52.12738},{"city":"Oktyabr’sk","state":"Samara Oblast","population":26306,"lat":53.16675,"lng":48.69723},{"city":"Bezenchuk","state":"Samara Oblast","population":23736,"lat":52.98058,"lng":49.43196},{"city":"Igra","state":"Udmurtiya Republic","population":22033,"lat":57.5549,"lng":53.0544},{"city":"Neftegorsk","state":"Samara Oblast","population":19542,"lat":52.80135,"lng":51.16551},{"city":"Uva","state":"Udmurtiya Republic","population":19143,"lat":56.99081,"lng":52.18517},{"city":"Kinel’-Cherkassy","state":"Samara Oblast","population":18393,"lat":53.4669,"lng":51.4941},{"city":"Balezino","state":"Udmurtiya Republic","population":16618,"lat":57.9787,"lng":53.0138},{"city":"Sukhodol","state":"Samara Oblast","population":14296,"lat":53.90063,"lng":51.2117},{"city":"Kambarka","state":"Udmurtiya Republic","population":12464,"lat":56.2666,"lng":54.2056},{"city":"Pribrezhnyy","state":"Samara Oblast","population":11500,"lat":53.48662,"lng":49.85836},{"city":"Roschinskiy","state":"Samara Oblast","population":10903,"lat":53.05111,"lng":50.49667},{"city":"Kez","state":"Udmurtiya Republic","population":10792,"lat":57.8957,"lng":53.7132},{"city":"Alekseyevka","state":"Samara Oblast","population":10737,"lat":53.24842,"lng":50.49116},{"city":"Ust’-Kinel’skiy","state":"Samara Oblast","population":10634,"lat":53.2682,"lng":50.57815},{"city":"Kizner","state":"Udmurtiya Republic","population":9847,"lat":56.27489,"lng":51.508},{"city":"Novosemeykino","state":"Samara Oblast","population":9646,"lat":53.37056,"lng":50.35428},{"city":"Borskoye","state":"Samara Oblast","population":9119,"lat":53.02549,"lng":51.69909},{"city":"Povolzhskiy","state":"Samara Oblast","population":8952,"lat":53.5854,"lng":49.7629},{"city":"Koshki","state":"Samara Oblast","population":8086,"lat":54.20851,"lng":50.46698},{"city":"Krasnyy Yar","state":"Samara Oblast","population":7664,"lat":53.4978,"lng":50.39209},{"city":"Mirnyy","state":"Samara Oblast","population":7393,"lat":53.50642,"lng":50.27658},{"city":"Yar","state":"Udmurtiya Republic","population":7122,"lat":58.2458,"lng":52.1054},{"city":"Volzhskiy","state":"Samara Oblast","population":7040,"lat":53.43058,"lng":50.119},{"city":"Malaya Purga","state":"Udmurtiya Republic","population":6803,"lat":56.55666,"lng":53.00434},{"city":"Petrova Dubrava","state":"Samara Oblast","population":6699,"lat":53.3,"lng":50.36667},{"city":"Petra-Dubrava","state":"Samara Oblast","population":6699,"lat":53.29613,"lng":50.36554},{"city":"Pestravka","state":"Samara Oblast","population":6623,"lat":52.4033,"lng":49.95837},{"city":"Shentala","state":"Samara Oblast","population":6595,"lat":54.43354,"lng":51.46625},{"city":"Sharkan","state":"Udmurtiya Republic","population":6523,"lat":57.29885,"lng":53.87122},{"city":"Kurumoch","state":"Samara Oblast","population":6443,"lat":53.48963,"lng":50.03748},{"city":"Bogatoye","state":"Samara Oblast","population":6391,"lat":53.06111,"lng":51.32898},{"city":"Klyavlino","state":"Samara Oblast","population":6318,"lat":54.26491,"lng":52.02674},{"city":"Alnashi","state":"Udmurtiya Republic","population":6205,"lat":56.18738,"lng":52.47919},{"city":"Chelno-Vershiny","state":"Samara Oblast","population":6015,"lat":54.4148,"lng":51.08594},{"city":"Smyshlyayevka","state":"Samara Oblast","population":5908,"lat":53.23913,"lng":50.39072},{"city":"Berëza","state":"Samara Oblast","population":5846,"lat":53.51833,"lng":50.13967},{"city":"Debësy","state":"Udmurtiya Republic","population":5800,"lat":57.6515,"lng":53.8089},{"city":"Sigayevo","state":"Udmurtiya Republic","population":5780,"lat":56.42163,"lng":53.77566},{"city":"Obsharovka","state":"Samara Oblast","population":5668,"lat":53.125,"lng":48.85306},{"city":"Syumsi","state":"Udmurtiya Republic","population":5582,"lat":57.11108,"lng":51.61494},{"city":"Vavozh","state":"Udmurtiya Republic","population":5569,"lat":56.77513,"lng":51.93098},{"city":"Selty","state":"Udmurtiya Republic","population":5523,"lat":57.3132,"lng":52.1345},{"city":"Krasnoarmeyskoye","state":"Samara Oblast","population":5403,"lat":52.71994,"lng":50.03122},{"city":"Krotovka","state":"Samara Oblast","population":5398,"lat":53.2858,"lng":51.1686},{"city":"Shigony","state":"Samara Oblast","population":5268,"lat":53.38621,"lng":48.67405},{"city":"Karakulino","state":"Udmurtiya Republic","population":5052,"lat":56.012,"lng":53.70669},{"city":"Rozhdestveno","state":"Samara Oblast","population":5004,"lat":53.23745,"lng":50.05971},{"city":"Khvorostyanka","state":"Samara Oblast","population":4899,"lat":52.61127,"lng":48.96008},{"city":"Kamyshla","state":"Samara Oblast","population":4789,"lat":54.11733,"lng":52.14302},{"city":"Surgut","state":"Samara Oblast","population":4699,"lat":53.92498,"lng":51.20348},{"city":"Utevka","state":"Samara Oblast","population":4556,"lat":52.9035,"lng":50.9495},{"city":"Krasnogorskoye","state":"Udmurtiya Republic","population":4508,"lat":57.7047,"lng":52.4999},{"city":"Isakly","state":"Samara Oblast","population":4417,"lat":54.13066,"lng":51.53674},{"city":"Spiridonovka","state":"Samara Oblast","population":4387,"lat":53.09248,"lng":50.64621},{"city":"Yukamenskoye","state":"Udmurtiya Republic","population":4278,"lat":57.8878,"lng":52.245},{"city":"Georgiyevka","state":"Samara Oblast","population":3638,"lat":53.27438,"lng":50.99848},{"city":"Sernovodsk","state":"Samara Oblast","population":3570,"lat":53.92293,"lng":51.25704},{"city":"Khokhryaki","state":"Udmurtiya Republic","population":3544,"lat":56.91561,"lng":53.3221},{"city":"Novyy Buyan","state":"Samara Oblast","population":3508,"lat":53.68611,"lng":50.04691},{"city":"Mezhdurechensk","state":"Samara Oblast","population":3454,"lat":53.2665,"lng":49.1116},{"city":"Kama","state":"Udmurtiya Republic","population":3439,"lat":56.30512,"lng":54.09361},{"city":"Grakhovo","state":"Udmurtiya Republic","population":3400,"lat":56.05017,"lng":51.96758},{"city":"Pirogovo","state":"Udmurtiya Republic","population":3363,"lat":56.77959,"lng":53.14954},{"city":"Kiyasovo","state":"Udmurtiya Republic","population":3265,"lat":56.34907,"lng":53.12439},{"city":"Varlamovo","state":"Samara Oblast","population":3264,"lat":53.1897,"lng":48.4226},{"city":"Khryashchevka","state":"Samara Oblast","population":3210,"lat":53.8119,"lng":49.0916},{"city":"Pychas","state":"Udmurtiya Republic","population":3183,"lat":56.50332,"lng":52.44088},{"city":"Yelkhovka","state":"Samara Oblast","population":3142,"lat":53.8669,"lng":50.28437},{"city":"Podstepki","state":"Samara Oblast","population":3140,"lat":53.5151,"lng":49.1355},{"city":"Dubovyy Umyot","state":"Samara Oblast","population":3105,"lat":52.97629,"lng":50.28569},{"city":"Osinki","state":"Samara Oblast","population":3103,"lat":52.8432,"lng":49.5132},{"city":"Balasheyka","state":"Samara Oblast","population":3080,"lat":53.2841,"lng":48.0851},{"city":"Pudem","state":"Udmurtiya Republic","population":2278,"lat":58.3047,"lng":52.1673},{"city":"Fakel","state":"Udmurtiya Republic","population":2006,"lat":57.631,"lng":53.0251},{"city":"Zol’noye","state":"Samara Oblast","population":1614,"lat":53.4421,"lng":49.7978},{"city":"Zhiguli","state":"Samara Oblast","population":1588,"lat":53.3579,"lng":49.301},{"city":"Mayskoye","state":"Samara Oblast","population":1190,"lat":52.27244,"lng":50.03383},{"city":"Bakhilovo","state":"Samara Oblast","population":1189,"lat":53.4011,"lng":49.636},{"city":"Podsolnechnoye","state":"Samara Oblast","population":1138,"lat":53.15,"lng":52.0191},{"city":"Perevoloki","state":"Samara Oblast","population":1130,"lat":53.2458,"lng":49.1793},{"city":"Bogatyr’","state":"Samara Oblast","population":1098,"lat":53.429,"lng":49.96},{"city":"Bol’shaya Ryazan’","state":"Samara Oblast","population":924,"lat":53.2584,"lng":49.3025},{"city":"Valy","state":"Samara Oblast","population":801,"lat":53.3252,"lng":49.405},{"city":"Yunda","state":"Udmurtiya Republic","population":600,"lat":57.8822,"lng":52.8957},{"city":"Zav’yalovo","state":"Udmurtiya Republic","population":0,"lat":56.79196,"lng":53.37612},{"city":"Yakshur-Bod’ya","state":"Udmurtiya Republic","population":0,"lat":57.184,"lng":53.16117},{"city":"Sergiyevsk","state":"Samara Oblast","population":0,"lat":53.9431,"lng":51.16853},{"city":"Privolzh’ye","state":"Samara Oblast","population":0,"lat":52.85873,"lng":48.59827},{"city":"Bol’shaya Glushitsa","state":"Samara Oblast","population":0,"lat":52.39286,"lng":50.47131},{"city":"Bol’shaya Chernigovka","state":"Samara Oblast","population":0,"lat":52.09287,"lng":50.86829},{"city":"Alekseyevka","state":"Samara Oblast","population":0,"lat":52.58296,"lng":51.27365}]}}