{"timezone":"Europe/Ulyanovsk","countries":{"Russia":[{"city":"Ulyanovsk","state":"Ulyanovsk","population":626540,"lat":54.32824,"lng":48.38657},{"city":"Dimitrovgrad","state":"Ulyanovsk","population":132226,"lat":54.21386,"lng":49.61838},{"city":"Inza","state":"Ulyanovsk","population":19737,"lat":53.85342,"lng":46.3513},{"city":"Barysh","state":"Ulyanovsk","population":18547,"lat":53.64976,"lng":47.12715},{"city":"Novoul’yanovsk","state":"Ulyanovsk","population":17139,"lat":54.14774,"lng":48.38644},{"city":"Cherdakly","state":"Ulyanovsk","population":11939,"lat":54.35495,"lng":48.84538},{"city":"Novospasskoye","state":"Ulyanovsk","population":10941,"lat":53.15075,"lng":47.74766},{"city":"Isheyevka","state":"Ulyanovsk","population":9944,"lat":54.42618,"lng":48.26983},{"city":"Kuzovatovo","state":"Ulyanovsk","population":8607,"lat":53.54681,"lng":47.68628},{"city":"Karsun","state":"Ulyanovsk","population":8128,"lat":54.19774,"lng":46.97723},{"city":"Sengiley","state":"Ulyanovsk","population":8018,"lat":53.95849,"lng":48.79503},{"city":"Mayna","state":"Ulyanovsk","population":7904,"lat":54.11602,"lng":47.62054},{"city":"Surskoye","state":"Ulyanovsk","population":7324,"lat":54.48042,"lng":46.72114},{"city":"Veshkayma","state":"Ulyanovsk","population":7087,"lat":54.05021,"lng":47.12197},{"city":"Staraya Mayna","state":"Ulyanovsk","population":6927,"lat":54.60596,"lng":48.92487},{"city":"Novaya Mayna","state":"Ulyanovsk","population":6448,"lat":54.15,"lng":49.75},{"city":"Nikolayevka","state":"Ulyanovsk","population":6419,"lat":53.1309,"lng":47.21153},{"city":"Mullovka","state":"Ulyanovsk","population":6383,"lat":54.2,"lng":49.4},{"city":"Bazarnyy Syzgan","state":"Ulyanovsk","population":6039,"lat":53.7497,"lng":46.75863},{"city":"Staraya Kulatka","state":"Ulyanovsk","population":6022,"lat":52.72932,"lng":47.62145},{"city":"Pavlovka","state":"Ulyanovsk","population":5944,"lat":52.69009,"lng":47.14131},{"city":"Pavlovka","state":"Ulyanovsk","population":5878,"lat":53.59569,"lng":46.76631},{"city":"Teren’ga","state":"Ulyanovsk","population":5144,"lat":53.71614,"lng":48.36916},{"city":"Yazykovo","state":"Ulyanovsk","population":4918,"lat":54.2922,"lng":47.3891},{"city":"Radishchevo","state":"Ulyanovsk","population":4845,"lat":52.85176,"lng":47.8645},{"city":"Tsil’na","state":"Ulyanovsk","population":4122,"lat":54.59533,"lng":48.1414},{"city":"Starotimoshkino","state":"Ulyanovsk","population":4061,"lat":53.71908,"lng":47.53116},{"city":"Silikatnyy","state":"Ulyanovsk","population":3614,"lat":53.98957,"lng":48.32749},{"city":"Undory","state":"Ulyanovsk","population":3376,"lat":54.60849,"lng":48.39276},{"city":"Novocheremshansk","state":"Ulyanovsk","population":3294,"lat":54.35714,"lng":50.16662},{"city":"Novaya Malykla","state":"Ulyanovsk","population":3292,"lat":54.2046,"lng":49.93151},{"city":"Mirnyy","state":"Ulyanovsk","population":3171,"lat":54.36607,"lng":48.72939},{"city":"Krasnyy Gulyay","state":"Ulyanovsk","population":3080,"lat":54.02821,"lng":48.33327},{"city":"Izmaylovo","state":"Ulyanovsk","population":3075,"lat":53.72114,"lng":47.24581},{"city":"Glotovka","state":"Ulyanovsk","population":3039,"lat":53.94906,"lng":46.70422},{"city":"Imeni Vladimira Il’icha Lenina","state":"Ulyanovsk","population":2889,"lat":53.56422,"lng":46.9801},{"city":"Ignatovka","state":"Ulyanovsk","population":2853,"lat":53.94787,"lng":47.6536},{"city":"Chufarovo","state":"Ulyanovsk","population":2671,"lat":54.0963,"lng":47.3367},{"city":"Krestovo-Gorodishche","state":"Ulyanovsk","population":2401,"lat":54.18447,"lng":48.6225},{"city":"Zhadovka","state":"Ulyanovsk","population":2098,"lat":53.57464,"lng":46.94985},{"city":"Kanadey","state":"Ulyanovsk","population":2076,"lat":53.16786,"lng":47.52644},{"city":"Nikol’skoye-na-Cheremshane","state":"Ulyanovsk","population":1640,"lat":54.05,"lng":49.23333},{"city":"Bol’shoye Nagatkino","state":"Ulyanovsk","population":0,"lat":54.51888,"lng":47.97123}]}}