{"timezone":"Europe/Berlin","countries":{"Germany":[{"city":"Berlin","state":"State of Berlin","population":3426354,"lat":52.52437,"lng":13.41053},{"city":"Hamburg","state":"Hamburg","population":1845229,"lat":53.55073,"lng":9.99302},{"city":"Munich","state":"Bavaria","population":1260391,"lat":48.13743,"lng":11.57549},{"city":"Köln","state":"North Rhine-Westphalia","population":963395,"lat":50.93333,"lng":6.95},{"city":"Frankfurt am Main","state":"Hesse","population":650000,"lat":50.11552,"lng":8.68417},{"city":"Stuttgart","state":"Baden-Wurttemberg","population":630305,"lat":48.78232,"lng":9.17702},{"city":"Düsseldorf","state":"North Rhine-Westphalia","population":620523,"lat":51.22172,"lng":6.77616},{"city":"Essen","state":"North Rhine-Westphalia","population":593085,"lat":51.45657,"lng":7.01228},{"city":"Dortmund","state":"North Rhine-Westphalia","population":588462,"lat":51.51494,"lng":7.466},{"city":"Dresden","state":"Saxony","population":556227,"lat":51.05089,"lng":13.73832},{"city":"Bremen","state":"City state Bremen","population":546501,"lat":53.07582,"lng":8.80717},{"city":"Nürnberg","state":"Bavaria","population":515543,"lat":49.45421,"lng":11.07752},{"city":"Hannover","state":"Lower Saxony","population":515140,"lat":52.37052,"lng":9.73322},{"city":"Leipzig","state":"Saxony","population":504971,"lat":51.33962,"lng":12.37129},{"city":"Duisburg","state":"North Rhine-Westphalia","population":504358,"lat":51.43247,"lng":6.76516},{"city":"Wandsbek","state":"Hamburg","population":411422,"lat":53.58334,"lng":10.08305},{"city":"Bochum","state":"North Rhine-Westphalia","population":385729,"lat":51.48165,"lng":7.21648},{"city":"Wuppertal","state":"North Rhine-Westphalia","population":360797,"lat":51.25627,"lng":7.14816},{"city":"Bielefeld","state":"North Rhine-Westphalia","population":331906,"lat":52.03333,"lng":8.53333},{"city":"Bonn","state":"North Rhine-Westphalia","population":330579,"lat":50.73438,"lng":7.09549},{"city":"Hamburg-Nord","state":"Hamburg","population":315514,"lat":53.58935,"lng":9.984},{"city":"Mannheim","state":"Baden-Wurttemberg","population":307960,"lat":49.4891,"lng":8.46694},{"city":"Hamburg-Mitte","state":"Hamburg","population":301231,"lat":53.55,"lng":10.01667},{"city":"Marienthal","state":"Hamburg","population":287101,"lat":53.56667,"lng":10.08333},{"city":"Karlsruhe","state":"Baden-Wurttemberg","population":283799,"lat":49.00937,"lng":8.40444},{"city":"Wiesbaden","state":"Hesse","population":278609,"lat":50.08601,"lng":8.24435},{"city":"Münster","state":"North Rhine-Westphalia","population":270184,"lat":51.96236,"lng":7.62571},{"city":"Gelsenkirchen","state":"North Rhine-Westphalia","population":270028,"lat":51.50508,"lng":7.09654},{"city":"Eimsbüttel","state":"Hamburg","population":269118,"lat":53.57416,"lng":9.95679},{"city":"Aachen","state":"North Rhine-Westphalia","population":265208,"lat":50.77664,"lng":6.08342},{"city":"Mönchengladbach","state":"North Rhine-Westphalia","population":261742,"lat":51.18539,"lng":6.44172},{"city":"Augsburg","state":"Bavaria","population":259196,"lat":48.37154,"lng":10.89851},{"city":"Altona","state":"Hamburg","population":250192,"lat":53.55,"lng":9.93333},{"city":"Chemnitz","state":"Saxony","population":247220,"lat":50.8357,"lng":12.92922},{"city":"Kiel","state":"Schleswig-Holstein","population":246601,"lat":54.32133,"lng":10.13489},{"city":"Braunschweig","state":"Lower Saxony","population":244715,"lat":52.26594,"lng":10.52673},{"city":"Krefeld","state":"North Rhine-Westphalia","population":237984,"lat":51.33645,"lng":6.55381},{"city":"Halle (Saale)","state":"Saxony-Anhalt","population":237865,"lat":51.48158,"lng":11.97947},{"city":"Magdeburg","state":"Saxony-Anhalt","population":235775,"lat":52.13129,"lng":11.63189},{"city":"Neue Neustadt","state":"Saxony-Anhalt","population":226851,"lat":52.15,"lng":11.63333},{"city":"Oberhausen","state":"North Rhine-Westphalia","population":219176,"lat":51.47805,"lng":6.8625},{"city":"Mainz","state":"Rheinland-Pfalz","population":217123,"lat":49.98185,"lng":8.28008},{"city":"Freiburg","state":"Baden-Wurttemberg","population":215966,"lat":47.9959,"lng":7.85222},{"city":"Erfurt","state":"Thuringia","population":213692,"lat":50.97734,"lng":11.03536},{"city":"Lübeck","state":"Schleswig-Holstein","population":212207,"lat":53.86893,"lng":10.68729},{"city":"Hagen","state":"North Rhine-Westphalia","population":198972,"lat":51.36081,"lng":7.47168},{"city":"Rostock","state":"Mecklenburg-Vorpommern","population":198293,"lat":54.0887,"lng":12.14049},{"city":"Kassel","state":"Hesse","population":194501,"lat":51.31667,"lng":9.5},{"city":"Potsdam","state":"Brandenburg","population":182112,"lat":52.39886,"lng":13.06566},{"city":"Saarbrücken","state":"Saarland","population":179349,"lat":49.23262,"lng":7.00982},{"city":"Hamm","state":"North Rhine-Westphalia","population":178967,"lat":51.68033,"lng":7.82089},{"city":"Herne","state":"North Rhine-Westphalia","population":172108,"lat":51.5388,"lng":7.22572},{"city":"Mülheim","state":"North Rhine-Westphalia","population":170921,"lat":51.43218,"lng":6.87967},{"city":"Harburg","state":"Hamburg","population":169221,"lat":53.46057,"lng":9.98388},{"city":"Osnabrück","state":"Lower Saxony","population":166462,"lat":52.27264,"lng":8.0498},{"city":"Neukölln","state":"State of Berlin","population":164636,"lat":52.47719,"lng":13.43126},{"city":"Solingen","state":"North Rhine-Westphalia","population":164359,"lat":51.17343,"lng":7.0845},{"city":"Ludwigshafen am Rhein","state":"Rheinland-Pfalz","population":163196,"lat":49.48121,"lng":8.44641},{"city":"Leverkusen","state":"North Rhine-Westphalia","population":162738,"lat":51.0303,"lng":6.98432},{"city":"Oldenburg","state":"Lower Saxony","population":159218,"lat":53.14039,"lng":8.21479},{"city":"Kreuzberg","state":"State of Berlin","population":153135,"lat":52.49973,"lng":13.40338},{"city":"Neuss","state":"North Rhine-Westphalia","population":152457,"lat":51.19807,"lng":6.68504},{"city":"Prenzlauer Berg","state":"State of Berlin","population":148878,"lat":52.53878,"lng":13.42443},{"city":"Heidelberg","state":"Baden-Wurttemberg","population":143345,"lat":49.40768,"lng":8.69079},{"city":"Paderborn","state":"North Rhine-Westphalia","population":142161,"lat":51.71905,"lng":8.75439},{"city":"Darmstadt","state":"Hesse","population":140385,"lat":49.87167,"lng":8.65027},{"city":"Würzburg","state":"Bavaria","population":133731,"lat":49.79391,"lng":9.95121},{"city":"Charlottenburg","state":"State of Berlin","population":129359,"lat":52.51667,"lng":13.28333},{"city":"Regensburg","state":"Bavaria","population":129151,"lat":49.01513,"lng":12.10161},{"city":"Wolfsburg","state":"Lower Saxony","population":123064,"lat":52.42452,"lng":10.7815},{"city":"Schöneberg","state":"State of Berlin","population":122658,"lat":52.49801,"lng":13.3443},{"city":"Recklinghausen","state":"North Rhine-Westphalia","population":122438,"lat":51.61379,"lng":7.19738},{"city":"Göttingen","state":"Lower Saxony","population":122149,"lat":51.53443,"lng":9.93228},{"city":"Heilbronn","state":"Baden-Wurttemberg","population":120733,"lat":49.13995,"lng":9.22054},{"city":"Ingolstadt","state":"Bavaria","population":120658,"lat":48.76508,"lng":11.42372},{"city":"Ulm","state":"Baden-Wurttemberg","population":120451,"lat":48.39841,"lng":9.99155},{"city":"Bottrop","state":"North Rhine-Westphalia","population":119909,"lat":51.52392,"lng":6.9285},{"city":"Bergedorf","state":"Hamburg","population":119665,"lat":53.48462,"lng":10.22904},{"city":"Pforzheim","state":"Baden-Wurttemberg","population":119313,"lat":48.88436,"lng":8.69892},{"city":"Offenbach","state":"Hesse","population":119192,"lat":50.10061,"lng":8.76647},{"city":"Friedrichshain","state":"State of Berlin","population":117829,"lat":52.51559,"lng":13.45482},{"city":"Remscheid","state":"North Rhine-Westphalia","population":117118,"lat":51.17983,"lng":7.1925},{"city":"Bremerhaven","state":"City state Bremen","population":113557,"lat":53.55357,"lng":8.57553},{"city":"Nippes","state":"North Rhine-Westphalia","population":113487,"lat":50.96545,"lng":6.95314},{"city":"Porz am Rhein","state":"North Rhine-Westphalia","population":113415,"lat":50.88637,"lng":7.0583},{"city":"Reutlingen","state":"Baden-Wurttemberg","population":112627,"lat":48.49144,"lng":9.20427},{"city":"Fürth","state":"Bavaria","population":112025,"lat":49.47593,"lng":10.98856},{"city":"Marzahn","state":"State of Berlin","population":111508,"lat":52.54525,"lng":13.56983},{"city":"Rodenkirchen","state":"North Rhine-Westphalia","population":110158,"lat":50.89328,"lng":6.99481},{"city":"Koblenz","state":"Rheinland-Pfalz","population":107319,"lat":50.35357,"lng":7.57883},{"city":"Siegen","state":"North Rhine-Westphalia","population":107242,"lat":50.87481,"lng":8.02431},{"city":"Bergisch Gladbach","state":"North Rhine-Westphalia","population":106184,"lat":50.9856,"lng":7.13298},{"city":"Jena","state":"Thuringia","population":104712,"lat":50.92878,"lng":11.5899},{"city":"Gera","state":"Thuringia","population":104659,"lat":50.88029,"lng":12.08187},{"city":"Salzgitter","state":"Lower Saxony","population":103866,"lat":52.15705,"lng":10.4154},{"city":"Moers","state":"North Rhine-Westphalia","population":103487,"lat":51.45342,"lng":6.6326},{"city":"Hildesheim","state":"Lower Saxony","population":103052,"lat":52.15077,"lng":9.95112},{"city":"Erlangen","state":"Bavaria","population":102675,"lat":49.59099,"lng":11.00783},{"city":"Mitte","state":"State of Berlin","population":102338,"lat":52.52003,"lng":13.40489},{"city":"Wilmersdorf","state":"State of Berlin","population":101877,"lat":52.48333,"lng":13.31667},{"city":"Witten","state":"North Rhine-Westphalia","population":101247,"lat":51.44362,"lng":7.35258},{"city":"Trier","state":"Rheinland-Pfalz","population":100129,"lat":49.75565,"lng":6.63935},{"city":"Zwickau","state":"Saxony","population":98796,"lat":50.72724,"lng":12.48839},{"city":"Kaiserslautern","state":"Rheinland-Pfalz","population":98732,"lat":49.443,"lng":7.77161},{"city":"Iserlohn","state":"North Rhine-Westphalia","population":97910,"lat":51.37547,"lng":7.70281},{"city":"Schwerin","state":"Mecklenburg-Vorpommern","population":96641,"lat":53.62937,"lng":11.41316},{"city":"Gütersloh","state":"North Rhine-Westphalia","population":96180,"lat":51.90693,"lng":8.37853},{"city":"Gesundbrunnen","state":"State of Berlin","population":93862,"lat":52.55035,"lng":13.39139},{"city":"Düren","state":"North Rhine-Westphalia","population":93440,"lat":50.80434,"lng":6.49299},{"city":"Rahlstedt","state":"Hamburg","population":92511,"lat":53.60194,"lng":10.15667},{"city":"Esslingen","state":"Baden-Wurttemberg","population":92390,"lat":48.73961,"lng":9.30473},{"city":"Ratingen","state":"North Rhine-Westphalia","population":91606,"lat":51.29724,"lng":6.84929},{"city":"Marl","state":"North Rhine-Westphalia","population":91398,"lat":51.65671,"lng":7.09038},{"city":"Lünen","state":"North Rhine-Westphalia","population":91009,"lat":51.61634,"lng":7.52872},{"city":"Hanau am Main","state":"Hesse","population":88648,"lat":50.13423,"lng":8.91418},{"city":"Velbert","state":"North Rhine-Westphalia","population":87669,"lat":51.33537,"lng":7.04348},{"city":"Ludwigsburg","state":"Baden-Wurttemberg","population":87603,"lat":48.89731,"lng":9.19161},{"city":"Lichterfelde","state":"State of Berlin","population":85885,"lat":52.4333,"lng":13.30762},{"city":"Flensburg","state":"Schleswig-Holstein","population":85838,"lat":54.78805,"lng":9.43722},{"city":"Wedding","state":"State of Berlin","population":85275,"lat":52.54734,"lng":13.35594},{"city":"Cottbus","state":"Brandenburg","population":84754,"lat":51.75769,"lng":14.32888},{"city":"Wilhelmshaven","state":"Lower Saxony","population":84393,"lat":53.5476,"lng":8.10395},{"city":"Hellersdorf","state":"State of Berlin","population":84103,"lat":52.53319,"lng":13.6088},{"city":"Reinickendorf","state":"State of Berlin","population":83972,"lat":52.56395,"lng":13.33552},{"city":"Tübingen","state":"Baden-Wurttemberg","population":83416,"lat":48.52266,"lng":9.05222},{"city":"Minden","state":"North Rhine-Westphalia","population":82879,"lat":52.28953,"lng":8.91455},{"city":"Villingen-Schwenningen","state":"Baden-Wurttemberg","population":81770,"lat":48.06226,"lng":8.49358},{"city":"Konstanz","state":"Baden-Wurttemberg","population":81275,"lat":47.66033,"lng":9.17582},{"city":"Worms","state":"Rheinland-Pfalz","population":81099,"lat":49.63278,"lng":8.35916},{"city":"Moabit","state":"State of Berlin","population":81021,"lat":52.52635,"lng":13.33903},{"city":"Neumünster","state":"Schleswig-Holstein","population":80196,"lat":54.07399,"lng":9.98456},{"city":"Dorsten","state":"North Rhine-Westphalia","population":79981,"lat":51.66166,"lng":6.96514},{"city":"Lüdenscheid","state":"North Rhine-Westphalia","population":79386,"lat":51.21977,"lng":7.6273},{"city":"Marburg an der Lahn","state":"Hesse","population":78895,"lat":50.80904,"lng":8.77069},{"city":"Rheinhausen","state":"North Rhine-Westphalia","population":78203,"lat":51.40055,"lng":6.71187},{"city":"Castrop-Rauxel","state":"North Rhine-Westphalia","population":77924,"lat":51.55657,"lng":7.31155},{"city":"Bogenhausen","state":"Bavaria","population":77542,"lat":48.15221,"lng":11.61585},{"city":"Gladbeck","state":"North Rhine-Westphalia","population":76940,"lat":51.57077,"lng":6.98593},{"city":"Arnsberg","state":"North Rhine-Westphalia","population":76612,"lat":51.38333,"lng":8.08333},{"city":"Rheine","state":"North Rhine-Westphalia","population":76491,"lat":52.28509,"lng":7.44055},{"city":"Viersen","state":"North Rhine-Westphalia","population":76153,"lat":51.25435,"lng":6.39441},{"city":"Delmenhorst","state":"Lower Saxony","population":75893,"lat":53.0511,"lng":8.63091},{"city":"Bayreuth","state":"Bavaria","population":75061,"lat":49.94782,"lng":11.57893},{"city":"Troisdorf","state":"North Rhine-Westphalia","population":74749,"lat":50.80901,"lng":7.14968},{"city":"Gießen","state":"Hesse","population":74411,"lat":50.58727,"lng":8.67554},{"city":"Bocholt","state":"North Rhine-Westphalia","population":73943,"lat":51.83879,"lng":6.61531},{"city":"Detmold","state":"North Rhine-Westphalia","population":73680,"lat":51.93855,"lng":8.87318},{"city":"Steglitz","state":"State of Berlin","population":72464,"lat":52.45606,"lng":13.332},{"city":"Norderstedt","state":"Schleswig-Holstein","population":71439,"lat":53.70177,"lng":9.99328},{"city":"Lüneburg","state":"Lower Saxony","population":71260,"lat":53.2509,"lng":10.41409},{"city":"Billstedt","state":"Hamburg","population":71077,"lat":53.55,"lng":10.13333},{"city":"Celle","state":"Lower Saxony","population":71010,"lat":52.62264,"lng":10.08047},{"city":"Dinslaken","state":"North Rhine-Westphalia","population":70573,"lat":51.56227,"lng":6.7434},{"city":"Bamberg","state":"Bavaria","population":70047,"lat":49.89873,"lng":10.90067},{"city":"Aschaffenburg","state":"Bavaria","population":68551,"lat":49.97704,"lng":9.15214},{"city":"Neubrandenburg","state":"Mecklenburg-Vorpommern","population":68082,"lat":53.55735,"lng":13.26105},{"city":"Dessau","state":"Saxony-Anhalt","population":67747,"lat":51.83864,"lng":12.24555},{"city":"Lippstadt","state":"North Rhine-Westphalia","population":67219,"lat":51.67369,"lng":8.34482},{"city":"Köpenick","state":"State of Berlin","population":67148,"lat":52.4455,"lng":13.57455},{"city":"Aalen","state":"Baden-Wurttemberg","population":67085,"lat":48.83777,"lng":10.0933},{"city":"Neuwied","state":"Rheinland-Pfalz","population":66805,"lat":50.4336,"lng":7.47057},{"city":"Unna","state":"North Rhine-Westphalia","population":66734,"lat":51.53795,"lng":7.68969},{"city":"Plauen","state":"Saxony","population":66412,"lat":50.4973,"lng":12.13782},{"city":"Pankow","state":"State of Berlin","population":65375,"lat":52.56926,"lng":13.40186},{"city":"Herten","state":"North Rhine-Westphalia","population":65306,"lat":51.59638,"lng":7.14387},{"city":"Herford","state":"North Rhine-Westphalia","population":64879,"lat":52.11457,"lng":8.67343},{"city":"Grevenbroich","state":"North Rhine-Westphalia","population":64779,"lat":51.09102,"lng":6.5827},{"city":"Weimar","state":"Thuringia","population":64727,"lat":50.9803,"lng":11.32903},{"city":"Kerpen","state":"North Rhine-Westphalia","population":64226,"lat":50.86991,"lng":6.69691},{"city":"Fulda","state":"Hesse","population":63760,"lat":50.55162,"lng":9.67518},{"city":"Dormagen","state":"North Rhine-Westphalia","population":63582,"lat":51.09683,"lng":6.83167},{"city":"Bergheim","state":"North Rhine-Westphalia","population":63558,"lat":50.95572,"lng":6.63986},{"city":"Garbsen","state":"Lower Saxony","population":63355,"lat":52.41371,"lng":9.5899},{"city":"Tempelhof","state":"State of Berlin","population":61769,"lat":52.46667,"lng":13.4},{"city":"Wesel","state":"North Rhine-Westphalia","population":61685,"lat":51.6669,"lng":6.62037},{"city":"Kempten (Allgäu)","state":"Bavaria","population":61399,"lat":47.72674,"lng":10.31389},{"city":"Sindelfingen","state":"Baden-Wurttemberg","population":61311,"lat":48.7,"lng":9.01667},{"city":"Schwäbisch Gmünd","state":"Baden-Wurttemberg","population":61216,"lat":48.79947,"lng":9.79809},{"city":"Landshut","state":"Bavaria","population":60488,"lat":48.52961,"lng":12.16179},{"city":"Rosenheim","state":"Bavaria","population":60167,"lat":47.85637,"lng":12.12247},{"city":"Brandenburg an der Havel","state":"Brandenburg","population":59826,"lat":52.41667,"lng":12.55},{"city":"Rüsselsheim am Main","state":"Hesse","population":59730,"lat":49.98955,"lng":8.42251},{"city":"Berlin Köpenick","state":"State of Berlin","population":59561,"lat":52.44254,"lng":13.58228},{"city":"Offenburg","state":"Baden-Wurttemberg","population":59238,"lat":48.47377,"lng":7.94495},{"city":"Langenfeld","state":"North Rhine-Westphalia","population":59112,"lat":51.10821,"lng":6.94831},{"city":"Stralsund","state":"Mecklenburg-Vorpommern","population":58976,"lat":54.30911,"lng":13.0818},{"city":"Hameln","state":"Lower Saxony","population":58666,"lat":52.10397,"lng":9.35623},{"city":"Friedrichshafen","state":"Baden-Wurttemberg","population":58403,"lat":47.65689,"lng":9.47554},{"city":"Göppingen","state":"Baden-Wurttemberg","population":58040,"lat":48.70354,"lng":9.65209},{"city":"Görlitz","state":"Saxony","population":57751,"lat":51.15518,"lng":14.98853},{"city":"Frankfurt (Oder)","state":"Brandenburg","population":57015,"lat":52.34714,"lng":14.55062},{"city":"Neu-Hohenschönhausen","state":"State of Berlin","population":56921,"lat":52.56681,"lng":13.51255},{"city":"Hattingen","state":"North Rhine-Westphalia","population":56866,"lat":51.39894,"lng":7.18557},{"city":"Hilden","state":"North Rhine-Westphalia","population":56565,"lat":51.16818,"lng":6.93093},{"city":"Winterhude","state":"Hamburg","population":56382,"lat":53.59368,"lng":10.01123},{"city":"Stolberg","state":"North Rhine-Westphalia","population":56377,"lat":50.77368,"lng":6.22595},{"city":"Sankt Augustin","state":"North Rhine-Westphalia","population":56094,"lat":50.77538,"lng":7.197},{"city":"Eschweiler","state":"North Rhine-Westphalia","population":55778,"lat":50.81854,"lng":6.27184},{"city":"Baden-Baden","state":"Baden-Wurttemberg","population":55449,"lat":48.7606,"lng":8.23975},{"city":"Friedrichsfelde","state":"State of Berlin","population":55423,"lat":52.50575,"lng":13.50812},{"city":"Ahlen","state":"North Rhine-Westphalia","population":55280,"lat":51.76338,"lng":7.8887},{"city":"Bad Salzuflen","state":"North Rhine-Westphalia","population":54899,"lat":52.0862,"lng":8.74434},{"city":"Euskirchen","state":"North Rhine-Westphalia","population":54889,"lat":50.66057,"lng":6.78722},{"city":"Meerbusch","state":"North Rhine-Westphalia","population":54826,"lat":51.25268,"lng":6.68807},{"city":"Wolfenbüttel","state":"Lower Saxony","population":54740,"lat":52.16442,"lng":10.54095},{"city":"Hürth","state":"North Rhine-Westphalia","population":54678,"lat":50.87079,"lng":6.86761},{"city":"Zehlendorf","state":"State of Berlin","population":54328,"lat":52.43333,"lng":13.25},{"city":"Schweinfurt","state":"Bavaria","population":54012,"lat":50.04937,"lng":10.22175},{"city":"Neustadt an der Weinstraße","state":"Rheinland-Pfalz","population":53984,"lat":49.35009,"lng":8.13886},{"city":"Pulheim","state":"North Rhine-Westphalia","population":53762,"lat":50.99965,"lng":6.80632},{"city":"Gummersbach","state":"North Rhine-Westphalia","population":53131,"lat":51.02608,"lng":7.56473},{"city":"Wilhelmsburg","state":"Hamburg","population":53064,"lat":53.49973,"lng":10.01281},{"city":"Waiblingen","state":"Baden-Wurttemberg","population":52945,"lat":48.83241,"lng":9.31641},{"city":"Nordhorn","state":"Lower Saxony","population":52803,"lat":52.43081,"lng":7.06833},{"city":"Mariendorf","state":"State of Berlin","population":52734,"lat":52.4378,"lng":13.38109},{"city":"Universitäts- und Hansestadt Greifswald","state":"Mecklenburg-Vorpommern","population":52731,"lat":54.08905,"lng":13.40244},{"city":"Cuxhaven","state":"Lower Saxony","population":52677,"lat":53.86828,"lng":8.69902},{"city":"Wetzlar","state":"Hesse","population":52656,"lat":50.56109,"lng":8.50495},{"city":"Menden","state":"North Rhine-Westphalia","population":52452,"lat":51.44337,"lng":7.77825},{"city":"Bergkamen","state":"North Rhine-Westphalia","population":52329,"lat":51.61633,"lng":7.64451},{"city":"Lichtenrade","state":"State of Berlin","population":52110,"lat":52.39844,"lng":13.40637},{"city":"Bad Homburg vor der Höhe","state":"Hesse","population":51859,"lat":50.22683,"lng":8.61816},{"city":"Willich","state":"North Rhine-Westphalia","population":51843,"lat":51.26371,"lng":6.54734},{"city":"Emden","state":"Lower Saxony","population":51526,"lat":53.36592,"lng":7.20846},{"city":"Neu-Ulm","state":"Bavaria","population":51389,"lat":48.39279,"lng":10.01112},{"city":"Lingen","state":"Lower Saxony","population":51310,"lat":52.52143,"lng":7.31845},{"city":"Erftstadt","state":"North Rhine-Westphalia","population":51207,"lat":50.81481,"lng":6.79387},{"city":"Neubrück","state":"North Rhine-Westphalia","population":51109,"lat":51.13434,"lng":6.63857},{"city":"Ibbenbueren","state":"North Rhine-Westphalia","population":50577,"lat":52.27964,"lng":7.71457},{"city":"Passau","state":"Bavaria","population":50560,"lat":48.5665,"lng":13.43122},{"city":"Langenhagen","state":"Lower Saxony","population":50439,"lat":52.44758,"lng":9.73741},{"city":"Schwerte","state":"North Rhine-Westphalia","population":50399,"lat":51.44387,"lng":7.5675},{"city":"Speyer","state":"Rheinland-Pfalz","population":50343,"lat":49.32083,"lng":8.43111},{"city":"Alt-Hohenschönhausen","state":"State of Berlin","population":50070,"lat":52.54608,"lng":13.5013},{"city":"Heidenheim an der Brenz","state":"Baden-Wurttemberg","population":50067,"lat":48.67798,"lng":10.15162},{"city":"Treptow","state":"State of Berlin","population":50000,"lat":52.49376,"lng":13.44469},{"city":"Peine","state":"Lower Saxony","population":49953,"lat":52.31928,"lng":10.2352},{"city":"Neunkirchen","state":"Saarland","population":49843,"lat":49.34449,"lng":7.18045},{"city":"Bad Oeynhausen","state":"North Rhine-Westphalia","population":49513,"lat":52.20699,"lng":8.80365},{"city":"Hof","state":"Bavaria","population":49239,"lat":50.31297,"lng":11.91261},{"city":"Kleve","state":"North Rhine-Westphalia","population":49072,"lat":51.78826,"lng":6.13865},{"city":"Ravensburg","state":"Baden-Wurttemberg","population":48825,"lat":47.78198,"lng":9.61062},{"city":"Frechen","state":"North Rhine-Westphalia","population":48733,"lat":50.91485,"lng":6.8118},{"city":"Elmshorn","state":"Schleswig-Holstein","population":48703,"lat":53.74912,"lng":9.66176},{"city":"Bornheim","state":"North Rhine-Westphalia","population":48523,"lat":50.76313,"lng":6.99089},{"city":"Soest","state":"North Rhine-Westphalia","population":48037,"lat":51.57558,"lng":8.10619},{"city":"Singen","state":"Baden-Wurttemberg","population":48033,"lat":47.75935,"lng":8.8403},{"city":"Hennef (Sieg)","state":"North Rhine-Westphalia","population":48002,"lat":50.77555,"lng":7.28308},{"city":"Rastatt","state":"Baden-Wurttemberg","population":47906,"lat":48.85851,"lng":8.20965},{"city":"Erkrath","state":"North Rhine-Westphalia","population":47815,"lat":51.22235,"lng":6.90831},{"city":"Weißensee","state":"State of Berlin","population":47693,"lat":52.55632,"lng":13.46649},{"city":"Lahr","state":"Baden-Wurttemberg","population":47551,"lat":48.34042,"lng":7.86886},{"city":"Stuttgart-Ost","state":"Baden-Wurttemberg","population":47500,"lat":48.78363,"lng":9.21032},{"city":"Dülmen","state":"North Rhine-Westphalia","population":47495,"lat":51.83149,"lng":7.28075},{"city":"Frankenthal","state":"Rheinland-Pfalz","population":47438,"lat":49.53414,"lng":8.35357},{"city":"Herzogenrath","state":"North Rhine-Westphalia","population":47381,"lat":50.86874,"lng":6.09317},{"city":"Lörrach","state":"Baden-Wurttemberg","population":47002,"lat":47.61497,"lng":7.66457},{"city":"Oberursel","state":"Hesse","population":46678,"lat":50.20731,"lng":8.57747},{"city":"Albstadt","state":"Baden-Wurttemberg","population":46664,"lat":48.21644,"lng":9.02596},{"city":"Gotha","state":"Thuringia","population":46615,"lat":50.94823,"lng":10.70193},{"city":"Melle","state":"Lower Saxony","population":46514,"lat":52.20197,"lng":8.33826},{"city":"Staaken","state":"State of Berlin","population":46369,"lat":52.53661,"lng":13.15057},{"city":"Alsdorf","state":"North Rhine-Westphalia","population":46340,"lat":50.87673,"lng":6.16399},{"city":"Böblingen","state":"Baden-Wurttemberg","population":46282,"lat":48.68212,"lng":9.01171},{"city":"Langenhorn","state":"Hamburg","population":46272,"lat":53.66667,"lng":10.01667},{"city":"Gronau","state":"North Rhine-Westphalia","population":46161,"lat":52.21099,"lng":7.02238},{"city":"Rheda-Wiedenbrück","state":"North Rhine-Westphalia","population":46123,"lat":51.84967,"lng":8.30017},{"city":"Neustadt am Rübenberge","state":"Lower Saxony","population":45942,"lat":52.50462,"lng":9.45871},{"city":"Kamen","state":"North Rhine-Westphalia","population":45927,"lat":51.59231,"lng":7.6638},{"city":"Gohlis","state":"Saxony","population":45924,"lat":51.366,"lng":12.367},{"city":"Leonberg","state":"Baden-Wurttemberg","population":45711,"lat":48.8,"lng":9.01667},{"city":"Hansestadt Stade","state":"Lower Saxony","population":45634,"lat":53.59407,"lng":9.47302},{"city":"Bünde","state":"North Rhine-Westphalia","population":45376,"lat":52.19837,"lng":8.58644},{"city":"Bruchsal","state":"Baden-Wurttemberg","population":45364,"lat":49.12426,"lng":8.59804},{"city":"Meiderich","state":"North Rhine-Westphalia","population":45297,"lat":51.46667,"lng":6.76667},{"city":"Wismar","state":"Mecklenburg-Vorpommern","population":45255,"lat":53.89218,"lng":11.45563},{"city":"Amberg","state":"Bavaria","population":44737,"lat":49.44287,"lng":11.86267},{"city":"Erkelenz","state":"North Rhine-Westphalia","population":44650,"lat":51.07947,"lng":6.31531},{"city":"Homburg","state":"Saarland","population":44607,"lat":49.32637,"lng":7.33867},{"city":"Straubing","state":"Bavaria","population":44580,"lat":48.88126,"lng":12.57385},{"city":"Halle-Neustadt","state":"Saxony-Anhalt","population":44515,"lat":51.47924,"lng":11.91605},{"city":"Brühl","state":"North Rhine-Westphalia","population":44137,"lat":50.82928,"lng":6.90499},{"city":"Fellbach","state":"Baden-Wurttemberg","population":43935,"lat":48.80912,"lng":9.27697},{"city":"Lehrte","state":"Lower Saxony","population":43920,"lat":52.37193,"lng":9.97919},{"city":"Nordhausen","state":"Thuringia","population":43912,"lat":51.5018,"lng":10.7957},{"city":"Eisenach","state":"Thuringia","population":43846,"lat":50.9807,"lng":10.31522},{"city":"Hoyerswerda","state":"Saxony","population":43681,"lat":51.43787,"lng":14.23549},{"city":"Freiberg","state":"Saxony","population":43670,"lat":50.91089,"lng":13.33881},{"city":"Pirmasens","state":"Rheinland-Pfalz","population":43582,"lat":49.20145,"lng":7.60529},{"city":"Goslar","state":"Lower Saxony","population":43560,"lat":51.90425,"lng":10.42766},{"city":"Lankwitz","state":"State of Berlin","population":43558,"lat":52.43623,"lng":13.3459},{"city":"Filderstadt","state":"Baden-Wurttemberg","population":43550,"lat":48.65698,"lng":9.22049},{"city":"Suhl","state":"Thuringia","population":43509,"lat":50.60911,"lng":10.69401},{"city":"Weinheim","state":"Baden-Wurttemberg","population":43325,"lat":49.54887,"lng":8.66697},{"city":"Rodgau","state":"Hesse","population":43315,"lat":50.02627,"lng":8.88588},{"city":"Bad Kreuznach","state":"Rheinland-Pfalz","population":43213,"lat":49.8414,"lng":7.86713},{"city":"Ohligs","state":"North Rhine-Westphalia","population":43063,"lat":51.15,"lng":7.0},{"city":"Monheim am Rhein","state":"North Rhine-Westphalia","population":43038,"lat":51.09162,"lng":6.89217},{"city":"Gifhorn","state":"Lower Saxony","population":43000,"lat":52.47774,"lng":10.5511},{"city":"Britz","state":"State of Berlin","population":42846,"lat":52.44293,"lng":13.43388},{"city":"Rottenburg","state":"Baden-Wurttemberg","population":42721,"lat":48.47629,"lng":8.93528},{"city":"Rudow","state":"State of Berlin","population":42631,"lat":52.42407,"lng":13.48529},{"city":"Freising","state":"Bavaria","population":42570,"lat":48.40351,"lng":11.74876},{"city":"Weiden","state":"Bavaria","population":42550,"lat":49.67682,"lng":12.15613},{"city":"Kaufbeuren","state":"Bavaria","population":42505,"lat":47.88238,"lng":10.62192},{"city":"Nettetal","state":"North Rhine-Westphalia","population":42417,"lat":51.31667,"lng":6.28333},{"city":"Kaarst","state":"North Rhine-Westphalia","population":42112,"lat":51.22929,"lng":6.61883},{"city":"Wunstorf","state":"Lower Saxony","population":42080,"lat":52.42377,"lng":9.43585},{"city":"Gallus","state":"Hesse","population":42012,"lat":50.10038,"lng":8.6295},{"city":"Eberswalde","state":"Brandenburg","population":41980,"lat":52.83492,"lng":13.81951},{"city":"Bautzen","state":"Saxony","population":41972,"lat":51.18035,"lng":14.43494},{"city":"Lemgo","state":"North Rhine-Westphalia","population":41943,"lat":52.02786,"lng":8.89901},{"city":"Coburg","state":"Bavaria","population":41901,"lat":50.25937,"lng":10.96384},{"city":"Bietigheim-Bissingen","state":"Baden-Wurttemberg","population":41769,"lat":48.94407,"lng":9.11755},{"city":"Mülheim","state":"North Rhine-Westphalia","population":41711,"lat":50.96639,"lng":7.00384},{"city":"Landau in der Pfalz","state":"Rheinland-Pfalz","population":41612,"lat":49.19844,"lng":8.11692},{"city":"Heinsberg","state":"North Rhine-Westphalia","population":41505,"lat":51.06358,"lng":6.0998},{"city":"Lichtenberg","state":"State of Berlin","population":41359,"lat":52.51395,"lng":13.49975},{"city":"Westend","state":"State of Berlin","population":41328,"lat":52.51708,"lng":13.27636},{"city":"Seevetal","state":"Lower Saxony","population":41266,"lat":53.4,"lng":9.96667},{"city":"Königswinter","state":"North Rhine-Westphalia","population":41164,"lat":50.67734,"lng":7.19245},{"city":"Memmingen","state":"Bavaria","population":41135,"lat":47.98372,"lng":10.18527},{"city":"Völklingen","state":"Saarland","population":41132,"lat":49.25162,"lng":6.85873},{"city":"Niendorf","state":"Hamburg","population":40906,"lat":53.61769,"lng":9.95032},{"city":"Borken","state":"North Rhine-Westphalia","population":40876,"lat":51.84382,"lng":6.85774},{"city":"Buchholz in der Nordheide","state":"Lower Saxony","population":40849,"lat":53.32641,"lng":9.86812},{"city":"Oranienburg","state":"Brandenburg","population":40793,"lat":52.75577,"lng":13.24197},{"city":"Pinneberg","state":"Schleswig-Holstein","population":40577,"lat":53.65887,"lng":9.79698},{"city":"Südstadt","state":"Lower Saxony","population":40557,"lat":52.35967,"lng":9.7508},{"city":"Germering","state":"Bavaria","population":40511,"lat":48.13392,"lng":11.3765},{"city":"Wilhelmstadt","state":"State of Berlin","population":40463,"lat":52.52379,"lng":13.18916},{"city":"Dreieich","state":"Hesse","population":40367,"lat":50.01997,"lng":8.69611},{"city":"Pirna","state":"Saxony","population":40322,"lat":50.95843,"lng":13.93702},{"city":"Aurich","state":"Lower Saxony","population":40319,"lat":53.46963,"lng":7.48239},{"city":"Barmbek-Nord","state":"Hamburg","population":40261,"lat":53.6052,"lng":10.03988},{"city":"Nürtingen","state":"Baden-Wurttemberg","population":40210,"lat":48.62565,"lng":9.34203},{"city":"Kirchheim unter Teck","state":"Baden-Wurttemberg","population":40206,"lat":48.64683,"lng":9.45378},{"city":"Buckow","state":"State of Berlin","population":40146,"lat":52.42162,"lng":13.43613},{"city":"Märkisches Viertel","state":"State of Berlin","population":40119,"lat":52.59841,"lng":13.35766},{"city":"Laatzen","state":"Lower Saxony","population":40038,"lat":52.31506,"lng":9.79739},{"city":"Hückelhoven","state":"North Rhine-Westphalia","population":39828,"lat":51.0555,"lng":6.22658},{"city":"Dachau","state":"Bavaria","population":39740,"lat":48.26,"lng":11.43402},{"city":"Halberstadt","state":"Saxony-Anhalt","population":39729,"lat":51.89562,"lng":11.05622},{"city":"Schorndorf","state":"Baden-Wurttemberg","population":39697,"lat":48.80537,"lng":9.52721},{"city":"Spandau","state":"State of Berlin","population":39653,"lat":52.5511,"lng":13.19921},{"city":"Neumarkt in der Oberpfalz","state":"Bavaria","population":39557,"lat":49.28028,"lng":11.46278},{"city":"Mettmann","state":"North Rhine-Westphalia","population":39550,"lat":51.2504,"lng":6.97536},{"city":"Löhne","state":"North Rhine-Westphalia","population":39521,"lat":52.18848,"lng":8.6922},{"city":"Kamp-Lintfort","state":"North Rhine-Westphalia","population":39490,"lat":51.50467,"lng":6.54587},{"city":"Bensheim","state":"Hesse","population":39439,"lat":49.68369,"lng":8.61839},{"city":"Siegburg","state":"North Rhine-Westphalia","population":39135,"lat":50.80019,"lng":7.20769},{"city":"Freital","state":"Saxony","population":39027,"lat":51.00166,"lng":13.6488},{"city":"Ettlingen","state":"Baden-Wurttemberg","population":38942,"lat":48.94094,"lng":8.40763},{"city":"Biebrich","state":"Hesse","population":38758,"lat":50.0415,"lng":8.24878},{"city":"Warendorf","state":"North Rhine-Westphalia","population":38707,"lat":51.95109,"lng":7.98756},{"city":"Sankt Ingbert","state":"Saarland","population":38697,"lat":49.27697,"lng":7.11672},{"city":"Falkenhagener Feld","state":"State of Berlin","population":38667,"lat":52.55191,"lng":13.16802},{"city":"Altenburg","state":"Thuringia","population":38568,"lat":50.98763,"lng":12.43684},{"city":"Schwabach","state":"Bavaria","population":38554,"lat":49.33047,"lng":11.02346},{"city":"Leuben","state":"Saxony","population":38353,"lat":51.01122,"lng":13.82029},{"city":"Saarlouis","state":"Saarland","population":38333,"lat":49.31366,"lng":6.75154},{"city":"Maintal","state":"Hesse","population":38313,"lat":50.15,"lng":8.83333},{"city":"Linden","state":"Lower Saxony","population":38284,"lat":52.36449,"lng":9.71157},{"city":"Buxtehude","state":"Lower Saxony","population":38192,"lat":53.46994,"lng":9.68968},{"city":"Ahaus","state":"North Rhine-Westphalia","population":38165,"lat":52.07936,"lng":7.01344},{"city":"Mühlhausen","state":"Thuringia","population":38108,"lat":51.20896,"lng":10.45275},{"city":"Hamm","state":"Hamburg","population":37989,"lat":53.55487,"lng":10.05742},{"city":"Neustadt/Süd","state":"North Rhine-Westphalia","population":37939,"lat":50.92509,"lng":6.94762},{"city":"Horn","state":"Hamburg","population":37903,"lat":53.55406,"lng":10.08989},{"city":"Haltern am See","state":"North Rhine-Westphalia","population":37845,"lat":51.74297,"lng":7.18163},{"city":"Beckum","state":"North Rhine-Westphalia","population":37814,"lat":51.75571,"lng":8.04075},{"city":"Hofheim am Taunus","state":"Hesse","population":37750,"lat":50.09019,"lng":8.4493},{"city":"Stendal","state":"Saxony-Anhalt","population":37722,"lat":52.6069,"lng":11.85867},{"city":"Gropiusstadt","state":"State of Berlin","population":37686,"lat":52.42686,"lng":13.46053},{"city":"Hemer","state":"North Rhine-Westphalia","population":37502,"lat":51.38707,"lng":7.77019},{"city":"Falkensee","state":"Brandenburg","population":37468,"lat":52.56014,"lng":13.0927},{"city":"Riesa","state":"Saxony","population":37156,"lat":51.30777,"lng":13.29168},{"city":"Würselen","state":"North Rhine-Westphalia","population":37074,"lat":50.81809,"lng":6.1347},{"city":"Wermelskirchen","state":"North Rhine-Westphalia","population":36816,"lat":51.1397,"lng":7.21583},{"city":"Tegel","state":"State of Berlin","population":36764,"lat":52.57601,"lng":13.29389},{"city":"Leinfelden-Echterdingen","state":"Baden-Wurttemberg","population":36672,"lat":48.69406,"lng":9.16809},{"city":"Coesfeld","state":"North Rhine-Westphalia","population":36631,"lat":51.94349,"lng":7.16809},{"city":"Schwäbisch Hall","state":"Baden-Wurttemberg","population":36543,"lat":49.11127,"lng":9.73908},{"city":"Lurup","state":"Hamburg","population":36521,"lat":53.59266,"lng":9.87697},{"city":"Niederkassel","state":"North Rhine-Westphalia","population":36480,"lat":50.81503,"lng":7.03777},{"city":"Porta Westfalica","state":"North Rhine-Westphalia","population":36364,"lat":52.22961,"lng":8.91612},{"city":"Datteln","state":"North Rhine-Westphalia","population":36338,"lat":51.65598,"lng":7.3453},{"city":"Kempen","state":"North Rhine-Westphalia","population":36312,"lat":51.36432,"lng":6.41858},{"city":"Voerde","state":"North Rhine-Westphalia","population":36047,"lat":51.59703,"lng":6.6863},{"city":"Barmbek-Süd","state":"Hamburg","population":35880,"lat":53.58007,"lng":10.04067},{"city":"Backnang","state":"Baden-Wurttemberg","population":35778,"lat":48.94743,"lng":9.43718},{"city":"Pasing","state":"Bavaria","population":35728,"lat":48.14146,"lng":11.45599},{"city":"Wesseling","state":"North Rhine-Westphalia","population":35665,"lat":50.82709,"lng":6.9747},{"city":"Emsdetten","state":"North Rhine-Westphalia","population":35582,"lat":52.1734,"lng":7.52781},{"city":"Farmsen-Berne","state":"Hamburg","population":35477,"lat":53.60639,"lng":10.11972},{"city":"Langen","state":"Hesse","population":35416,"lat":49.98955,"lng":8.66852},{"city":"Neu-Isenburg","state":"Hesse","population":35293,"lat":50.04832,"lng":8.69406},{"city":"Zweibrücken","state":"Rheinland-Pfalz","population":35221,"lat":49.24686,"lng":7.36977},{"city":"Sinsheim","state":"Baden-Wurttemberg","population":35219,"lat":49.2529,"lng":8.87867},{"city":"Ottensen","state":"Hamburg","population":35136,"lat":53.55213,"lng":9.92421},{"city":"Greven","state":"North Rhine-Westphalia","population":35080,"lat":52.09364,"lng":7.59396},{"city":"Eidelstedt","state":"Hamburg","population":35078,"lat":53.60697,"lng":9.90538},{"city":"Bonn Hardtberg","state":"North Rhine-Westphalia","population":35000,"lat":50.704,"lng":7.054},{"city":"Uelzen","state":"Lower Saxony","population":34996,"lat":52.96572,"lng":10.56111},{"city":"Lage","state":"North Rhine-Westphalia","population":34885,"lat":51.99223,"lng":8.79301},{"city":"Bernau bei Berlin","state":"Brandenburg","population":34866,"lat":52.67982,"lng":13.58708},{"city":"Tuttlingen","state":"Baden-Wurttemberg","population":34847,"lat":47.98464,"lng":8.8177},{"city":"Merseburg","state":"Saxony-Anhalt","population":34780,"lat":51.35478,"lng":11.98923},{"city":"Vegesack","state":"City state Bremen","population":34757,"lat":53.17923,"lng":8.62228},{"city":"Steinfurt","state":"North Rhine-Westphalia","population":34601,"lat":52.15045,"lng":7.33664},{"city":"Wernigerode","state":"Saxony-Anhalt","population":34463,"lat":51.83652,"lng":10.78216},{"city":"Balingen","state":"Baden-Wurttemberg","population":34414,"lat":48.27525,"lng":8.85464},{"city":"Meppen","state":"Lower Saxony","population":34198,"lat":52.69064,"lng":7.29097},{"city":"Papenburg","state":"Lower Saxony","population":34117,"lat":53.07769,"lng":7.41516},{"city":"Geldern","state":"North Rhine-Westphalia","population":34013,"lat":51.51908,"lng":6.32363},{"city":"Kehl","state":"Baden-Wurttemberg","population":34009,"lat":48.57297,"lng":7.81523},{"city":"Jülich","state":"North Rhine-Westphalia","population":33911,"lat":50.92149,"lng":6.36267},{"city":"Leer","state":"Lower Saxony","population":33886,"lat":53.23157,"lng":7.461},{"city":"Limburg an der Lahn","state":"Hesse","population":33820,"lat":50.3836,"lng":8.0503},{"city":"Fennpfuhl","state":"State of Berlin","population":33751,"lat":52.52921,"lng":13.47267},{"city":"Goch","state":"North Rhine-Westphalia","population":33706,"lat":51.67873,"lng":6.15895},{"city":"Ostfildern","state":"Baden-Wurttemberg","population":33598,"lat":48.72704,"lng":9.24954},{"city":"Fürstenwalde","state":"Brandenburg","population":33539,"lat":52.36067,"lng":14.06185},{"city":"Fürstenfeldbruck","state":"Bavaria","population":33533,"lat":48.17904,"lng":11.2547},{"city":"Erding","state":"Bavaria","population":33519,"lat":48.30603,"lng":11.90686},{"city":"Korschenbroich","state":"North Rhine-Westphalia","population":33406,"lat":51.19139,"lng":6.51352},{"city":"Dietzenbach","state":"Hesse","population":33256,"lat":50.00976,"lng":8.77783},{"city":"Itzehoe","state":"Schleswig-Holstein","population":33047,"lat":53.92099,"lng":9.51529},{"city":"Burglesum","state":"City state Bremen","population":33000,"lat":53.16532,"lng":8.68873},{"city":"Buer","state":"North Rhine-Westphalia","population":32919,"lat":51.5774,"lng":7.0518},{"city":"Seelze","state":"Lower Saxony","population":32899,"lat":52.39635,"lng":9.59727},{"city":"Mörfelden-Walldorf","state":"Hesse","population":32753,"lat":49.99472,"lng":8.58361},{"city":"Höxter","state":"North Rhine-Westphalia","population":32713,"lat":51.77501,"lng":9.38155},{"city":"Gevelsberg","state":"North Rhine-Westphalia","population":32664,"lat":51.31971,"lng":7.3392},{"city":"Winsen","state":"Lower Saxony","population":32662,"lat":53.35753,"lng":10.21282},{"city":"Herrenberg","state":"Baden-Wurttemberg","population":32649,"lat":48.59523,"lng":8.86648},{"city":"Radebeul","state":"Saxony","population":32643,"lat":51.10654,"lng":13.66047},{"city":"Nienburg","state":"Lower Saxony","population":32629,"lat":52.6461,"lng":9.22086},{"city":"Viernheim","state":"Hesse","population":32620,"lat":49.54033,"lng":8.5782},{"city":"Ennepetal","state":"North Rhine-Westphalia","population":32607,"lat":51.29848,"lng":7.3629},{"city":"Georgsmarienhütte","state":"Lower Saxony","population":32580,"lat":52.20296,"lng":8.0448},{"city":"Rheinfelden","state":"Baden-Wurttemberg","population":32535,"lat":47.56013,"lng":7.78715},{"city":"Königs Wusterhausen","state":"Brandenburg","population":32513,"lat":52.30141,"lng":13.633},{"city":"Stuhr","state":"Lower Saxony","population":32507,"lat":53.03333,"lng":8.75},{"city":"Biberach an der Riß","state":"Baden-Wurttemberg","population":32333,"lat":48.09345,"lng":9.79053},{"city":"Marienfelde","state":"State of Berlin","population":32270,"lat":52.41868,"lng":13.36723},{"city":"Crailsheim","state":"Baden-Wurttemberg","population":32262,"lat":49.13444,"lng":10.07193},{"city":"Meschede","state":"North Rhine-Westphalia","population":32224,"lat":51.3502,"lng":8.28332},{"city":"Rheinberg","state":"North Rhine-Westphalia","population":32188,"lat":51.54649,"lng":6.59525},{"city":"Werl","state":"North Rhine-Westphalia","population":32149,"lat":51.55493,"lng":7.91403},{"city":"Bernburg","state":"Saxony-Anhalt","population":32113,"lat":51.79464,"lng":11.7401},{"city":"Neugraben-Fischbek","state":"Hamburg","population":32054,"lat":53.46579,"lng":9.84344},{"city":"Eisenhüttenstadt","state":"Brandenburg","population":32052,"lat":52.15,"lng":14.65},{"city":"Langendreer","state":"North Rhine-Westphalia","population":32047,"lat":51.46023,"lng":7.32584},{"city":"Niederschönhausen","state":"State of Berlin","population":32037,"lat":52.58483,"lng":13.40272},{"city":"Wedel","state":"Schleswig-Holstein","population":31995,"lat":53.58374,"lng":9.69835},{"city":"Neuruppin","state":"Brandenburg","population":31901,"lat":52.92815,"lng":12.80311},{"city":"Ansbach","state":"Bavaria","population":31839,"lat":49.30481,"lng":10.5931},{"city":"Kreuztal","state":"North Rhine-Westphalia","population":31772,"lat":50.96775,"lng":7.98848},{"city":"Lampertheim","state":"Hesse","population":31635,"lat":49.59786,"lng":8.4725},{"city":"Idar-Oberstein","state":"Rheinland-Pfalz","population":31610,"lat":49.71443,"lng":7.30776},{"city":"Osterholz-Scharmbeck","state":"Lower Saxony","population":31405,"lat":53.22698,"lng":8.79528},{"city":"Bramsche","state":"Lower Saxony","population":31394,"lat":52.40881,"lng":7.97288},{"city":"Lohmar","state":"North Rhine-Westphalia","population":31339,"lat":50.83868,"lng":7.21399},{"city":"Hakenfelde","state":"State of Berlin","population":31327,"lat":52.55877,"lng":13.20831},{"city":"Güstrow","state":"Mecklenburg-Vorpommern","population":31217,"lat":53.7972,"lng":12.17337},{"city":"Cloppenburg","state":"Lower Saxony","population":31177,"lat":52.84754,"lng":8.045},{"city":"Ganderkesee","state":"Lower Saxony","population":31141,"lat":53.03616,"lng":8.54514},{"city":"Merzig","state":"Saarland","population":31118,"lat":49.44331,"lng":6.63874},{"city":"Deggendorf","state":"Bavaria","population":31081,"lat":48.84085,"lng":12.96068},{"city":"Kornwestheim","state":"Baden-Wurttemberg","population":31040,"lat":48.86158,"lng":9.18569},{"city":"Burgdorf","state":"Lower Saxony","population":30899,"lat":52.44628,"lng":10.0064},{"city":"Northeim","state":"Lower Saxony","population":30894,"lat":51.70662,"lng":9.99997},{"city":"Emmerich","state":"North Rhine-Westphalia","population":30869,"lat":51.83933,"lng":6.24792},{"city":"Werne","state":"North Rhine-Westphalia","population":30810,"lat":51.66446,"lng":7.63421},{"city":"Bad Vilbel","state":"Hesse","population":30736,"lat":50.17866,"lng":8.73756},{"city":"Bad Hersfeld","state":"Hesse","population":30725,"lat":50.87197,"lng":9.70891},{"city":"Forchheim","state":"Bavaria","population":30442,"lat":49.71754,"lng":11.05877},{"city":"Oer-Erkenschwick","state":"North Rhine-Westphalia","population":30409,"lat":51.64198,"lng":7.26451},{"city":"Schönebeck","state":"Saxony-Anhalt","population":30387,"lat":52.01682,"lng":11.7307},{"city":"Tönisvorst","state":"North Rhine-Westphalia","population":30296,"lat":51.32092,"lng":6.49412},{"city":"Bad Nauheim","state":"Hesse","population":30291,"lat":50.36463,"lng":8.73859},{"city":"Schwelm","state":"North Rhine-Westphalia","population":30235,"lat":51.28635,"lng":7.29388},{"city":"Waltrop","state":"North Rhine-Westphalia","population":30220,"lat":51.62125,"lng":7.40238},{"city":"Schwedt (Oder)","state":"Brandenburg","population":30189,"lat":53.05963,"lng":14.28154},{"city":"Ahrensburg","state":"Schleswig-Holstein","population":30103,"lat":53.67661,"lng":10.23705},{"city":"Schnelsen","state":"Hamburg","population":30100,"lat":53.63738,"lng":9.91973},{"city":"Radolfzell","state":"Baden-Wurttemberg","population":30096,"lat":47.74194,"lng":8.97098},{"city":"Achim","state":"Lower Saxony","population":30013,"lat":53.01416,"lng":9.0263},{"city":"Wittenberg","state":"Saxony-Anhalt","population":30000,"lat":51.8661,"lng":12.64973},{"city":"Friedberg","state":"Bavaria","population":29916,"lat":48.35693,"lng":10.98461},{"city":"Delbrück","state":"North Rhine-Westphalia","population":29884,"lat":51.76503,"lng":8.56223},{"city":"Springe","state":"Lower Saxony","population":29828,"lat":52.20845,"lng":9.55416},{"city":"Weißenfels","state":"Saxony-Anhalt","population":29792,"lat":51.20148,"lng":11.96843},{"city":"Mahlsdorf","state":"State of Berlin","population":29757,"lat":52.50935,"lng":13.61373},{"city":"Vechta","state":"Lower Saxony","population":29729,"lat":52.72632,"lng":8.28598},{"city":"Naumburg","state":"Saxony-Anhalt","population":29722,"lat":51.14987,"lng":11.80979},{"city":"Wegberg","state":"North Rhine-Westphalia","population":29622,"lat":51.14221,"lng":6.28436},{"city":"Andernach","state":"Rheinland-Pfalz","population":29599,"lat":50.43109,"lng":7.40425},{"city":"Altglienicke","state":"State of Berlin","population":29595,"lat":52.41116,"lng":13.5355},{"city":"Weil am Rhein","state":"Baden-Wurttemberg","population":29548,"lat":47.59331,"lng":7.62082},{"city":"Taunusstein","state":"Hesse","population":29501,"lat":50.14993,"lng":8.15206},{"city":"Gaggenau","state":"Baden-Wurttemberg","population":29496,"lat":48.8,"lng":8.33333},{"city":"Geesthacht","state":"Schleswig-Holstein","population":29487,"lat":53.4366,"lng":10.37339},{"city":"Zeitz","state":"Saxony-Anhalt","population":29469,"lat":51.04962,"lng":12.1369},{"city":"Altona-Altstadt","state":"Hamburg","population":29455,"lat":53.55018,"lng":9.94653},{"city":"Haan","state":"North Rhine-Westphalia","population":29431,"lat":51.19382,"lng":7.0133},{"city":"Oelde","state":"North Rhine-Westphalia","population":29297,"lat":51.8289,"lng":8.14724},{"city":"Bühl","state":"Baden-Wurttemberg","population":29193,"lat":48.69676,"lng":8.13523},{"city":"Kelkheim","state":"Hesse","population":29162,"lat":50.13703,"lng":8.4502},{"city":"Wetter","state":"North Rhine-Westphalia","population":29146,"lat":51.38747,"lng":7.39277},{"city":"Blankenfelde-Mahlow","state":"Brandenburg","population":29129,"lat":52.33645,"lng":13.41316},{"city":"Senftenberg","state":"Brandenburg","population":28988,"lat":51.52517,"lng":14.00164},{"city":"Biesdorf","state":"State of Berlin","population":28955,"lat":52.50906,"lng":13.5534},{"city":"Düsseldorf-Pempelfort","state":"North Rhine-Westphalia","population":28941,"lat":51.23812,"lng":6.78678},{"city":"Vaihingen an der Enz","state":"Baden-Wurttemberg","population":28867,"lat":48.93563,"lng":8.96045},{"city":"Köthen","state":"Saxony-Anhalt","population":28710,"lat":51.75185,"lng":11.97093},{"city":"Rietberg","state":"North Rhine-Westphalia","population":28672,"lat":51.80924,"lng":8.42841},{"city":"Geislingen an der Steige","state":"Baden-Wurttemberg","population":28655,"lat":48.62423,"lng":9.82736},{"city":"Mühlheim am Main","state":"Hesse","population":28534,"lat":50.11667,"lng":8.83333},{"city":"Warstein","state":"North Rhine-Westphalia","population":28532,"lat":51.44488,"lng":8.34851},{"city":"Meissen","state":"Saxony","population":28492,"lat":51.16158,"lng":13.4737},{"city":"Neuburg an der Donau","state":"Bavaria","population":28370,"lat":48.73218,"lng":11.18709},{"city":"Winnenden","state":"Baden-Wurttemberg","population":28334,"lat":48.87563,"lng":9.39819},{"city":"Geilenkirchen","state":"North Rhine-Westphalia","population":28334,"lat":50.96745,"lng":6.11763},{"city":"Rendsburg","state":"Schleswig-Holstein","population":28323,"lat":54.30182,"lng":9.67175},{"city":"Schwandorf in Bayern","state":"Bavaria","population":28235,"lat":49.32534,"lng":12.1098},{"city":"Plettenberg","state":"North Rhine-Westphalia","population":28206,"lat":51.20949,"lng":7.87261},{"city":"Karlshorst","state":"State of Berlin","population":28206,"lat":52.48419,"lng":13.53185},{"city":"Baunatal","state":"Hesse","population":28173,"lat":51.25182,"lng":9.40747},{"city":"Neustadt/Nord","state":"North Rhine-Westphalia","population":28146,"lat":50.949,"lng":6.9479},{"city":"Bretten","state":"Baden-Wurttemberg","population":28144,"lat":49.03685,"lng":8.70745},{"city":"Neukirchen-Vluyn","state":"North Rhine-Westphalia","population":28110,"lat":51.44665,"lng":6.55194},{"city":"Lennestadt","state":"North Rhine-Westphalia","population":28102,"lat":51.11721,"lng":8.06707},{"city":"Kevelaer","state":"North Rhine-Westphalia","population":28064,"lat":51.58243,"lng":6.24603},{"city":"Stuttgart Feuerbach","state":"Baden-Wurttemberg","population":28046,"lat":48.80867,"lng":9.15719},{"city":"Saalfeld","state":"Thuringia","population":28023,"lat":50.64826,"lng":11.36536},{"city":"Friedenau","state":"State of Berlin","population":27998,"lat":52.47133,"lng":13.32813},{"city":"Einbeck","state":"Lower Saxony","population":27931,"lat":51.82018,"lng":9.86961},{"city":"Leichlingen","state":"North Rhine-Westphalia","population":27885,"lat":51.10628,"lng":7.01873},{"city":"Baesweiler","state":"North Rhine-Westphalia","population":27834,"lat":50.90964,"lng":6.18874},{"city":"Bad Neuenahr-Ahrweiler","state":"Rheinland-Pfalz","population":27823,"lat":50.54322,"lng":7.1113},{"city":"Nordenham","state":"Lower Saxony","population":27714,"lat":53.50098,"lng":8.48965},{"city":"Heiligenhaus","state":"North Rhine-Westphalia","population":27700,"lat":51.32662,"lng":6.97106},{"city":"Hörde","state":"North Rhine-Westphalia","population":27660,"lat":51.48371,"lng":7.5003},{"city":"Dorstfeld","state":"North Rhine-Westphalia","population":27655,"lat":51.50135,"lng":7.41085},{"city":"Kulmbach","state":"Bavaria","population":27565,"lat":50.10068,"lng":11.45032},{"city":"Dotzheim","state":"Hesse","population":27557,"lat":50.07438,"lng":8.19503},{"city":"Sundern","state":"North Rhine-Westphalia","population":27554,"lat":51.3281,"lng":8.00369},{"city":"Bad Zwischenahn","state":"Lower Saxony","population":27550,"lat":53.18475,"lng":8.00286},{"city":"Selm","state":"North Rhine-Westphalia","population":27540,"lat":51.69689,"lng":7.46809},{"city":"Mechernich","state":"North Rhine-Westphalia","population":27537,"lat":50.59304,"lng":6.65224},{"city":"Altstadt Sud","state":"North Rhine-Westphalia","population":27515,"lat":50.93331,"lng":6.95954},{"city":"Königsbrunn","state":"Bavaria","population":27494,"lat":48.27506,"lng":10.89178},{"city":"Friedberg","state":"Hesse","population":27484,"lat":50.33739,"lng":8.75591},{"city":"Hamminkeln","state":"North Rhine-Westphalia","population":27433,"lat":51.73262,"lng":6.59031},{"city":"Neckarsulm","state":"Baden-Wurttemberg","population":27413,"lat":49.18912,"lng":9.22527},{"city":"Emmendingen","state":"Baden-Wurttemberg","population":27383,"lat":48.12096,"lng":7.85359},{"city":"Ehingen","state":"Baden-Wurttemberg","population":27276,"lat":48.28259,"lng":9.72749},{"city":"Lohne","state":"Lower Saxony","population":27259,"lat":52.66625,"lng":8.2375},{"city":"Overath","state":"North Rhine-Westphalia","population":27203,"lat":50.93275,"lng":7.28389},{"city":"Wersten","state":"North Rhine-Westphalia","population":27151,"lat":51.18459,"lng":6.81249},{"city":"Leimen","state":"Baden-Wurttemberg","population":27142,"lat":49.34737,"lng":8.68733},{"city":"Rathenow","state":"Brandenburg","population":27115,"lat":52.60659,"lng":12.33696},{"city":"Petershagen","state":"North Rhine-Westphalia","population":27090,"lat":52.37513,"lng":8.96538},{"city":"Ilmenau","state":"Thuringia","population":27055,"lat":50.68322,"lng":10.91858},{"city":"Wiesloch","state":"Baden-Wurttemberg","population":27049,"lat":49.29504,"lng":8.69846},{"city":"Wangen","state":"Baden-Wurttemberg","population":27045,"lat":47.6895,"lng":9.83247},{"city":"Niederrad","state":"Hesse","population":27043,"lat":50.08309,"lng":8.62852},{"city":"Brilon","state":"North Rhine-Westphalia","population":27030,"lat":51.39462,"lng":8.57146},{"city":"Landsberg am Lech","state":"Bavaria","population":27017,"lat":48.04819,"lng":10.88282},{"city":"Verden","state":"Lower Saxony","population":26924,"lat":52.92343,"lng":9.23491},{"city":"Sankt Wendel","state":"Saarland","population":26904,"lat":49.46633,"lng":7.16814},{"city":"Rösrath","state":"North Rhine-Westphalia","population":26868,"lat":50.89559,"lng":7.18175},{"city":"Strausberg","state":"Brandenburg","population":26649,"lat":52.57859,"lng":13.88741},{"city":"Remseck am Neckar","state":"Baden-Wurttemberg","population":26549,"lat":48.87213,"lng":9.27334},{"city":"Glauchau","state":"Saxony","population":26473,"lat":50.81987,"lng":12.54493},{"city":"Osdorf","state":"Hamburg","population":26420,"lat":53.57982,"lng":9.85826},{"city":"Lauf an der Pegnitz","state":"Bavaria","population":26403,"lat":49.51386,"lng":11.28247},{"city":"Sprockhövel","state":"North Rhine-Westphalia","population":26400,"lat":51.34669,"lng":7.24343},{"city":"Espelkamp","state":"North Rhine-Westphalia","population":26378,"lat":52.38251,"lng":8.62127},{"city":"Mühlacker","state":"Baden-Wurttemberg","population":26375,"lat":48.94754,"lng":8.83675},{"city":"Wiehl","state":"North Rhine-Westphalia","population":26291,"lat":50.9495,"lng":7.55062},{"city":"Rheinbach","state":"North Rhine-Westphalia","population":26262,"lat":50.62562,"lng":6.94911},{"city":"Weinstadt-Endersbach","state":"Baden-Wurttemberg","population":26166,"lat":48.81311,"lng":9.36387},{"city":"Schmallenberg","state":"North Rhine-Westphalia","population":26132,"lat":51.15473,"lng":8.28505},{"city":"Hennigsdorf","state":"Brandenburg","population":26122,"lat":52.63598,"lng":13.20419},{"city":"Misburg","state":"Lower Saxony","population":26114,"lat":52.39006,"lng":9.85199},{"city":"Stuttgart Mühlhausen","state":"Baden-Wurttemberg","population":26111,"lat":48.84232,"lng":9.23028},{"city":"Fischeln","state":"North Rhine-Westphalia","population":26030,"lat":51.30353,"lng":6.58836},{"city":"Garmisch-Partenkirchen","state":"Bavaria","population":26022,"lat":47.49209,"lng":11.09576},{"city":"Altona-Nord","state":"Hamburg","population":25802,"lat":53.56321,"lng":9.94257},{"city":"Zittau","state":"Saxony","population":25785,"lat":50.89772,"lng":14.80764},{"city":"Zirndorf","state":"Bavaria","population":25734,"lat":49.4424,"lng":10.95414},{"city":"Rummelsburg","state":"State of Berlin","population":25697,"lat":52.50146,"lng":13.4934},{"city":"Olpe","state":"North Rhine-Westphalia","population":25686,"lat":51.02899,"lng":7.85139},{"city":"Arnstadt","state":"Thuringia","population":25678,"lat":50.84048,"lng":10.95198},{"city":"Rinteln","state":"Lower Saxony","population":25626,"lat":52.18604,"lng":9.07917},{"city":"Herdecke","state":"North Rhine-Westphalia","population":25618,"lat":51.39999,"lng":7.43584},{"city":"Lübbecke","state":"North Rhine-Westphalia","population":25573,"lat":52.30699,"lng":8.61423},{"city":"Unterschleißheim","state":"Bavaria","population":25567,"lat":48.28038,"lng":11.57684},{"city":"Übach-Palenberg","state":"North Rhine-Westphalia","population":25544,"lat":50.91775,"lng":6.12336},{"city":"Meckenheim","state":"North Rhine-Westphalia","population":25515,"lat":50.62388,"lng":7.02942},{"city":"Helmstedt","state":"Lower Saxony","population":25515,"lat":52.2279,"lng":11.00985},{"city":"Rottweil","state":"Baden-Wurttemberg","population":25510,"lat":48.16783,"lng":8.62719},{"city":"Rudolstadt","state":"Thuringia","population":25476,"lat":50.72043,"lng":11.34046},{"city":"Heppenheim an der Bergstrasse","state":"Hesse","population":25442,"lat":49.64145,"lng":8.63206},{"city":"Horb am Neckar","state":"Baden-Wurttemberg","population":25424,"lat":48.44423,"lng":8.6913},{"city":"Bad Honnef","state":"North Rhine-Westphalia","population":25348,"lat":50.64336,"lng":7.2278},{"city":"Griesheim","state":"Hesse","population":25287,"lat":49.86085,"lng":8.5725},{"city":"Reinbek","state":"Schleswig-Holstein","population":25261,"lat":53.51703,"lng":10.2488},{"city":"Wolfen","state":"Saxony-Anhalt","population":25251,"lat":51.66122,"lng":12.26873},{"city":"Varel","state":"Lower Saxony","population":25212,"lat":53.39693,"lng":8.13621},{"city":"Netphen","state":"North Rhine-Westphalia","population":25163,"lat":50.91667,"lng":8.1},{"city":"Butzbach","state":"Hesse","population":25156,"lat":50.43395,"lng":8.67122},{"city":"Mosbach","state":"Baden-Wurttemberg","population":25106,"lat":49.35357,"lng":9.15106},{"city":"Pfungstadt","state":"Hesse","population":25084,"lat":49.80557,"lng":8.60307},{"city":"Roth","state":"Bavaria","population":25083,"lat":49.24762,"lng":11.09111},{"city":"Hannoversch Münden","state":"Lower Saxony","population":25073,"lat":51.41505,"lng":9.65046},{"city":"Hattersheim","state":"Hesse","population":25035,"lat":50.06906,"lng":8.48632},{"city":"Ingelheim am Rhein","state":"Rheinland-Pfalz","population":24998,"lat":49.97078,"lng":8.05883},{"city":"Delitzsch","state":"Saxony","population":24998,"lat":51.52546,"lng":12.34284},{"city":"Burg bei Magdeburg","state":"Saxony-Anhalt","population":24958,"lat":52.27152,"lng":11.85493},{"city":"Bedburg","state":"North Rhine-Westphalia","population":24937,"lat":50.99258,"lng":6.57128},{"city":"Brackel","state":"North Rhine-Westphalia","population":24930,"lat":51.52573,"lng":7.54438},{"city":"Aschersleben","state":"Saxony-Anhalt","population":24892,"lat":51.75742,"lng":11.46084},{"city":"Wertheim","state":"Baden-Wurttemberg","population":24869,"lat":49.759,"lng":9.50852},{"city":"Eißendorf","state":"Hamburg","population":24863,"lat":53.45216,"lng":9.95131},{"city":"Blasewitz","state":"Saxony","population":24863,"lat":51.05305,"lng":13.79831},{"city":"Eppendorf","state":"Hamburg","population":24806,"lat":53.5924,"lng":9.98752},{"city":"Apolda","state":"Thuringia","population":24793,"lat":51.02624,"lng":11.51638},{"city":"Attendorn","state":"North Rhine-Westphalia","population":24773,"lat":51.12645,"lng":7.90333},{"city":"Norden","state":"Lower Saxony","population":24767,"lat":53.59549,"lng":7.20615},{"city":"Wittenau","state":"State of Berlin","population":24726,"lat":52.59319,"lng":13.32127},{"city":"Waldkraiburg","state":"Bavaria","population":24676,"lat":48.20854,"lng":12.39893},{"city":"Markkleeberg","state":"Saxony","population":24664,"lat":51.2755,"lng":12.36906},{"city":"Bingen am Rhein","state":"Rheinland-Pfalz","population":24657,"lat":49.96675,"lng":7.8992},{"city":"Nieder-Ingelheim","state":"Rheinland-Pfalz","population":24596,"lat":49.97756,"lng":8.07246},{"city":"Salzkotten","state":"North Rhine-Westphalia","population":24561,"lat":51.6717,"lng":8.60092},{"city":"Lindau","state":"Bavaria","population":24518,"lat":47.54612,"lng":9.68431},{"city":"Korbach","state":"Hesse","population":24481,"lat":51.27561,"lng":8.873},{"city":"Achern","state":"Baden-Wurttemberg","population":24478,"lat":48.63115,"lng":8.07607},{"city":"Ellwangen","state":"Baden-Wurttemberg","population":24477,"lat":48.96164,"lng":10.13173},{"city":"Dillenburg","state":"Hesse","population":24461,"lat":50.74114,"lng":8.28699},{"city":"Obertshausen","state":"Hesse","population":24459,"lat":50.07139,"lng":8.85123},{"city":"Walsrode","state":"Lower Saxony","population":24448,"lat":52.86147,"lng":9.5926},{"city":"Friedrichsdorf","state":"Hesse","population":24435,"lat":50.24962,"lng":8.64281},{"city":"Werdau","state":"Saxony","population":24424,"lat":50.73604,"lng":12.37534},{"city":"Bad Oldesloe","state":"Schleswig-Holstein","population":24322,"lat":53.81167,"lng":10.37417},{"city":"Warburg","state":"North Rhine-Westphalia","population":24317,"lat":51.49011,"lng":9.14641},{"city":"Syke","state":"Lower Saxony","population":24274,"lat":52.91345,"lng":8.82209},{"city":"Weiterstadt","state":"Hesse","population":24253,"lat":49.9039,"lng":8.58874},{"city":"Harsewinkel","state":"North Rhine-Westphalia","population":24207,"lat":51.96224,"lng":8.22766},{"city":"Wallenhorst","state":"Lower Saxony","population":24201,"lat":52.35,"lng":8.01667},{"city":"Ludwigsfelde","state":"Brandenburg","population":24164,"lat":52.30322,"lng":13.25405},{"city":"Ditzingen","state":"Baden-Wurttemberg","population":24149,"lat":48.82672,"lng":9.06703},{"city":"Greiz","state":"Thuringia","population":24147,"lat":50.65778,"lng":12.19918},{"city":"Poppenbüttel","state":"Hamburg","population":24135,"lat":53.65917,"lng":10.08472},{"city":"Schleswig","state":"Schleswig-Holstein","population":24114,"lat":54.52021,"lng":9.56829},{"city":"Radevormwald","state":"North Rhine-Westphalia","population":24100,"lat":51.20219,"lng":7.36027},{"city":"Lüdinghausen","state":"North Rhine-Westphalia","population":24094,"lat":51.7683,"lng":7.44379},{"city":"Verl","state":"North Rhine-Westphalia","population":24002,"lat":51.88333,"lng":8.51667},{"city":"Olching","state":"Bavaria","population":23978,"lat":48.2,"lng":11.33333},{"city":"Starnberg","state":"Bavaria","population":23940,"lat":48.00193,"lng":11.34416},{"city":"Sonneberg","state":"Thuringia","population":23908,"lat":50.3592,"lng":11.17463},{"city":"Freudenstadt","state":"Baden-Wurttemberg","population":23868,"lat":48.46695,"lng":8.41371},{"city":"Weingarten","state":"Baden-Wurttemberg","population":23802,"lat":47.81009,"lng":9.63863},{"city":"Calw","state":"Baden-Wurttemberg","population":23740,"lat":48.71419,"lng":8.74031},{"city":"Wipperfürth","state":"North Rhine-Westphalia","population":23723,"lat":51.1161,"lng":7.39865},{"city":"Limbach-Oberfrohna","state":"Saxony","population":23711,"lat":50.85882,"lng":12.76165},{"city":"Groß-Gerau","state":"Hesse","population":23641,"lat":49.92139,"lng":8.48255},{"city":"Oberschöneweide","state":"State of Berlin","population":23638,"lat":52.46106,"lng":13.52108},{"city":"Neuehrenfeld","state":"North Rhine-Westphalia","population":23621,"lat":50.95753,"lng":6.93611},{"city":"Stellingen","state":"Hamburg","population":23472,"lat":53.5922,"lng":9.9287},{"city":"Ronnenberg","state":"Lower Saxony","population":23416,"lat":52.31939,"lng":9.65544},{"city":"Eckernförde","state":"Schleswig-Holstein","population":23383,"lat":54.46854,"lng":9.83824},{"city":"Weilheim","state":"Bavaria","population":23378,"lat":47.84147,"lng":11.15484},{"city":"Misburg-Nord","state":"Lower Saxony","population":23369,"lat":52.39681,"lng":9.86027},{"city":"Geretsried","state":"Bavaria","population":23364,"lat":47.85775,"lng":11.48054},{"city":"Sangerhausen","state":"Saxony-Anhalt","population":23347,"lat":51.47221,"lng":11.29533},{"city":"Herzogenaurach","state":"Bavaria","population":23319,"lat":49.56798,"lng":10.88565},{"city":"Blieskastel","state":"Saarland","population":23212,"lat":49.23724,"lng":7.25617},{"city":"Pfaffenhofen an der Ilm","state":"Bavaria","population":23192,"lat":48.53053,"lng":11.505},{"city":"Sasel","state":"Hamburg","population":23131,"lat":53.65385,"lng":10.11184},{"city":"Hoheluft-Ost","state":"Hamburg","population":23116,"lat":53.58399,"lng":9.97585},{"city":"Annaberg-Buchholz","state":"Saxony","population":23092,"lat":50.57953,"lng":13.00627},{"city":"Stadthagen","state":"Lower Saxony","population":23076,"lat":52.32333,"lng":9.20311},{"city":"Lütgendortmund","state":"North Rhine-Westphalia","population":23065,"lat":51.49885,"lng":7.34806},{"city":"Sehnde","state":"Lower Saxony","population":23060,"lat":52.31394,"lng":9.9682},{"city":"Opladen","state":"North Rhine-Westphalia","population":23000,"lat":51.06863,"lng":7.00387},{"city":"Neheim","state":"North Rhine-Westphalia","population":23000,"lat":51.45047,"lng":7.97026},{"city":"Staßfurt","state":"Saxony-Anhalt","population":22960,"lat":51.85186,"lng":11.58508},{"city":"Bad Harzburg","state":"Lower Saxony","population":22954,"lat":51.88268,"lng":10.56157},{"city":"Nagold","state":"Baden-Wurttemberg","population":22912,"lat":48.5498,"lng":8.72366},{"city":"Duderstadt","state":"Lower Saxony","population":22910,"lat":51.51312,"lng":10.25951},{"city":"Bad Soden am Taunus","state":"Hesse","population":22871,"lat":50.1408,"lng":8.50449},{"city":"Forst","state":"Brandenburg","population":22843,"lat":51.73544,"lng":14.63971},{"city":"Quedlinburg","state":"Saxony-Anhalt","population":22814,"lat":51.78843,"lng":11.15006},{"city":"Idstein","state":"Hesse","population":22810,"lat":50.21773,"lng":8.26679},{"city":"Kalk","state":"North Rhine-Westphalia","population":22802,"lat":50.94013,"lng":7.00605},{"city":"Öhringen","state":"Baden-Wurttemberg","population":22765,"lat":49.19884,"lng":9.5072},{"city":"Schmargendorf","state":"State of Berlin","population":22733,"lat":52.47517,"lng":13.29071},{"city":"Lengerich","state":"North Rhine-Westphalia","population":22697,"lat":52.18661,"lng":7.86043},{"city":"Eisleben Lutherstadt","state":"Saxony-Anhalt","population":22668,"lat":51.52754,"lng":11.54835},{"city":"Isernhagen Farster Bauerschaft","state":"Lower Saxony","population":22601,"lat":52.47093,"lng":9.84179},{"city":"Schwetzingen","state":"Baden-Wurttemberg","population":22593,"lat":49.38217,"lng":8.5823},{"city":"Jüchen","state":"North Rhine-Westphalia","population":22562,"lat":51.1,"lng":6.5},{"city":"Haren","state":"Lower Saxony","population":22545,"lat":52.79262,"lng":7.24142},{"city":"Rees","state":"North Rhine-Westphalia","population":22544,"lat":51.76263,"lng":6.39778},{"city":"Reichenbach/Vogtland","state":"Saxony","population":22530,"lat":50.62279,"lng":12.30344},{"city":"Bad Mergentheim","state":"Baden-Wurttemberg","population":22472,"lat":49.4925,"lng":9.77361},{"city":"Crimmitschau","state":"Saxony","population":22442,"lat":50.81644,"lng":12.39045},{"city":"Eving","state":"North Rhine-Westphalia","population":22430,"lat":51.55177,"lng":7.48087},{"city":"Vreden","state":"North Rhine-Westphalia","population":22412,"lat":52.03792,"lng":6.828},{"city":"Waldshut-Tiengen","state":"Baden-Wurttemberg","population":22404,"lat":47.62323,"lng":8.21717},{"city":"Werder","state":"Brandenburg","population":22384,"lat":52.37874,"lng":12.934},{"city":"Leutkirch","state":"Baden-Wurttemberg","population":22362,"lat":47.82672,"lng":10.0205},{"city":"Coswig","state":"Saxony","population":22304,"lat":51.13204,"lng":13.58312},{"city":"Neustrelitz","state":"Mecklenburg-Vorpommern","population":22291,"lat":53.3613,"lng":13.07292},{"city":"Senden","state":"Bavaria","population":22275,"lat":48.32441,"lng":10.04442},{"city":"Büren","state":"North Rhine-Westphalia","population":22263,"lat":51.55109,"lng":8.55956},{"city":"Eilbek","state":"Hamburg","population":22235,"lat":53.56985,"lng":10.05776},{"city":"Rotenburg","state":"Lower Saxony","population":22139,"lat":53.11032,"lng":9.4036},{"city":"Metzingen","state":"Baden-Wurttemberg","population":22112,"lat":48.53695,"lng":9.2833},{"city":"Weißwasser","state":"Saxony","population":22099,"lat":51.50403,"lng":14.64017},{"city":"Scharnhorst","state":"North Rhine-Westphalia","population":22065,"lat":51.54921,"lng":7.53909},{"city":"Meinerzhagen","state":"North Rhine-Westphalia","population":21982,"lat":51.1074,"lng":7.64838},{"city":"Elsdorf","state":"North Rhine-Westphalia","population":21967,"lat":50.93739,"lng":6.56828},{"city":"Soltau","state":"Lower Saxony","population":21945,"lat":52.98638,"lng":9.84338},{"city":"Marsberg","state":"North Rhine-Westphalia","population":21914,"lat":51.46171,"lng":8.84949},{"city":"Seesen","state":"Lower Saxony","population":21909,"lat":51.89095,"lng":10.17847},{"city":"Westerstede","state":"Lower Saxony","population":21902,"lat":53.25682,"lng":7.92737},{"city":"St. Pauli","state":"Hamburg","population":21902,"lat":53.557,"lng":9.964},{"city":"Hohen Neuendorf","state":"Brandenburg","population":21893,"lat":52.67631,"lng":13.27775},{"city":"Gelnhausen","state":"Hesse","population":21881,"lat":50.20164,"lng":9.18742},{"city":"Alfter","state":"North Rhine-Westphalia","population":21814,"lat":50.73333,"lng":7.01667},{"city":"Sondershausen","state":"Thuringia","population":21802,"lat":51.36973,"lng":10.87011},{"city":"Groß-Umstadt","state":"Hesse","population":21758,"lat":49.86899,"lng":8.9321},{"city":"Stadtallendorf","state":"Hesse","population":21720,"lat":50.82261,"lng":9.01294},{"city":"Lindlar","state":"North Rhine-Westphalia","population":21665,"lat":51.01959,"lng":7.37758},{"city":"Karben","state":"Hesse","population":21642,"lat":50.23019,"lng":8.77155},{"city":"Eschborn","state":"Hesse","population":21641,"lat":50.14328,"lng":8.57111},{"city":"Bad Pyrmont","state":"Lower Saxony","population":21629,"lat":51.98589,"lng":9.25246},{"city":"Luckenwalde","state":"Brandenburg","population":21616,"lat":52.09029,"lng":13.16772},{"city":"Guben","state":"Brandenburg","population":21608,"lat":51.94993,"lng":14.7055},{"city":"Donaueschingen","state":"Baden-Wurttemberg","population":21604,"lat":47.95514,"lng":8.49707},{"city":"Aplerbeck","state":"North Rhine-Westphalia","population":21600,"lat":51.48333,"lng":7.55},{"city":"Gorbitz","state":"Saxony","population":21599,"lat":51.0455,"lng":13.66108},{"city":"Xanten","state":"North Rhine-Westphalia","population":21587,"lat":51.65877,"lng":6.45297},{"city":"Lebach","state":"Saarland","population":21583,"lat":49.41122,"lng":6.90988},{"city":"Meiningen","state":"Thuringia","population":21580,"lat":50.56787,"lng":10.41521},{"city":"Büdingen","state":"Hesse","population":21579,"lat":50.29013,"lng":9.1114},{"city":"Dillingen","state":"Saarland","population":21526,"lat":49.35557,"lng":6.72781},{"city":"Überlingen","state":"Baden-Wurttemberg","population":21507,"lat":47.76977,"lng":9.17136},{"city":"Wilnsdorf","state":"North Rhine-Westphalia","population":21505,"lat":50.81667,"lng":8.1},{"city":"Waren","state":"Mecklenburg-Vorpommern","population":21470,"lat":53.51986,"lng":12.68128},{"city":"Französisch Buchholz","state":"State of Berlin","population":21449,"lat":52.60242,"lng":13.43019},{"city":"Halle","state":"North Rhine-Westphalia","population":21448,"lat":52.06007,"lng":8.36083},{"city":"Kitzingen","state":"Bavaria","population":21387,"lat":49.73973,"lng":10.15072},{"city":"Riedstadt","state":"Hesse","population":21362,"lat":49.83411,"lng":8.49621},{"city":"Auerbach","state":"Saxony","population":21358,"lat":50.51155,"lng":12.40083},{"city":"Schortens","state":"Lower Saxony","population":21357,"lat":53.53801,"lng":7.9477},{"city":"Wittmund","state":"Lower Saxony","population":21355,"lat":53.57682,"lng":7.77571},{"city":"Döbeln","state":"Saxony","population":21338,"lat":51.1221,"lng":13.11027},{"city":"Lichtenfels","state":"Bavaria","population":21336,"lat":50.14567,"lng":11.05928},{"city":"Bad Kissingen","state":"Bavaria","population":21328,"lat":50.20228,"lng":10.07784},{"city":"Querenburg","state":"North Rhine-Westphalia","population":21294,"lat":51.45218,"lng":7.26628},{"city":"Sonthofen","state":"Bavaria","population":21285,"lat":47.51821,"lng":10.28262},{"city":"Traunreut","state":"Bavaria","population":21244,"lat":47.96269,"lng":12.59231},{"city":"Eislingen","state":"Baden-Wurttemberg","population":21243,"lat":48.69515,"lng":9.70676},{"city":"Löbtau","state":"Saxony","population":21205,"lat":51.04358,"lng":13.69444},{"city":"Eschwege","state":"Hesse","population":21191,"lat":51.18386,"lng":10.05329},{"city":"Eppingen","state":"Baden-Wurttemberg","population":21179,"lat":49.13645,"lng":8.91229},{"city":"Klotzsche","state":"Saxony","population":21064,"lat":51.11053,"lng":13.76862},{"city":"Salzwedel","state":"Saxony-Anhalt","population":21058,"lat":52.85435,"lng":11.1525},{"city":"Püttlingen","state":"Saarland","population":21052,"lat":49.2855,"lng":6.88723},{"city":"Aichach","state":"Bavaria","population":21042,"lat":48.45755,"lng":11.13413},{"city":"Vaterstetten","state":"Bavaria","population":21007,"lat":48.10537,"lng":11.76825},{"city":"Wülfrath","state":"North Rhine-Westphalia","population":21003,"lat":51.28195,"lng":7.03821},{"city":"Holzminden","state":"Lower Saxony","population":20998,"lat":51.82798,"lng":9.4455},{"city":"Versmold","state":"North Rhine-Westphalia","population":20996,"lat":52.04009,"lng":8.15272},{"city":"Germersheim","state":"Rheinland-Pfalz","population":20972,"lat":49.2144,"lng":8.36687},{"city":"Prenzlau","state":"Brandenburg","population":20899,"lat":53.31702,"lng":13.86397},{"city":"Bruchköbel","state":"Hesse","population":20892,"lat":50.17853,"lng":8.92315},{"city":"Altena","state":"North Rhine-Westphalia","population":20862,"lat":51.29472,"lng":7.67337},{"city":"Sömmerda","state":"Thuringia","population":20853,"lat":51.15914,"lng":11.11524},{"city":"Unterhaching","state":"Bavaria","population":20852,"lat":48.06598,"lng":11.61564},{"city":"Husum","state":"Schleswig-Holstein","population":20841,"lat":54.4858,"lng":9.05239},{"city":"Engelskirchen","state":"North Rhine-Westphalia","population":20786,"lat":50.98854,"lng":7.41391},{"city":"Haßloch","state":"Rheinland-Pfalz","population":20779,"lat":49.36278,"lng":8.25806},{"city":"Bothfeld","state":"Lower Saxony","population":20778,"lat":52.41732,"lng":9.79612},{"city":"Hiddenhausen","state":"North Rhine-Westphalia","population":20771,"lat":52.16667,"lng":8.61667},{"city":"Bad Berleburg","state":"North Rhine-Westphalia","population":20757,"lat":51.05224,"lng":8.39227},{"city":"Ennigerloh","state":"North Rhine-Westphalia","population":20713,"lat":51.83843,"lng":8.03093},{"city":"Loschwitz","state":"Saxony","population":20696,"lat":51.05386,"lng":13.81393},{"city":"Volksdorf","state":"Hamburg","population":20685,"lat":53.64972,"lng":10.18417},{"city":"Edewecht","state":"Lower Saxony","population":20658,"lat":53.12814,"lng":7.98424},{"city":"Bockum","state":"North Rhine-Westphalia","population":20617,"lat":51.34696,"lng":6.61589},{"city":"Hockenheim","state":"Baden-Wurttemberg","population":20614,"lat":49.32334,"lng":8.55194},{"city":"Stadtlohn","state":"North Rhine-Westphalia","population":20602,"lat":51.99399,"lng":6.91918},{"city":"Geseke","state":"North Rhine-Westphalia","population":20602,"lat":51.64091,"lng":8.5109},{"city":"Heide","state":"Schleswig-Holstein","population":20599,"lat":54.19562,"lng":9.09742},{"city":"Bad Rappenau","state":"Baden-Wurttemberg","population":20581,"lat":49.23848,"lng":9.1018},{"city":"Bergneustadt","state":"North Rhine-Westphalia","population":20567,"lat":51.02496,"lng":7.65599},{"city":"Fröndenberg","state":"North Rhine-Westphalia","population":20566,"lat":51.47563,"lng":7.76946},{"city":"Herborn","state":"Hesse","population":20473,"lat":50.68135,"lng":8.30369},{"city":"Nottuln","state":"North Rhine-Westphalia","population":20427,"lat":51.93333,"lng":7.35},{"city":"Quickborn","state":"Schleswig-Holstein","population":20410,"lat":53.72821,"lng":9.91078},{"city":"Rheinstetten","state":"Baden-Wurttemberg","population":20378,"lat":48.9685,"lng":8.30704},{"city":"Oberkirch","state":"Baden-Wurttemberg","population":20375,"lat":48.53241,"lng":8.07864},{"city":"Werdohl","state":"North Rhine-Westphalia","population":20366,"lat":51.26011,"lng":7.76608},{"city":"Senden","state":"North Rhine-Westphalia","population":20363,"lat":51.85645,"lng":7.48327},{"city":"Friesoythe","state":"Lower Saxony","population":20311,"lat":53.02048,"lng":7.85879},{"city":"Haldensleben I","state":"Saxony-Anhalt","population":20294,"lat":52.28906,"lng":11.40982},{"city":"Gersthofen","state":"Bavaria","population":20254,"lat":48.42432,"lng":10.87273},{"city":"Haiger","state":"Hesse","population":20218,"lat":50.74162,"lng":8.20778},{"city":"Vlotho","state":"North Rhine-Westphalia","population":20214,"lat":52.1653,"lng":8.85996},{"city":"Adlershof","state":"State of Berlin","population":20210,"lat":52.43548,"lng":13.54825},{"city":"Zülpich","state":"North Rhine-Westphalia","population":20208,"lat":50.69447,"lng":6.65414},{"city":"Giengen an der Brenz","state":"Baden-Wurttemberg","population":20201,"lat":48.62219,"lng":10.24312},{"city":"Waghäusel","state":"Baden-Wurttemberg","population":20178,"lat":49.24991,"lng":8.51257},{"city":"Wittenberge","state":"Brandenburg","population":20171,"lat":53.00005,"lng":11.74944},{"city":"Waldkirch","state":"Baden-Wurttemberg","population":20155,"lat":48.09585,"lng":7.96371},{"city":"Neu Wulmstorf","state":"Lower Saxony","population":20150,"lat":53.46667,"lng":9.8},{"city":"Hessisch Oldendorf","state":"Lower Saxony","population":20129,"lat":52.17269,"lng":9.24913},{"city":"Kürten","state":"North Rhine-Westphalia","population":20103,"lat":51.05,"lng":7.26667},{"city":"Nidderau","state":"Hesse","population":20090,"lat":50.23805,"lng":8.86704},{"city":"Rastede","state":"Lower Saxony","population":20046,"lat":53.24508,"lng":8.19718},{"city":"Wachtberg","state":"North Rhine-Westphalia","population":20032,"lat":50.63333,"lng":7.1},{"city":"Flörsheim","state":"Hesse","population":20023,"lat":50.01311,"lng":8.42779},{"city":"Schwanewede","state":"Lower Saxony","population":20015,"lat":53.22398,"lng":8.58969},{"city":"Mössingen","state":"Baden-Wurttemberg","population":20010,"lat":48.40567,"lng":9.05419},{"city":"Heusweiler","state":"Saarland","population":20006,"lat":49.33632,"lng":6.93036},{"city":"Johannisthal","state":"State of Berlin","population":19960,"lat":52.44653,"lng":13.5066},{"city":"Wenden","state":"North Rhine-Westphalia","population":19924,"lat":50.96667,"lng":7.86667},{"city":"Hörstel","state":"North Rhine-Westphalia","population":19894,"lat":52.29763,"lng":7.58382},{"city":"Wandlitz","state":"Brandenburg","population":19888,"lat":52.74196,"lng":13.45799},{"city":"Steinhagen","state":"North Rhine-Westphalia","population":19869,"lat":52.0,"lng":8.4},{"city":"Enger","state":"North Rhine-Westphalia","population":19852,"lat":52.14063,"lng":8.55772},{"city":"Bad Waldsee","state":"Baden-Wurttemberg","population":19840,"lat":47.92027,"lng":9.7549},{"city":"Eitorf","state":"North Rhine-Westphalia","population":19761,"lat":50.76667,"lng":7.45},{"city":"Kaltenkirchen","state":"Schleswig-Holstein","population":19747,"lat":53.83244,"lng":9.96042},{"city":"Günzburg","state":"Bavaria","population":19737,"lat":48.45599,"lng":10.27695},{"city":"Bad Schwartau","state":"Schleswig-Holstein","population":19722,"lat":53.91887,"lng":10.69691},{"city":"Seligenstadt","state":"Hesse","population":19569,"lat":50.0432,"lng":8.97394},{"city":"Schmalkalden","state":"Thuringia","population":19553,"lat":50.72136,"lng":10.44386},{"city":"Bad Driburg","state":"North Rhine-Westphalia","population":19553,"lat":51.73297,"lng":9.01969},{"city":"Kröpeliner-Tor-Vorstadt","state":"Mecklenburg-Vorpommern","population":19542,"lat":54.08849,"lng":12.11539},{"city":"Waldbröl","state":"North Rhine-Westphalia","population":19533,"lat":50.87576,"lng":7.61688},{"city":"Teltow","state":"Brandenburg","population":19530,"lat":52.4031,"lng":13.26014},{"city":"Nördlingen","state":"Bavaria","population":19492,"lat":48.85122,"lng":10.48868},{"city":"Bemerode","state":"Lower Saxony","population":19486,"lat":52.35,"lng":9.83333},{"city":"Ochtrup","state":"North Rhine-Westphalia","population":19441,"lat":52.20802,"lng":7.18988},{"city":"Schwalmtal","state":"North Rhine-Westphalia","population":19435,"lat":51.21667,"lng":6.26667},{"city":"Charlottenburg-Nord","state":"State of Berlin","population":19422,"lat":52.53048,"lng":13.29371},{"city":"Mayen","state":"Rheinland-Pfalz","population":19414,"lat":50.32797,"lng":7.22277},{"city":"Kaulsdorf","state":"State of Berlin","population":19408,"lat":52.51732,"lng":13.58871},{"city":"Hechingen","state":"Baden-Wurttemberg","population":19400,"lat":48.35149,"lng":8.96317},{"city":"Oschersleben","state":"Saxony-Anhalt","population":19396,"lat":52.03039,"lng":11.22898},{"city":"Bönen","state":"North Rhine-Westphalia","population":19393,"lat":51.6,"lng":7.76667},{"city":"Telgte","state":"North Rhine-Westphalia","population":19389,"lat":51.97995,"lng":7.78293},{"city":"Schopfheim","state":"Baden-Wurttemberg","population":19386,"lat":47.65105,"lng":7.82089},{"city":"Puchheim","state":"Bavaria","population":19357,"lat":48.15,"lng":11.35},{"city":"Bückeburg","state":"Lower Saxony","population":19351,"lat":52.26065,"lng":9.04939},{"city":"Steilshoop","state":"Hamburg","population":19343,"lat":53.61028,"lng":10.05917},{"city":"Weil der Stadt","state":"Baden-Wurttemberg","population":19338,"lat":48.74953,"lng":8.87176},{"city":"Schwalmstadt","state":"Hesse","population":19279,"lat":50.93333,"lng":9.21667},{"city":"Frankenberg","state":"Hesse","population":19276,"lat":51.0589,"lng":8.80077},{"city":"Bremervörde","state":"Lower Saxony","population":19268,"lat":53.48513,"lng":9.14644},{"city":"Sulzbach-Rosenberg","state":"Bavaria","population":19252,"lat":49.50126,"lng":11.74598},{"city":"Gauting","state":"Bavaria","population":19216,"lat":48.06919,"lng":11.37703},{"city":"Burscheid","state":"North Rhine-Westphalia","population":19215,"lat":51.08468,"lng":7.11393},{"city":"Schifferstadt","state":"Rheinland-Pfalz","population":19209,"lat":49.38417,"lng":8.3775},{"city":"Ottobrunn bei München","state":"Bavaria","population":19204,"lat":48.06489,"lng":11.66327},{"city":"Schneverdingen","state":"Lower Saxony","population":19199,"lat":53.1174,"lng":9.79235},{"city":"Parchim","state":"Mecklenburg-Vorpommern","population":19161,"lat":53.42631,"lng":11.84875},{"city":"Rhede","state":"North Rhine-Westphalia","population":19140,"lat":51.83537,"lng":6.69602},{"city":"Alfeld","state":"Lower Saxony","population":19138,"lat":51.98382,"lng":9.81989},{"city":"Bexbach","state":"Saarland","population":19115,"lat":49.34615,"lng":7.25527},{"city":"Gröbenzell","state":"Bavaria","population":19110,"lat":48.2,"lng":11.36667},{"city":"Eselsberg","state":"Baden-Wurttemberg","population":19075,"lat":48.40978,"lng":9.95138},{"city":"Bad Münstereifel","state":"North Rhine-Westphalia","population":19051,"lat":50.55667,"lng":6.76424},{"city":"Gerlingen","state":"Baden-Wurttemberg","population":19050,"lat":48.79954,"lng":9.06316},{"city":"Laupheim","state":"Baden-Wurttemberg","population":19012,"lat":48.22786,"lng":9.87874},{"city":"Heusenstamm","state":"Hesse","population":19012,"lat":50.05553,"lng":8.80076},{"city":"Friedrichshagen","state":"State of Berlin","population":19009,"lat":52.45052,"lng":13.62463},{"city":"Lauchhammer","state":"Brandenburg","population":18990,"lat":51.48813,"lng":13.76623},{"city":"Alzenau in Unterfranken","state":"Bavaria","population":18932,"lat":50.0888,"lng":9.06455},{"city":"Finsterwalde","state":"Brandenburg","population":18922,"lat":51.63388,"lng":13.70662},{"city":"Baumschulenweg","state":"State of Berlin","population":18894,"lat":52.46583,"lng":13.48523},{"city":"Langen","state":"Lower Saxony","population":18863,"lat":53.60554,"lng":8.59509},{"city":"Karow","state":"State of Berlin","population":18817,"lat":52.60904,"lng":13.48117},{"city":"Borna","state":"Saxony","population":18806,"lat":51.12416,"lng":12.49639},{"city":"Dingolfing","state":"Bavaria","population":18805,"lat":48.64244,"lng":12.49283},{"city":"Lahnstein","state":"Rheinland-Pfalz","population":18749,"lat":50.3,"lng":7.61667},{"city":"Radeberg","state":"Saxony","population":18747,"lat":51.11112,"lng":13.91199},{"city":"Torgau","state":"Saxony","population":18746,"lat":51.56016,"lng":12.99617},{"city":"Dillingen an der Donau","state":"Bavaria","population":18734,"lat":48.58153,"lng":10.49527},{"city":"Bad Münder am Deister","state":"Lower Saxony","population":18726,"lat":52.19551,"lng":9.46421},{"city":"Sarstedt","state":"Lower Saxony","population":18718,"lat":52.23495,"lng":9.85411},{"city":"Schwalbach","state":"Saarland","population":18708,"lat":49.3,"lng":6.81667},{"city":"Bad Dürkheim","state":"Rheinland-Pfalz","population":18698,"lat":49.4618,"lng":8.17236},{"city":"Vellmar","state":"Hesse","population":18623,"lat":51.35806,"lng":9.47974},{"city":"Freudenberg","state":"North Rhine-Westphalia","population":18601,"lat":50.89741,"lng":7.87415},{"city":"Sachsenheim","state":"Baden-Wurttemberg","population":18594,"lat":48.96,"lng":9.06472},{"city":"Weißenburg in Bayern","state":"Bavaria","population":18578,"lat":49.03095,"lng":10.97221},{"city":"Schramberg","state":"Baden-Wurttemberg","population":18565,"lat":48.22399,"lng":8.38583},{"city":"Aue","state":"Saxony","population":18554,"lat":50.59034,"lng":12.70657},{"city":"Marktoberdorf","state":"Bavaria","population":18505,"lat":47.77964,"lng":10.61713},{"city":"Illingen","state":"Saarland","population":18488,"lat":49.37362,"lng":7.04758},{"city":"Schkeuditz","state":"Saxony","population":18487,"lat":51.39678,"lng":12.22141},{"city":"Hemmingen","state":"Lower Saxony","population":18470,"lat":52.31425,"lng":9.72359},{"city":"Mölln","state":"Schleswig-Holstein","population":18469,"lat":53.62072,"lng":10.68748},{"city":"Wadgassen","state":"Saarland","population":18464,"lat":49.26667,"lng":6.78333},{"city":"Traunstein","state":"Bavaria","population":18422,"lat":47.86825,"lng":12.64335},{"city":"Kreuzau","state":"North Rhine-Westphalia","population":18400,"lat":50.74699,"lng":6.49069},{"city":"Löbau","state":"Saxony","population":18374,"lat":51.09954,"lng":14.66738},{"city":"Sulzbach","state":"Saarland","population":18364,"lat":49.29882,"lng":7.05696},{"city":"Donauwörth","state":"Bavaria","population":18364,"lat":48.71804,"lng":10.7793},{"city":"Lilienthal","state":"Lower Saxony","population":18293,"lat":53.14193,"lng":8.90338},{"city":"Kamenz","state":"Saxony","population":18270,"lat":51.26798,"lng":14.09374},{"city":"Pfullingen","state":"Baden-Wurttemberg","population":18269,"lat":48.46458,"lng":9.22796},{"city":"Burghausen","state":"Bavaria","population":18263,"lat":48.16925,"lng":12.83139},{"city":"Neufahrn bei Freising","state":"Bavaria","population":18255,"lat":48.31588,"lng":11.66316},{"city":"Kronach","state":"Bavaria","population":18248,"lat":50.23963,"lng":11.33308},{"city":"Nidda","state":"Hesse","population":18241,"lat":50.4133,"lng":9.00638},{"city":"Alzey","state":"Rheinland-Pfalz","population":18241,"lat":49.74657,"lng":8.11513},{"city":"Marktredwitz","state":"Bavaria","population":18204,"lat":50.00443,"lng":12.08593},{"city":"Kierspe","state":"North Rhine-Westphalia","population":18188,"lat":51.13403,"lng":7.59075},{"city":"Bad Langensalza","state":"Thuringia","population":18183,"lat":51.10771,"lng":10.646},{"city":"Tettnang","state":"Baden-Wurttemberg","population":18135,"lat":47.66857,"lng":9.59132},{"city":"Wildeshausen","state":"Lower Saxony","population":18114,"lat":52.89446,"lng":8.43375},{"city":"Heiligensee","state":"State of Berlin","population":18099,"lat":52.61449,"lng":13.24501},{"city":"Äußere Neustadt","state":"Saxony","population":18098,"lat":51.06859,"lng":13.75591},{"city":"Müllheim","state":"Baden-Wurttemberg","population":18097,"lat":47.8082,"lng":7.63035},{"city":"Korntal","state":"Baden-Wurttemberg","population":18081,"lat":48.83218,"lng":9.1214},{"city":"Eppelborn","state":"Saarland","population":18079,"lat":49.4,"lng":6.96667},{"city":"Bad Wildungen","state":"Hesse","population":18037,"lat":51.11963,"lng":9.12475},{"city":"Grimma","state":"Saxony","population":17991,"lat":51.23367,"lng":12.71959},{"city":"Kolbermoor","state":"Bavaria","population":17941,"lat":47.84965,"lng":12.06696},{"city":"Altstadt Nord","state":"North Rhine-Westphalia","population":17922,"lat":50.93893,"lng":6.95752},{"city":"Uetersen","state":"Schleswig-Holstein","population":17921,"lat":53.68878,"lng":9.66197},{"city":"Karlsfeld","state":"Bavaria","population":17920,"lat":48.22697,"lng":11.47573},{"city":"Bad Saulgau","state":"Baden-Wurttemberg","population":17911,"lat":48.01676,"lng":9.50064},{"city":"Kleinmachnow","state":"Brandenburg","population":17892,"lat":52.40786,"lng":13.22514},{"city":"Uerdingen","state":"North Rhine-Westphalia","population":17888,"lat":51.35478,"lng":6.63918},{"city":"Wittlich","state":"Rheinland-Pfalz","population":17887,"lat":49.98596,"lng":6.89308},{"city":"Sinzig","state":"Rheinland-Pfalz","population":17880,"lat":50.54384,"lng":7.24639},{"city":"Konz","state":"Rheinland-Pfalz","population":17879,"lat":49.70045,"lng":6.57652},{"city":"Reinheim","state":"Hesse","population":17841,"lat":49.82923,"lng":8.83572},{"city":"Holzwickede","state":"North Rhine-Westphalia","population":17821,"lat":51.5,"lng":7.63333},{"city":"Arheilgen","state":"Hesse","population":17819,"lat":49.9128,"lng":8.65695},{"city":"Brakel","state":"North Rhine-Westphalia","population":17808,"lat":51.7175,"lng":9.18596},{"city":"Taufkirchen","state":"Bavaria","population":17791,"lat":48.0486,"lng":11.61701},{"city":"Buchen in Odenwald","state":"Baden-Wurttemberg","population":17773,"lat":49.52416,"lng":9.32293},{"city":"Munster","state":"Lower Saxony","population":17746,"lat":52.98569,"lng":10.08756},{"city":"Gartenstadt","state":"Rheinland-Pfalz","population":17745,"lat":49.45937,"lng":8.40377},{"city":"Kronberg","state":"Hesse","population":17730,"lat":50.181,"lng":8.513},{"city":"Bad Aibling","state":"Bavaria","population":17672,"lat":47.8638,"lng":12.01055},{"city":"Harvestehude","state":"Hamburg","population":17666,"lat":53.5792,"lng":9.99064},{"city":"Halver","state":"North Rhine-Westphalia","population":17650,"lat":51.18612,"lng":7.49817},{"city":"Templin","state":"Brandenburg","population":17634,"lat":53.11865,"lng":13.5022},{"city":"Mühldorf","state":"Bavaria","population":17622,"lat":48.2467,"lng":12.52155},{"city":"Eilenburg","state":"Saxony","population":17609,"lat":51.45984,"lng":12.63338},{"city":"Schmelz","state":"Saarland","population":17596,"lat":49.43333,"lng":6.85},{"city":"Haar","state":"Bavaria","population":17560,"lat":48.10881,"lng":11.72653},{"city":"Kronberg Tal","state":"Hesse","population":17550,"lat":50.17929,"lng":8.5037},{"city":"Bendorf","state":"Rheinland-Pfalz","population":17495,"lat":50.42289,"lng":7.57924},{"city":"Lubnjow","state":"Brandenburg","population":17461,"lat":51.86217,"lng":13.95168},{"city":"Renningen","state":"Baden-Wurttemberg","population":17442,"lat":48.76974,"lng":8.93871},{"city":"Bad Tölz","state":"Bavaria","population":17434,"lat":47.76111,"lng":11.5589},{"city":"Nordstadt","state":"Lower Saxony","population":17429,"lat":52.38561,"lng":9.71586},{"city":"Nümbrecht","state":"North Rhine-Westphalia","population":17427,"lat":50.90427,"lng":7.54063},{"city":"Oerlinghausen","state":"North Rhine-Westphalia","population":17403,"lat":51.95453,"lng":8.6622},{"city":"Hummelsbüttel","state":"Hamburg","population":17365,"lat":53.64773,"lng":10.04149},{"city":"Moosburg","state":"Bavaria","population":17363,"lat":48.47089,"lng":11.93811},{"city":"Wittstock","state":"Brandenburg","population":17361,"lat":53.16118,"lng":12.48287},{"city":"Meerane","state":"Saxony","population":17325,"lat":50.84688,"lng":12.46473},{"city":"Cham","state":"Bavaria","population":17314,"lat":49.22565,"lng":12.65501},{"city":"Oberasbach","state":"Bavaria","population":17306,"lat":49.42275,"lng":10.95766},{"city":"Wadern","state":"Saarland","population":17282,"lat":49.54122,"lng":6.88774},{"city":"Michelstadt","state":"Hesse","population":17279,"lat":49.67569,"lng":9.00373},{"city":"Wörth am Rhein","state":"Rheinland-Pfalz","population":17272,"lat":49.04888,"lng":8.25959},{"city":"Schlüchtern","state":"Hesse","population":17260,"lat":50.34891,"lng":9.52532},{"city":"Heilbad Heiligenstadt","state":"Thuringia","population":17230,"lat":51.37819,"lng":10.13744},{"city":"Wolfratshausen","state":"Bavaria","population":17191,"lat":47.91289,"lng":11.42166},{"city":"Blomberg","state":"North Rhine-Westphalia","population":17183,"lat":51.94331,"lng":9.09067},{"city":"Ribnitz-Damgarten","state":"Mecklenburg-Vorpommern","population":17152,"lat":54.2422,"lng":12.45666},{"city":"Zossen","state":"Brandenburg","population":17138,"lat":52.216,"lng":13.44909},{"city":"Selb","state":"Bavaria","population":17132,"lat":50.17058,"lng":12.13054},{"city":"Gescher","state":"North Rhine-Westphalia","population":17115,"lat":51.954,"lng":7.00481},{"city":"Rotherbaum","state":"Hamburg","population":17114,"lat":53.5665,"lng":9.99265},{"city":"Elmschenhagen","state":"Schleswig-Holstein","population":17097,"lat":54.28949,"lng":10.1899},{"city":"Hochheim am Main","state":"Hesse","population":17027,"lat":50.01436,"lng":8.35218},{"city":"Dulsberg","state":"Hamburg","population":17002,"lat":53.58383,"lng":10.06445},{"city":"Eutin","state":"Schleswig-Holstein","population":16984,"lat":54.13503,"lng":10.61148},{"city":"Hausbruch","state":"Hamburg","population":16927,"lat":53.47424,"lng":9.88289},{"city":"Babenhausen","state":"Hesse","population":16920,"lat":49.96519,"lng":8.95129},{"city":"Dahlem","state":"State of Berlin","population":16916,"lat":52.4581,"lng":13.28702},{"city":"Bad Reichenhall","state":"Bavaria","population":16910,"lat":47.72947,"lng":12.87819},{"city":"Gilching","state":"Bavaria","population":16859,"lat":48.10755,"lng":11.2936},{"city":"Bad Arolsen","state":"Hesse","population":16854,"lat":51.37982,"lng":9.01445},{"city":"Frankenberg","state":"Saxony","population":16850,"lat":50.91297,"lng":13.04011},{"city":"Eltville","state":"Hesse","population":16845,"lat":50.02858,"lng":8.11754},{"city":"Stockach","state":"Baden-Wurttemberg","population":16844,"lat":47.85105,"lng":9.0091},{"city":"Huckarde","state":"North Rhine-Westphalia","population":16825,"lat":51.53213,"lng":7.41508},{"city":"Schneeberg","state":"Saxony","population":16784,"lat":50.59465,"lng":12.64139},{"city":"Diepholz","state":"Lower Saxony","population":16783,"lat":52.60783,"lng":8.37005},{"city":"Holzkirchen","state":"Bavaria","population":16770,"lat":47.87663,"lng":11.70181},{"city":"Heidenau","state":"Saxony","population":16756,"lat":50.97221,"lng":13.86741},{"city":"Hermsdorf","state":"State of Berlin","population":16726,"lat":52.61421,"lng":13.30587},{"city":"Marienberg","state":"Saxony","population":16716,"lat":50.65051,"lng":13.16122},{"city":"Neustadt bei Coburg","state":"Bavaria","population":16715,"lat":50.32975,"lng":11.12058},{"city":"Vilshofen","state":"Bavaria","population":16695,"lat":48.62695,"lng":13.19222},{"city":"Frohnau","state":"State of Berlin","population":16689,"lat":52.63336,"lng":13.29024},{"city":"Bobingen","state":"Bavaria","population":16682,"lat":48.27091,"lng":10.8339},{"city":"Losheim","state":"Saarland","population":16660,"lat":49.5099,"lng":6.74549},{"city":"Wassenberg","state":"North Rhine-Westphalia","population":16641,"lat":51.10009,"lng":6.15484},{"city":"Mittweida","state":"Saxony","population":16619,"lat":50.98622,"lng":12.97537},{"city":"Nauen","state":"Brandenburg","population":16600,"lat":52.60701,"lng":12.87374},{"city":"Sigmaringen","state":"Baden-Wurttemberg","population":16592,"lat":48.08829,"lng":9.23033},{"city":"Großenhain","state":"Saxony","population":16573,"lat":51.28951,"lng":13.5335},{"city":"Hille","state":"North Rhine-Westphalia","population":16567,"lat":52.33333,"lng":8.75},{"city":"Stockelsdorf","state":"Schleswig-Holstein","population":16562,"lat":53.8922,"lng":10.64713},{"city":"Bad Säckingen","state":"Baden-Wurttemberg","population":16549,"lat":47.55371,"lng":7.94612},{"city":"Hohenstein-Ernstthal","state":"Saxony","population":16542,"lat":50.80064,"lng":12.71287},{"city":"Illertissen","state":"Bavaria","population":16522,"lat":48.22336,"lng":10.10347},{"city":"Harpen","state":"North Rhine-Westphalia","population":16498,"lat":51.49822,"lng":7.28831},{"city":"Gunzenhausen","state":"Bavaria","population":16477,"lat":49.11663,"lng":10.75971},{"city":"Haselhorst","state":"State of Berlin","population":16471,"lat":52.54409,"lng":13.23743},{"city":"Hilchenbach","state":"North Rhine-Westphalia","population":16467,"lat":50.99687,"lng":8.11062},{"city":"Hofgeismar","state":"Hesse","population":16444,"lat":51.49607,"lng":9.385},{"city":"Königslutter am Elm","state":"Lower Saxony","population":16419,"lat":52.25116,"lng":10.81683},{"city":"Petersberg","state":"Hesse","population":16410,"lat":50.56002,"lng":9.71295},{"city":"Bad Salzungen","state":"Thuringia","population":16410,"lat":50.81342,"lng":10.2361},{"city":"Seeheim-Jugenheim","state":"Hesse","population":16395,"lat":49.765,"lng":8.65194},{"city":"Loxstedt","state":"Lower Saxony","population":16382,"lat":53.47095,"lng":8.64584},{"city":"Kirchhain","state":"Hesse","population":16381,"lat":50.8272,"lng":8.92806},{"city":"Hückeswagen","state":"North Rhine-Westphalia","population":16369,"lat":51.14979,"lng":7.34471},{"city":"Kladow","state":"State of Berlin","population":16368,"lat":52.45423,"lng":13.14445},{"city":"Großostheim","state":"Bavaria","population":16346,"lat":49.91985,"lng":9.07596},{"city":"Kirchlengern","state":"North Rhine-Westphalia","population":16338,"lat":52.2,"lng":8.63333},{"city":"Hünfeld","state":"Hesse","population":16323,"lat":50.67966,"lng":9.76727},{"city":"Weilerswist","state":"North Rhine-Westphalia","population":16321,"lat":50.75292,"lng":6.84585},{"city":"Hochfeld","state":"North Rhine-Westphalia","population":16292,"lat":51.41943,"lng":6.75462},{"city":"Remagen","state":"Rheinland-Pfalz","population":16280,"lat":50.57879,"lng":7.22703},{"city":"Baiersbronn","state":"Baden-Wurttemberg","population":16248,"lat":48.50318,"lng":8.37699},{"city":"Wendelstein","state":"Bavaria","population":16220,"lat":49.3523,"lng":11.15069},{"city":"Vechelde","state":"Lower Saxony","population":16219,"lat":52.26038,"lng":10.36491},{"city":"Leopoldshöhe","state":"North Rhine-Westphalia","population":16219,"lat":52.01246,"lng":8.69834},{"city":"Boppard","state":"Rheinland-Pfalz","population":16215,"lat":50.23085,"lng":7.58992},{"city":"Halstenbek","state":"Schleswig-Holstein","population":16212,"lat":53.63301,"lng":9.83945},{"city":"Glinde","state":"Schleswig-Holstein","population":16210,"lat":53.5441,"lng":10.20048},