{"timezone":"Europe/Moscow","countries":{"Russia":[{"city":"Moscow","state":"Moscow","population":10381222,"lat":55.75204,"lng":37.61781},{"city":"Saint Petersburg","state":"St.-Petersburg","population":5351935,"lat":59.93863,"lng":30.31413},{"city":"Nizhniy Novgorod","state":"Nizhny Novgorod Oblast","population":1259013,"lat":56.32867,"lng":44.00205},{"city":"Kazan","state":"Tatarstan Republic","population":1243500,"lat":55.78874,"lng":49.12214},{"city":"Rostov-na-Donu","state":"Rostov","population":1130305,"lat":47.21997,"lng":39.70769},{"city":"Voronezh","state":"Voronezh Oblast","population":1047549,"lat":51.66833,"lng":39.19204},{"city":"Krasnodar","state":"Krasnodar Krai","population":899541,"lat":45.04534,"lng":38.98178},{"city":"Yaroslavl","state":"Yaroslavl Oblast","population":608722,"lat":57.62987,"lng":39.87368},{"city":"Makhachkala","state":"Dagestan","population":596356,"lat":42.97782,"lng":47.50027},{"city":"Ryazan’","state":"Ryazan Oblast","population":538962,"lat":54.62696,"lng":39.70415},{"city":"Penza","state":"Penza Oblast","population":523553,"lat":53.19568,"lng":45.01075},{"city":"Naberezhnyye Chelny","state":"Tatarstan Republic","population":509870,"lat":55.73718,"lng":52.41961},{"city":"Lipetsk","state":"Lipetsk Oblast","population":509735,"lat":52.5876,"lng":39.55151},{"city":"Kalininskiy","state":"St.-Petersburg","population":504641,"lat":59.99675,"lng":30.3899},{"city":"Cheboksary","state":"Chuvash Republic","population":492331,"lat":56.13218,"lng":47.246},{"city":"Tula","state":"Tula Oblast","population":482873,"lat":54.19609,"lng":37.61822},{"city":"Kursk","state":"Kursk Oblast","population":448733,"lat":51.72689,"lng":36.18457},{"city":"Stavropol’","state":"Stavropol Kray","population":433931,"lat":45.03442,"lng":41.9642},{"city":"Bryansk","state":"Bryansk Oblast","population":427236,"lat":53.27096,"lng":34.32143},{"city":"Tver","state":"Tver Oblast","population":420065,"lat":56.85836,"lng":35.90057},{"city":"Ivanovo","state":"Ivanovo Oblast","population":406113,"lat":56.99988,"lng":40.97257},{"city":"Vladimir","state":"Vladimir Oblast","population":357024,"lat":56.13854,"lng":40.39976},{"city":"Arkhangel’sk","state":"Arkhangelskaya","population":349742,"lat":64.5461,"lng":40.55183},{"city":"Belgorod","state":"Belgorod Oblast","population":345289,"lat":50.60343,"lng":36.58091},{"city":"Kaluga","state":"Kaluga Oblast","population":340851,"lat":54.53063,"lng":36.27},{"city":"Krasnogvargeisky","state":"St.-Petersburg","population":337091,"lat":59.97305,"lng":30.47607},{"city":"Smolensk","state":"Smolensk Oblast","population":330025,"lat":54.77826,"lng":32.05088},{"city":"Sochi","state":"Krasnodar Krai","population":327608,"lat":43.59699,"lng":39.72477},{"city":"Saransk","state":"Mordoviya Republic","population":318841,"lat":54.18485,"lng":45.17166},{"city":"Cherepovets","state":"Vologda Oblast","population":315738,"lat":59.13333,"lng":37.9},{"city":"Vologda","state":"Vologda Oblast","population":312420,"lat":59.2239,"lng":39.88398},{"city":"Vladikavkaz","state":"North Ossetia–Alania","population":306258,"lat":43.04101,"lng":44.66986},{"city":"Orël","state":"Oryol oblast","population":303696,"lat":52.96879,"lng":36.0791},{"city":"Grozny","state":"Chechnya","population":297137,"lat":43.31195,"lng":45.68895},{"city":"Murmansk","state":"Murmansk","population":295374,"lat":68.96778,"lng":33.09922},{"city":"Tambov","state":"Tambov Oblast","population":293661,"lat":52.73632,"lng":41.44102},{"city":"Petrozavodsk","state":"Karelia","population":279190,"lat":61.78491,"lng":34.34691},{"city":"Taganrog","state":"Rostov","population":279056,"lat":47.23627,"lng":38.9053},{"city":"Kostroma","state":"Kostroma Oblast","population":277280,"lat":57.76638,"lng":40.92828},{"city":"Yoshkar-Ola","state":"Mariy-El Republic","population":268272,"lat":56.63877,"lng":47.89078},{"city":"Syktyvkar","state":"Komi","population":245083,"lat":61.66393,"lng":50.8163},{"city":"Mar’ino","state":"Moscow","population":243000,"lat":55.65,"lng":37.71667},{"city":"Novorossiysk","state":"Krasnodar Krai","population":241856,"lat":44.73188,"lng":37.76176},{"city":"Khimki","state":"Moscow Oblast","population":239967,"lat":55.9001,"lng":37.42848},{"city":"Nalchik","state":"Kabardino-Balkariya Republic","population":239300,"lat":43.49806,"lng":43.61889},{"city":"Nizhnekamsk","state":"Tatarstan Republic","population":234297,"lat":55.63794,"lng":51.81502},{"city":"Dzerzhinsk","state":"Nizhny Novgorod Oblast","population":233126,"lat":56.24422,"lng":43.45543},{"city":"Staryy Oskol","state":"Belgorod Oblast","population":226977,"lat":51.3025,"lng":37.84613},{"city":"Velikiy Novgorod","state":"Novgorod Oblast","population":222868,"lat":58.52131,"lng":31.27104},{"city":"Shakhty","state":"Rostov","population":221312,"lat":47.71916,"lng":40.21603},{"city":"Rybinsk","state":"Yaroslavl Oblast","population":216724,"lat":58.04562,"lng":38.83811},{"city":"Vykhino-Zhulebino","state":"Moscow","population":216000,"lat":55.70196,"lng":37.81178},{"city":"Zelenograd","state":"Moscow","population":215727,"lat":55.9825,"lng":37.18139},{"city":"Centralniy","state":"St.-Petersburg","population":214625,"lat":59.93111,"lng":30.36072},{"city":"Pskov","state":"Pskov Oblast","population":210501,"lat":57.81922,"lng":28.33181},{"city":"Vasyl'evsky Ostrov","state":"St.-Petersburg","population":203058,"lat":59.94091,"lng":30.25377},{"city":"Severnyy","state":"Moscow","population":200000,"lat":55.93583,"lng":37.54889},{"city":"Armavir","state":"Krasnodar Krai","population":199548,"lat":44.99849,"lng":41.11472},{"city":"Severodvinsk","state":"Arkhangelskaya","population":194292,"lat":64.55825,"lng":39.82971},{"city":"Yasenevo","state":"Moscow","population":180000,"lat":55.60686,"lng":37.51991},{"city":"Podolsk","state":"Moscow Oblast","population":179400,"lat":55.42419,"lng":37.55472},{"city":"Lyublino","state":"Moscow","population":172000,"lat":55.67738,"lng":37.76005},{"city":"Volgodonsk","state":"Rostov","population":167731,"lat":47.51141,"lng":42.15269},{"city":"Novocherkassk","state":"Rostov","population":166974,"lat":47.4222,"lng":40.09373},{"city":"Nazran","state":"Ingushetiya Republic","population":164131,"lat":43.22597,"lng":44.77323},{"city":"Mytishchi","state":"Moscow Oblast","population":160542,"lat":55.91099,"lng":37.72964},{"city":"Khoroshëvo-Mnevniki","state":"Moscow Oblast","population":159000,"lat":55.78363,"lng":37.47137},{"city":"Bibirevo","state":"Moscow","population":159000,"lat":55.88333,"lng":37.6},{"city":"Gol’yanovo","state":"Moscow","population":158000,"lat":55.82299,"lng":37.81306},{"city":"Admiralteisky","state":"St.-Petersburg","population":157897,"lat":59.923,"lng":30.3},{"city":"Lyubertsy","state":"Moscow Oblast","population":154650,"lat":55.67719,"lng":37.89322},{"city":"Kovrov","state":"Vladimir Oblast","population":154224,"lat":56.35752,"lng":41.31893},{"city":"Strogino","state":"Moscow","population":152000,"lat":55.81838,"lng":37.41224},{"city":"Balashikha","state":"Moscow Oblast","population":150103,"lat":55.79479,"lng":37.94794},{"city":"Zhulebino","state":"Moscow","population":150000,"lat":55.7,"lng":37.85},{"city":"Kolomna","state":"Moscow Oblast","population":147690,"lat":55.07108,"lng":38.78399},{"city":"Elektrostal’","state":"Moscow Oblast","population":144387,"lat":55.78647,"lng":38.45713},{"city":"Biryulëvo","state":"Moscow","population":144000,"lat":55.58635,"lng":37.67781},{"city":"Orekhovo-Borisovo","state":"Moscow","population":144000,"lat":55.61252,"lng":37.72639},{"city":"Novyye Kuz’minki","state":"Moscow","population":143000,"lat":55.7,"lng":37.75},{"city":"Kuz’minki","state":"Moscow","population":143000,"lat":55.7,"lng":37.8},{"city":"Pyatigorsk","state":"Stavropol Kray","population":142865,"lat":44.05,"lng":43.05036},{"city":"Chertanovo Yuzhnoye","state":"Moscow","population":142000,"lat":55.59072,"lng":37.59519},{"city":"Maykop","state":"Adygeya Republic","population":141970,"lat":44.60789,"lng":40.10242},{"city":"Zheleznodorozhnyy","state":"Moscow Oblast","population":141648,"lat":55.744,"lng":38.01684},{"city":"Al’met’yevsk","state":"Tatarstan Republic","population":140437,"lat":54.90395,"lng":52.31793},{"city":"Korolev","state":"Moscow Oblast","population":139798,"lat":55.91417,"lng":37.82556},{"city":"Kolpino","state":"St.-Petersburg","population":138979,"lat":59.75069,"lng":30.58856},{"city":"Odintsovo","state":"Moscow Oblast","population":137041,"lat":55.66977,"lng":37.27716},{"city":"Nevinnomyssk","state":"Stavropol Kray","population":134345,"lat":44.6333,"lng":41.9444},{"city":"Kislovodsk","state":"Stavropol Kray","population":132771,"lat":43.91333,"lng":42.72083},{"city":"Novomoskovsk","state":"Tula Oblast","population":130982,"lat":54.01098,"lng":38.29084},{"city":"Petrogradka","state":"St.-Petersburg","population":130455,"lat":59.96567,"lng":30.31154},{"city":"Ramenki","state":"Moscow","population":130000,"lat":55.7,"lng":37.5},{"city":"Zyablikovo","state":"Moscow","population":129000,"lat":55.61667,"lng":37.76667},{"city":"Novocheboksarsk","state":"Chuvash Republic","population":128468,"lat":56.11095,"lng":47.47755},{"city":"Serpukhov","state":"Moscow Oblast","population":128158,"lat":54.9198,"lng":37.41618},{"city":"Orekhovo-Borisovo Severnoye","state":"Moscow","population":128000,"lat":55.61667,"lng":37.68333},{"city":"Ivanovskoye","state":"Moscow","population":128000,"lat":55.76667,"lng":37.83333},{"city":"Murom","state":"Vladimir Oblast","population":126931,"lat":55.56853,"lng":42.02388},{"city":"Khasavyurt","state":"Dagestan","population":126829,"lat":43.24872,"lng":46.58571},{"city":"Tyoply Stan","state":"Moscow","population":125000,"lat":55.62047,"lng":37.49338},{"city":"Tsaritsyno","state":"Moscow","population":123000,"lat":55.6254,"lng":37.65032},{"city":"Cherkessk","state":"Karachayevo-Cherkesiya Republic","population":122395,"lat":44.22375,"lng":42.04624},{"city":"Veshnyaki","state":"Moscow","population":122000,"lat":55.72393,"lng":37.81952},{"city":"Presnenskiy","state":"Moscow","population":122000,"lat":55.75,"lng":37.55},{"city":"Zyuzino","state":"Moscow","population":121000,"lat":55.65608,"lng":37.56846},{"city":"Solntsevo","state":"Moscow","population":120000,"lat":55.63711,"lng":37.38115},{"city":"Orekhovo-Zuyevo","state":"Moscow Oblast","population":120000,"lat":55.81242,"lng":38.99155},{"city":"Troparëvo","state":"Moscow","population":118000,"lat":55.65625,"lng":37.48496},{"city":"Taganskiy","state":"Moscow","population":116000,"lat":55.73333,"lng":37.66667},{"city":"Noginsk","state":"Moscow Oblast","population":115979,"lat":55.86486,"lng":38.44853},{"city":"Yelets","state":"Lipetsk Oblast","population":115688,"lat":52.61435,"lng":38.50935},{"city":"Novo-Peredelkino","state":"Moscow","population":115536,"lat":55.64528,"lng":37.33583},{"city":"Ochakovo-Matveyevskoye","state":"Moscow","population":114000,"lat":55.68432,"lng":37.44654},{"city":"Shchyolkovo","state":"Moscow Oblast","population":113000,"lat":55.92497,"lng":37.97218},{"city":"Bataysk","state":"Rostov","population":109962,"lat":47.13746,"lng":39.75713},{"city":"Arzamas","state":"Nizhny Novgorod Oblast","population":109479,"lat":55.39563,"lng":43.8381},{"city":"Sergiyev Posad","state":"Moscow Oblast","population":109252,"lat":56.31204,"lng":38.13869},{"city":"Obninsk","state":"Kaluga Oblast","population":107392,"lat":55.10993,"lng":36.61238},{"city":"Elista","state":"Kalmykiya Republic","population":106971,"lat":46.30794,"lng":44.25537},{"city":"Cherëmushki","state":"Moscow","population":106587,"lat":55.66473,"lng":37.56135},{"city":"Derbent","state":"Dagestan","population":105965,"lat":42.06622,"lng":48.28759},{"city":"Izmaylovo","state":"Moscow Oblast","population":104000,"lat":55.78677,"lng":37.80165},{"city":"Akademicheskoe","state":"Leningradskaya Oblast'","population":103304,"lat":60.01375,"lng":30.39471},{"city":"Velikiye Luki","state":"Pskov Oblast","population":103149,"lat":56.34063,"lng":30.54377},{"city":"Bogorodskoye","state":"Moscow","population":103000,"lat":55.81353,"lng":37.71617},{"city":"Pushkino","state":"Moscow Oblast","population":102816,"lat":55.99456,"lng":37.82897},{"city":"Ukhta","state":"Komi","population":102187,"lat":63.56904,"lng":53.69141},{"city":"Shchukino","state":"Moscow","population":102000,"lat":55.8,"lng":37.45},{"city":"Brateyevo","state":"Moscow","population":102000,"lat":55.63755,"lng":37.76438},{"city":"Ryazanskiy","state":"Moscow","population":101000,"lat":55.73333,"lng":37.76667},{"city":"Novyye Cherëmushki","state":"Moscow","population":101000,"lat":55.7,"lng":37.58333},{"city":"Tekstil’shchiki","state":"Moscow","population":100000,"lat":55.70033,"lng":37.74271},{"city":"Zelenodolsk","state":"Tatarstan Republic","population":99600,"lat":55.84376,"lng":48.51784},{"city":"Novoshakhtinsk","state":"Rostov","population":99478,"lat":47.76037,"lng":39.93335},{"city":"Zheleznogorsk","state":"Kursk Oblast","population":97900,"lat":52.34198,"lng":35.35917},{"city":"Zhukovsky","state":"Moscow Oblast","population":97200,"lat":55.59528,"lng":38.12028},{"city":"Ramenskoye","state":"Moscow Oblast","population":96000,"lat":55.56341,"lng":38.24152},{"city":"Ozerki","state":"St.-Petersburg","population":95000,"lat":60.03947,"lng":30.31128},{"city":"Novogireyevo","state":"Moscow","population":95000,"lat":55.75378,"lng":37.81885},{"city":"Vostochnoe Degunino","state":"Moscow","population":95000,"lat":55.8801,"lng":37.55758},{"city":"Michurinsk","state":"Tambov Oblast","population":93499,"lat":52.90761,"lng":40.4823},{"city":"Kineshma","state":"Ivanovo Oblast","population":92983,"lat":57.43665,"lng":42.12766},{"city":"Krasnogorsk","state":"Moscow Oblast","population":92932,"lat":55.81904,"lng":37.32984},{"city":"Pushkin","state":"St.-Petersburg","population":92889,"lat":59.71417,"lng":30.39642},{"city":"Bugulma","state":"Tatarstan Republic","population":91900,"lat":54.5378,"lng":52.7985},{"city":"Yaroslavskiy","state":"Moscow","population":91000,"lat":55.88333,"lng":37.71667},{"city":"Lefortovo","state":"Moscow","population":91000,"lat":55.76667,"lng":37.7},{"city":"Kuznetsk","state":"Penza Oblast","population":90480,"lat":53.11675,"lng":46.60037},{"city":"Gatchina","state":"Leningradskaya Oblast'","population":89761,"lat":59.57639,"lng":30.12833},{"city":"Biryulëvo Zapadnoye","state":"Moscow Oblast","population":89000,"lat":55.58766,"lng":37.64282},{"city":"Sarov","state":"Nizhny Novgorod Oblast","population":88000,"lat":54.94802,"lng":43.31521},{"city":"Yeysk","state":"Krasnodar Krai","population":87814,"lat":46.69263,"lng":38.27907},{"city":"Gubkin","state":"Belgorod Oblast","population":87000,"lat":51.28375,"lng":37.5351},{"city":"Lianozovo","state":"Moscow","population":86000,"lat":55.89783,"lng":37.5868},{"city":"Babushkin","state":"Moscow","population":86000,"lat":55.86931,"lng":37.72966},{"city":"Obruchevo","state":"Moscow","population":85616,"lat":55.6591,"lng":37.52291},{"city":"Svetlanovskiy","state":"Leningradskaya Oblast'","population":85508,"lat":60.00276,"lng":30.33051},{"city":"Yegor’yevsk","state":"Moscow Oblast","population":85200,"lat":55.37952,"lng":39.04122},{"city":"Komendantsky aerodrom","state":"St.-Petersburg","population":84052,"lat":60.00448,"lng":30.27523},{"city":"Azov","state":"Rostov","population":82133,"lat":47.1069,"lng":39.41486},{"city":"Kaspiysk","state":"Dagestan","population":81752,"lat":42.88165,"lng":47.63919},{"city":"Yessentuki","state":"Stavropol Kray","population":81015,"lat":44.04826,"lng":42.85638},{"city":"Klin","state":"Moscow Oblast","population":80778,"lat":56.33169,"lng":36.7292},{"city":"Vorkuta","state":"Komi","population":80039,"lat":67.50867,"lng":64.0667},{"city":"Fili","state":"Moscow Oblast","population":80000,"lat":55.74819,"lng":37.47969},{"city":"Kropotkin","state":"Krasnodar Krai","population":79599,"lat":45.43722,"lng":40.5704},{"city":"Vyborg","state":"Leningradskaya Oblast'","population":78633,"lat":60.70763,"lng":28.75283},{"city":"Reutov","state":"Moscow Oblast","population":78370,"lat":55.76273,"lng":37.86303},{"city":"Alekseyevka","state":"Moscow Oblast","population":78000,"lat":55.63,"lng":37.8},{"city":"Voskresensk","state":"Moscow Oblast","population":77086,"lat":55.313,"lng":38.691},{"city":"Mineralnye Vody","state":"Stavropol Kray","population":76280,"lat":44.21028,"lng":43.13528},{"city":"Nagornyy","state":"Moscow","population":76000,"lat":55.65,"lng":37.61667},{"city":"Kamensk-Shakhtinsky","state":"Rostov","population":75814,"lat":48.31779,"lng":40.25948},{"city":"Chekhov","state":"Moscow Oblast","population":75643,"lat":55.14552,"lng":37.46193},{"city":"Peterhof","state":"St.-Petersburg","population":73199,"lat":59.88333,"lng":29.9},{"city":"Dachnoye","state":"St.-Petersburg","population":72822,"lat":59.84167,"lng":30.25583},{"city":"Georgiyevsk","state":"Stavropol Kray","population":72649,"lat":44.1494,"lng":43.47019},{"city":"Yelabuga","state":"Tatarstan Republic","population":72643,"lat":55.76232,"lng":52.04425},{"city":"Naro-Fominsk","state":"Moscow Oblast","population":72632,"lat":55.38752,"lng":36.73307},{"city":"Finlyandskiy","state":"Leningradskaya Oblast'","population":72292,"lat":59.96824,"lng":30.36415},{"city":"Sunzha","state":"Ingushetiya Republic","population":71841,"lat":43.32059,"lng":45.04903},{"city":"Grazhdanka","state":"St.-Petersburg","population":71128,"lat":60.017,"lng":30.417},{"city":"Kurortnyy","state":"Leningradskaya Oblast'","population":70589,"lat":60.16562,"lng":29.908},{"city":"Adler","state":"Krasnodar Krai","population":70200,"lat":43.42896,"lng":39.92391},{"city":"Borisoglebsk","state":"Voronezh Oblast","population":68597,"lat":51.36892,"lng":42.09804},{"city":"Sosnovyy Bor","state":"Leningradskaya Oblast'","population":68563,"lat":59.8996,"lng":29.08574},{"city":"Dolgoprudnyy","state":"Moscow Oblast","population":68259,"lat":55.94958,"lng":37.50183},{"city":"Dorogomilovo","state":"Moscow Oblast","population":68000,"lat":55.75,"lng":37.56667},{"city":"Budyonnovsk","state":"Stavropol Kray","population":67962,"lat":44.78389,"lng":44.16583},{"city":"Kstovo","state":"Nizhny Novgorod Oblast","population":67242,"lat":56.1475,"lng":44.19865},{"city":"Aleksin","state":"Tula Oblast","population":66885,"lat":54.50484,"lng":37.06697},{"city":"Parnas","state":"Leningradskaya Oblast'","population":66693,"lat":60.06964,"lng":30.3487},{"city":"Klintsy","state":"Bryansk Oblast","population":66336,"lat":52.76033,"lng":32.23905},{"city":"Leninogorsk","state":"Tatarstan Republic","population":66263,"lat":54.5971,"lng":52.45124},{"city":"Sosnovka","state":"St.-Petersburg","population":66227,"lat":60.01667,"lng":30.35},{"city":"Gukovo","state":"Rostov","population":66079,"lat":48.06212,"lng":39.9355},{"city":"Slavyansk-na-Kubani","state":"Krasnodar Krai","population":65196,"lat":45.25145,"lng":38.12129},{"city":"Tikhoretsk","state":"Krasnodar Krai","population":64387,"lat":45.85307,"lng":40.11874},{"city":"Rossosh’","state":"Voronezh Oblast","population":64323,"lat":51.1209,"lng":38.5116},{"city":"Tuapse","state":"Krasnodar Krai","population":64234,"lat":44.10083,"lng":39.08326},{"city":"Aleksandrov","state":"Vladimir Oblast","population":64088,"lat":56.39733,"lng":38.71404},{"city":"Kotlovka","state":"Moscow","population":64000,"lat":55.65928,"lng":37.60404},{"city":"Zarechnyy","state":"Penza Oblast","population":63579,"lat":53.20356,"lng":45.19227},{"city":"Pavlovo","state":"Nizhny Novgorod Oblast","population":63338,"lat":55.9686,"lng":43.0912},{"city":"Novaya Balakhna","state":"Nizhny Novgorod Oblast","population":63083,"lat":56.48989,"lng":43.60114},{"city":"Gus’-Khrustal’nyy","state":"Vladimir Oblast","population":62746,"lat":55.61171,"lng":40.65023},{"city":"Buynaksk","state":"Dagestan","population":62689,"lat":42.81802,"lng":47.12684},{"city":"Rzhev","state":"Tver Oblast","population":62246,"lat":56.26289,"lng":34.3289},{"city":"Chistopol’","state":"Tatarstan Republic","population":62200,"lat":55.36612,"lng":50.64399},{"city":"Zarechnyy","state":"Penza Oblast","population":62139,"lat":53.13333,"lng":46.58333},{"city":"Tikhvin","state":"Leningradskaya Oblast'","population":62075,"lat":59.63937,"lng":33.52967},{"city":"Rossosh’","state":"Voronezh Oblast","population":62000,"lat":50.19645,"lng":39.56631},{"city":"Petrodvorets","state":"St.-Petersburg","population":61973,"lat":59.89565,"lng":29.80145},{"city":"Labinsk","state":"Krasnodar Krai","population":61945,"lat":44.63604,"lng":40.7357},{"city":"Lobnya","state":"Moscow Oblast","population":61772,"lat":56.02714,"lng":37.46793},{"city":"Vyksa","state":"Nizhny Novgorod Oblast","population":61664,"lat":55.32058,"lng":42.17402},{"city":"Dmitrov","state":"Moscow Oblast","population":61607,"lat":56.34485,"lng":37.52041},{"city":"Apatity","state":"Murmansk","population":61186,"lat":67.58267,"lng":33.41339},{"city":"Sal’sk","state":"Rostov","population":61000,"lat":46.47494,"lng":41.54159},{"city":"Stupino","state":"Moscow Oblast","population":60999,"lat":54.89735,"lng":38.06796},{"city":"Prokhladnyy","state":"Kabardino-Balkariya Republic","population":60800,"lat":43.75741,"lng":44.0297},{"city":"Shuya","state":"Ivanovo Oblast","population":60705,"lat":56.84864,"lng":41.3869},{"city":"Shchëkino","state":"Tula Oblast","population":60700,"lat":54.00734,"lng":37.50647},{"city":"Bor","state":"Nizhny Novgorod Oblast","population":60647,"lat":56.35944,"lng":44.07304},{"city":"Dubna","state":"Moscow Oblast","population":60604,"lat":56.74049,"lng":37.18648},{"city":"Pavlovskiy Posad","state":"Moscow Oblast","population":60051,"lat":55.78187,"lng":38.65025},{"city":"Sviblovo","state":"Moscow","population":60000,"lat":55.85,"lng":37.63333},{"city":"Ostankinskiy","state":"Moscow","population":60000,"lat":55.82957,"lng":37.61604},{"city":"Mikhaylovsk","state":"Stavropol Kray","population":59198,"lat":45.13097,"lng":42.02703},{"city":"Kotlas","state":"Arkhangelskaya","population":59180,"lat":61.25663,"lng":46.6537},{"city":"Solnechnogorsk","state":"Moscow Oblast","population":58891,"lat":56.17527,"lng":36.97082},{"city":"Uzlovaya","state":"Tula Oblast","population":58458,"lat":53.9839,"lng":38.15984},{"city":"Volzhsk","state":"Mariy-El Republic","population":58000,"lat":55.86661,"lng":48.35931},{"city":"Krymsk","state":"Krasnodar Krai","population":57555,"lat":44.92625,"lng":37.99025},{"city":"Sokol’niki","state":"Moscow","population":57000,"lat":55.80202,"lng":37.67159},{"city":"Sokol","state":"Moscow","population":57000,"lat":55.8,"lng":37.51667},{"city":"Roslavl’","state":"Smolensk Oblast","population":56971,"lat":53.95387,"lng":32.86409},{"city":"Borovichi","state":"Novgorod Oblast","population":56571,"lat":58.39418,"lng":33.91864},{"city":"Chernaya Rechka","state":"Leningradskaya Oblast'","population":56429,"lat":59.98594,"lng":30.30338},{"city":"Kirishi","state":"Leningradskaya Oblast'","population":56190,"lat":59.47417,"lng":32.04007},{"city":"Ezhva","state":"Komi","population":56000,"lat":61.81281,"lng":50.72834},{"city":"Liski","state":"Voronezh Oblast","population":55939,"lat":50.98241,"lng":39.50412},{"city":"Vyaz’ma","state":"Smolensk Oblast","population":55500,"lat":55.20997,"lng":34.29695},{"city":"Klimovsk","state":"Moscow Oblast","population":55206,"lat":55.36352,"lng":37.52984},{"city":"Rybatskoye","state":"Leningradskaya Oblast'","population":55076,"lat":59.8393,"lng":30.49873},{"city":"Uritsk","state":"St.-Petersburg","population":55037,"lat":59.83889,"lng":30.17528},{"city":"Zamoskvorech’ye","state":"Moscow","population":55000,"lat":55.73333,"lng":37.63333},{"city":"Pokrovskoye-Streshnëvo","state":"Moscow","population":55000,"lat":55.80797,"lng":37.45814},{"city":"Belorechensk","state":"Krasnodar Krai","population":54526,"lat":44.77002,"lng":39.87246},{"city":"Kupchino","state":"St.-Petersburg","population":54198,"lat":59.859,"lng":30.388},{"city":"Altuf’yevskiy","state":"Moscow","population":54000,"lat":55.88333,"lng":37.58333},{"city":"Timashyovsk","state":"Krasnodar Krai","population":53940,"lat":45.61694,"lng":38.94528},{"city":"Severomorsk","state":"Murmansk","population":53921,"lat":69.06936,"lng":33.40807},{"city":"Domodedovo","state":"Moscow Oblast","population":53887,"lat":55.44223,"lng":37.75372},{"city":"Vyshniy Volochëk","state":"Tver Oblast","population":53800,"lat":57.5888,"lng":34.56854},{"city":"Anapa","state":"Krasnodar Krai","population":53600,"lat":44.89497,"lng":37.31623},{"city":"Fryazevo","state":"Moscow Oblast","population":53212,"lat":55.73321,"lng":38.46458},{"city":"Yartsevo","state":"Smolensk Oblast","population":52706,"lat":55.06491,"lng":32.69693},{"city":"Fryazino","state":"Moscow Oblast","population":52255,"lat":55.96131,"lng":38.04643},{"city":"Kimry","state":"Tver Oblast","population":52070,"lat":56.87456,"lng":37.35957},{"city":"Levoberezhnyy","state":"Moscow Oblast","population":52000,"lat":55.85,"lng":37.48333},{"city":"Vidnoye","state":"Moscow Oblast","population":51721,"lat":55.5523,"lng":37.70885},{"city":"Ivanteyevka","state":"Moscow Oblast","population":51085,"lat":55.97111,"lng":37.92083},{"city":"Donetsk","state":"Rostov","population":50850,"lat":48.33751,"lng":39.95416},{"city":"Gelendzhik","state":"Krasnodar Krai","population":50715,"lat":44.58014,"lng":38.06646},{"city":"Lytkarino","state":"Moscow Oblast","population":50619,"lat":55.57653,"lng":37.91245},{"city":"Kingisepp","state":"Leningradskaya Oblast'","population":50566,"lat":59.37627,"lng":28.61409},{"city":"Kizlyar","state":"Dagestan","population":50564,"lat":43.84686,"lng":46.70977},{"city":"Novovladykino","state":"Moscow","population":50000,"lat":55.85,"lng":37.58333},{"city":"Vatutino","state":"Moscow","population":50000,"lat":55.88441,"lng":37.69055},{"city":"Vagonoremont","state":"Moscow","population":50000,"lat":55.9,"lng":37.55},{"city":"Semënovskoye","state":"Moscow Oblast","population":50000,"lat":55.68333,"lng":37.55},{"city":"Novokuz’minki","state":"Moscow","population":50000,"lat":55.71667,"lng":37.78333},{"city":"Novokhovrino","state":"Moscow","population":50000,"lat":55.86667,"lng":37.5},{"city":"Nikol’skoye","state":"Moscow","population":50000,"lat":55.68333,"lng":37.48333},{"city":"Likhobory","state":"Moscow","population":50000,"lat":55.85,"lng":37.56667},{"city":"Kozhukhovo","state":"Moscow Oblast","population":50000,"lat":55.7,"lng":37.66667},{"city":"Kozeyevo","state":"Moscow","population":50000,"lat":55.86667,"lng":37.61667},{"city":"Metrogorodok","state":"Moscow","population":50000,"lat":55.80961,"lng":37.78739},{"city":"Untolovo","state":"Leningradskaya Oblast'","population":50000,"lat":60.0122,"lng":30.20897},{"city":"Kanash","state":"Chuvash Republic","population":49886,"lat":55.50962,"lng":47.49127},{"city":"Monchegorsk","state":"Murmansk","population":49868,"lat":67.93972,"lng":32.87389},{"city":"Ruzayevka","state":"Mordoviya Republic","population":49311,"lat":54.06004,"lng":44.94899},{"city":"Torzhok","state":"Tver Oblast","population":48546,"lat":57.0436,"lng":34.96221},{"city":"Sosnovaya Polyana","state":"St.-Petersburg","population":48271,"lat":59.83528,"lng":30.14667},{"city":"Vsevolozhsk","state":"Leningradskaya Oblast'","population":48224,"lat":60.01512,"lng":30.67314},{"city":"Kurganinsk","state":"Krasnodar Krai","population":47681,"lat":44.88448,"lng":40.58893},{"city":"Mtsensk","state":"Oryol oblast","population":47609,"lat":53.2788,"lng":36.58047},{"city":"Belaya Kalitva","state":"Rostov","population":47521,"lat":48.17927,"lng":40.7792},{"city":"Gryazi","state":"Lipetsk Oblast","population":47413,"lat":52.49535,"lng":39.94031},{"city":"Dzerzhinsky","state":"Moscow Oblast","population":47163,"lat":55.62737,"lng":37.85803},{"city":"Livny","state":"Oryol oblast","population":46779,"lat":52.42431,"lng":37.59956},{"city":"Kurchatov","state":"Kursk Oblast","population":46600,"lat":51.65356,"lng":35.68651},{"city":"Staryy Malgobek","state":"Ingushetiya Republic","population":46334,"lat":43.54437,"lng":44.59592},{"city":"Pechora","state":"Komi","population":46113,"lat":65.14717,"lng":57.22439},{"city":"Safonovo","state":"Smolensk Oblast","population":46000,"lat":55.11091,"lng":33.23728},{"city":"Rasskazovo","state":"Tambov Oblast","population":45957,"lat":52.66384,"lng":41.88915},{"city":"Kol’chugino","state":"Vladimir Oblast","population":45912,"lat":56.3045,"lng":39.37656},{"city":"Volkhov","state":"Leningradskaya Oblast'","population":45673,"lat":59.92335,"lng":32.33966},{"city":"Obukhovo","state":"St.-Petersburg","population":45664,"lat":59.84389,"lng":30.45111},{"city":"Yefremov","state":"Tula Oblast","population":45497,"lat":53.13762,"lng":38.11856},{"city":"Kanevskaya","state":"Krasnodar Krai","population":45334,"lat":46.09534,"lng":38.97691},{"city":"Shebekino","state":"Belgorod Oblast","population":45194,"lat":50.41342,"lng":36.92537},{"city":"Avtovo","state":"St.-Petersburg","population":44667,"lat":59.87167,"lng":30.26583},{"city":"Krasnoye Selo","state":"St.-Petersburg","population":44323,"lat":59.73833,"lng":30.08944},{"city":"Krasnyy Sulin","state":"Rostov","population":44133,"lat":47.89246,"lng":40.07185},{"city":"Ust’-Labinsk","state":"Krasnodar Krai","population":44088,"lat":45.21439,"lng":39.6884},{"city":"Usinsk","state":"Komi","population":44078,"lat":66.00866,"lng":57.53054},{"city":"Tutayev","state":"Yaroslavl Oblast","population":43828,"lat":57.87292,"lng":39.52969},{"city":"Pashkovskiy","state":"Krasnodar Krai","population":43634,"lat":45.02366,"lng":39.10436},{"city":"Sertolovo","state":"Leningradskaya Oblast'","population":43622,"lat":60.1444,"lng":30.20165},{"city":"Malgobek","state":"Ingushetiya Republic","population":43400,"lat":43.51121,"lng":44.59051},{"city":"Morshansk","state":"Tambov Oblast","population":43311,"lat":53.44325,"lng":41.81061},{"city":"Kronstadt","state":"St.-Petersburg","population":43005,"lat":59.992,"lng":29.77616},{"city":"Zavolzh’ye","state":"Nizhny Novgorod Oblast","population":42900,"lat":56.64051,"lng":43.39446},{"city":"Novodvinsk","state":"Arkhangelskaya","population":42900,"lat":64.41638,"lng":40.81674},{"city":"Koryazhma","state":"Arkhangelskaya","population":42627,"lat":61.31242,"lng":47.14829},{"city":"Novozybkov","state":"Bryansk Oblast","population":42571,"lat":52.53711,"lng":31.93659},{"city":"Lomonosov","state":"St.-Petersburg","population":42505,"lat":59.90612,"lng":29.77253},{"city":"Konakovo","state":"Tver Oblast","population":42239,"lat":56.70153,"lng":36.77305},{"city":"Sokol","state":"Vologda Oblast","population":42174,"lat":59.46167,"lng":40.12056},{"city":"Alatyr’","state":"Chuvash Republic","population":42156,"lat":54.8421,"lng":46.5813},{"city":"Izberbash","state":"Dagestan","population":42121,"lat":42.56705,"lng":47.87546},{"city":"Zainsk","state":"Tatarstan Republic","population":42044,"lat":55.3195,"lng":52.06942},{"city":"Korenovsk","state":"Krasnodar Krai","population":41665,"lat":45.46723,"lng":39.44923},{"city":"Urus-Martan","state":"Chechnya","population":41480,"lat":43.13053,"lng":45.53791},{"city":"Lyudinovo","state":"Kaluga Oblast","population":41392,"lat":53.86639,"lng":34.44778},{"city":"Zelenokumsk","state":"Stavropol Kray","population":41306,"lat":44.41044,"lng":43.88007},{"city":"Dzerzhinskiy","state":"Moscow Oblast","population":41146,"lat":55.62868,"lng":37.8443},{"city":"Mozdok","state":"North Ossetia–Alania","population":40823,"lat":43.73976,"lng":44.65157},{"city":"Apsheronsk","state":"Krasnodar Krai","population":40451,"lat":44.4599,"lng":39.73005},{"city":"Pereslavl’-Zalesskiy","state":"Yaroslavl Oblast","population":40283,"lat":56.73912,"lng":38.85966},{"city":"Tosno","state":"Leningradskaya Oblast'","population":40198,"lat":59.54,"lng":30.8775},{"city":"Luga","state":"Leningradskaya Oblast'","population":40114,"lat":58.73876,"lng":29.84756},{"city":"Kashira","state":"Moscow Oblast","population":40084,"lat":54.84763,"lng":38.18214},{"city":"Yagry","state":"Arkhangelskaya","population":40000,"lat":64.59417,"lng":39.81028},{"city":"Kolomyagi","state":"St.-Petersburg","population":39945,"lat":60.02427,"lng":30.28491},{"city":"Alexeyevka","state":"Belgorod Oblast","population":39848,"lat":50.63092,"lng":38.6903},{"city":"Svetlograd","state":"Stavropol Kray","population":39727,"lat":45.32736,"lng":42.8562},{"city":"Gorod Shebekino","state":"Belgorod Oblast","population":39680,"lat":50.41667,"lng":36.91667},{"city":"Kirov","state":"Kaluga Oblast","population":39319,"lat":54.06889,"lng":34.29891},{"city":"Sampsonievskiy","state":"Leningradskaya Oblast'","population":39318,"lat":59.98499,"lng":30.34295},{"city":"Vyazniki","state":"Vladimir Oblast","population":39243,"lat":56.24227,"lng":42.14911},{"city":"Vichuga","state":"Ivanovo Oblast","population":39071,"lat":57.2145,"lng":41.92555},{"city":"Izobil’nyy","state":"Stavropol Kray","population":39022,"lat":45.36653,"lng":41.7091},{"city":"Aksay","state":"Rostov","population":38871,"lat":47.26331,"lng":39.869},{"city":"Leningradskaya","state":"Krasnodar Krai","population":38712,"lat":46.32143,"lng":39.38551},{"city":"Millerovo","state":"Rostov","population":38527,"lat":48.92523,"lng":40.39982},{"city":"Kandalaksha","state":"Murmansk","population":38431,"lat":67.15123,"lng":32.41284},{"city":"Furmanov","state":"Ivanovo Oblast","population":38380,"lat":57.25417,"lng":41.11122},{"city":"Uglich","state":"Yaroslavl Oblast","population":37732,"lat":57.52322,"lng":38.32258},{"city":"Kulebaki","state":"Nizhny Novgorod Oblast","population":37622,"lat":55.41333,"lng":42.5325},{"city":"Troitsk","state":"Moscow","population":37591,"lat":55.48498,"lng":37.30736},{"city":"Baksan","state":"Kabardino-Balkariya Republic","population":37519,"lat":43.68374,"lng":43.53507},{"city":"Novovoronezh","state":"Voronezh Oblast","population":37392,"lat":51.31528,"lng":39.21872},{"city":"Protvino","state":"Moscow Oblast","population":37329,"lat":54.86821,"lng":37.21583},{"city":"Sestroretsk","state":"St.-Petersburg","population":37248,"lat":60.09801,"lng":29.96378},{"city":"Rostokino","state":"Moscow","population":37000,"lat":55.83333,"lng":37.66667},{"city":"Serdobsk","state":"Penza Oblast","population":36652,"lat":52.45861,"lng":44.21689},{"city":"Bogorodsk","state":"Nizhny Novgorod Oblast","population":36652,"lat":56.10149,"lng":43.5101},{"city":"Temryuk","state":"Krasnodar Krai","population":36546,"lat":45.26885,"lng":37.39752},{"city":"Novokubansk","state":"Krasnodar Krai","population":36401,"lat":45.11326,"lng":41.0365},{"city":"Slantsy","state":"Leningradskaya Oblast'","population":36209,"lat":59.1179,"lng":28.08826},{"city":"Teykovo","state":"Ivanovo Oblast","population":36015,"lat":56.85853,"lng":40.54028},{"city":"Blagodarnyy","state":"Stavropol Kray","population":35995,"lat":45.09778,"lng":43.43639},{"city":"Valuyki","state":"Belgorod Oblast","population":35887,"lat":50.19661,"lng":38.11674},{"city":"Beslan","state":"North Ossetia–Alania","population":35604,"lat":43.19277,"lng":44.53274},{"city":"Kasimov","state":"Ryazan Oblast","population":35355,"lat":54.94377,"lng":41.40341},{"city":"Shumerlya","state":"Chuvash Republic","population":35220,"lat":55.5005,"lng":46.41288},{"city":"Goryachevodskiy","state":"Stavropol Kray","population":35075,"lat":44.02361,"lng":43.09222},{"city":"Staraya Derevnya","state":"St.-Petersburg","population":35000,"lat":59.98834,"lng":30.24296},{"city":"Gul’kevichi","state":"Krasnodar Krai","population":34953,"lat":45.35383,"lng":40.69465},{"city":"Aznakayevo","state":"Tatarstan Republic","population":34750,"lat":54.85821,"lng":53.08006},{"city":"Abinsk","state":"Krasnodar Krai","population":34668,"lat":44.87058,"lng":38.15759},{"city":"Dinskaya","state":"Krasnodar Krai","population":34573,"lat":45.21672,"lng":39.2259},{"city":"Karabulak","state":"Ingushetiya Republic","population":34511,"lat":43.30513,"lng":44.89949},{"city":"Nurlat","state":"Tatarstan Republic","population":34451,"lat":54.42903,"lng":50.80598},{"city":"Ostrogozhsk","state":"Voronezh Oblast","population":34403,"lat":50.86586,"lng":39.07808},{"city":"Kondopoga","state":"Karelia","population":34360,"lat":62.20406,"lng":34.26932},{"city":"Staraya Russa","state":"Novgorod Oblast","population":34303,"lat":57.99618,"lng":31.36003},{"city":"Ust’-Dzheguta","state":"Karachayevo-Cherkesiya Republic","population":34001,"lat":44.0834,"lng":41.9763},{"city":"Krasnoznamensk","state":"Moscow Oblast","population":33700,"lat":55.59525,"lng":37.05235},{"city":"Yablonovskiy","state":"Adygeya Republic","population":33431,"lat":44.98901,"lng":38.94324},{"city":"Kizilyurt","state":"Dagestan","population":33411,"lat":43.20279,"lng":46.86594},{"city":"Nartkala","state":"Kabardino-Balkariya Republic","population":33390,"lat":43.5544,"lng":43.85499},{"city":"Istra","state":"Moscow Oblast","population":33390,"lat":55.91979,"lng":36.86876},{"city":"Segezha","state":"Karelia","population":33354,"lat":63.74549,"lng":34.31614},{"city":"Primorsko-Akhtarsk","state":"Krasnodar Krai","population":33102,"lat":46.04847,"lng":38.17899},{"city":"Kotovsk","state":"Tambov Oblast","population":33077,"lat":52.59047,"lng":41.50251},{"city":"Kamenka","state":"Penza Oblast","population":33060,"lat":53.18139,"lng":44.04944},{"city":"Gudermes","state":"Chechnya","population":32769,"lat":43.35082,"lng":46.10095},{"city":"Maloyaroslavets","state":"Kaluga Oblast","population":32669,"lat":55.01457,"lng":36.47185},{"city":"Velikiy Ustyug","state":"Vologda Oblast","population":32642,"lat":60.76186,"lng":46.31352},{"city":"Yubileyny","state":"Moscow Oblast","population":32508,"lat":55.93333,"lng":37.83333},{"city":"Desnogorsk","state":"Smolensk Oblast","population":32451,"lat":54.15077,"lng":33.28151},{"city":"Lukhovitsy","state":"Moscow Oblast","population":32387,"lat":54.97661,"lng":39.0444},{"city":"Udomlya","state":"Tver Oblast","population":32373,"lat":57.87597,"lng":35.00702},{"city":"Drozhzhino","state":"Moscow Oblast","population":32345,"lat":55.52806,"lng":37.59917},{"city":"Donskoy","state":"Tula Oblast","population":31968,"lat":53.96796,"lng":38.33151},{"city":"Kimovsk","state":"Tula Oblast","population":31947,"lat":53.97312,"lng":38.53502},{"city":"Gorodets","state":"Nizhny Novgorod Oblast","population":31788,"lat":56.65497,"lng":43.47269},{"city":"Nakhabino","state":"Moscow Oblast","population":31715,"lat":55.84854,"lng":37.17789},{"city":"Mozhaysk","state":"Moscow Oblast","population":31557,"lat":55.50194,"lng":36.02722},{"city":"Pavlovskaya","state":"Krasnodar Krai","population":31133,"lat":46.13903,"lng":39.7862},{"city":"Likino-Dulevo","state":"Moscow Oblast","population":31100,"lat":55.7083,"lng":38.9542},{"city":"Rostov","state":"Yaroslavl Oblast","population":31039,"lat":57.19081,"lng":39.41307},{"city":"Kirzhach","state":"Vladimir Oblast","population":30566,"lat":56.15273,"lng":38.85509},{"city":"Starominskaya","state":"Krasnodar Krai","population":30461,"lat":46.53094,"lng":39.05163},{"city":"Bogoroditsk","state":"Tula Oblast","population":30216,"lat":53.77174,"lng":38.12305},{"city":"Balabanovo","state":"Kaluga Oblast","population":30194,"lat":55.18161,"lng":36.6606},{"city":"Kostomuksha","state":"Karelia","population":30135,"lat":64.571,"lng":30.57667},{"city":"Shatura","state":"Moscow Oblast","population":30069,"lat":55.57259,"lng":39.53417},{"city":"Vostryakovo","state":"Moscow Oblast","population":30000,"lat":55.66667,"lng":37.45},{"city":"Vorob’yovo","state":"Moscow","population":30000,"lat":55.71667,"lng":37.53333},{"city":"Annino","state":"Moscow","population":30000,"lat":55.58333,"lng":37.6},{"city":"Petrovskaya","state":"Moscow Oblast","population":30000,"lat":55.55,"lng":37.78333},{"city":"Nikulino","state":"Moscow","population":30000,"lat":55.66943,"lng":37.46598},{"city":"Mikhalkovo","state":"Moscow","population":30000,"lat":55.68333,"lng":37.43333},{"city":"Matveyevskoye","state":"Moscow","population":30000,"lat":55.71112,"lng":37.47502},{"city":"Luzhniki","state":"Moscow","population":30000,"lat":55.71599,"lng":37.55376},{"city":"Leonovo","state":"Moscow","population":30000,"lat":55.85,"lng":37.65},{"city":"Leninskiye Gory","state":"Moscow Oblast","population":30000,"lat":55.7,"lng":37.56667},{"city":"Lazarevskoye","state":"Krasnodar Krai","population":30000,"lat":43.90886,"lng":39.33137},{"city":"Kuskovo","state":"Moscow Oblast","population":30000,"lat":55.73423,"lng":37.82616},{"city":"Kur’yanovo","state":"Moscow","population":30000,"lat":55.65,"lng":37.7},{"city":"Kudrovo","state":"Leningradskaya Oblast'","population":30000,"lat":59.90349,"lng":30.51058},{"city":"Kolomenskoye","state":"Moscow","population":30000,"lat":55.66667,"lng":37.68333},{"city":"Davydkovo","state":"Moscow","population":30000,"lat":55.71815,"lng":37.47271},{"city":"Amin’yevo","state":"Moscow","population":30000,"lat":55.7,"lng":37.46667},{"city":"Annino","state":"Moscow Oblast","population":30000,"lat":55.58316,"lng":37.26019},{"city":"Zagor’ye","state":"Moscow","population":30000,"lat":55.57657,"lng":37.66709},{"city":"Kushchyovskaya","state":"Krasnodar Krai","population":29915,"lat":46.5599,"lng":39.6321},{"city":"Sasovo","state":"Ryazan Oblast","population":29858,"lat":54.35369,"lng":41.91986},{"city":"Shar’ya","state":"Kostroma Oblast","population":29800,"lat":58.36848,"lng":45.51622},{"city":"Kirovsk","state":"Murmansk","population":29605,"lat":67.61475,"lng":33.67274},{"city":"Kapotnya","state":"Moscow","population":29594,"lat":55.63806,"lng":37.79306},{"city":"Sosnogorsk","state":"Komi","population":29343,"lat":63.59669,"lng":53.89178},{"city":"Morozovsk","state":"Rostov","population":29289,"lat":48.35103,"lng":41.829},{"city":"Zernograd","state":"Rostov","population":29268,"lat":46.84862,"lng":40.31164},{"city":"Ipatovo","state":"Stavropol Kray","population":29073,"lat":45.71801,"lng":42.90612},{"city":"Unecha","state":"Bryansk Oblast","population":29028,"lat":52.84294,"lng":32.68761},{"city":"Krasnoarmeyskaya","state":"Krasnodar Krai","population":29009,"lat":45.36551,"lng":38.21194},{"city":"Kokhma","state":"Ivanovo Oblast","population":28984,"lat":56.9321,"lng":41.0947},{"city":"Gagarin","state":"Smolensk Oblast","population":28879,"lat":55.55329,"lng":34.99684},{"city":"Inozemtsevo","state":"Stavropol Kray","population":28779,"lat":44.09264,"lng":43.09113},{"city":"Uvarovo","state":"Tambov Oblast","population":28771,"lat":51.982,"lng":42.26175},{"city":"Buturlinovka","state":"Voronezh Oblast","population":28581,"lat":50.82618,"lng":40.598},{"city":"Isakogorka","state":"Arkhangelskaya","population":28571,"lat":64.446,"lng":40.6531},{"city":"Kochubeyevskoye","state":"Stavropol Kray","population":28491,"lat":44.64417,"lng":41.84528},{"city":"Tomilino","state":"Moscow Oblast","population":28310,"lat":55.65619,"lng":37.94713},{"city":"Bezhetsk","state":"Tver Oblast","population":28114,"lat":57.78422,"lng":36.70082},{"city":"Argun","state":"Chechnya","population":28100,"lat":43.29289,"lng":45.86691},{"city":"Goryachiy Klyuch","state":"Krasnodar Krai","population":28078,"lat":44.63394,"lng":39.13582},{"city":"Shcherbinka","state":"Moscow","population":28065,"lat":55.49972,"lng":37.55972},{"city":"Aleksandrovskoye","state":"Stavropol Kray","population":28006,"lat":44.71417,"lng":43.00083},{"city":"Mirnyy","state":"Arkhangelskaya","population":28000,"lat":62.76437,"lng":40.33855},{"city":"Dagestanskiye Ogni","state":"Dagestan","population":27835,"lat":42.11585,"lng":48.19192},{"city":"Neftekumsk","state":"Stavropol Kray","population":27716,"lat":44.75583,"lng":44.9925},{"city":"Rodniki","state":"Ivanovo Oblast","population":27681,"lat":57.10501,"lng":41.73565},{"city":"Novoaleksandrovsk","state":"Stavropol Kray","population":27610,"lat":45.49745,"lng":41.2253},{"city":"Dedovsk","state":"Moscow Oblast","population":27001,"lat":55.86861,"lng":37.12222},{"city":"Zarya","state":"Moscow Oblast","population":27000,"lat":55.75533,"lng":38.09578},{"city":"Pavlovsk","state":"Voronezh Oblast","population":26565,"lat":50.45434,"lng":40.12371},{"city":"Buy","state":"Kostroma Oblast","population":26486,"lat":58.47959,"lng":41.53587},{"city":"Metallostroy","state":"St.-Petersburg","population":26361,"lat":59.80083,"lng":30.54778},{"city":"Semiluki","state":"Voronezh Oblast","population":26257,"lat":51.6821,"lng":39.0302},{"city":"Kubinka","state":"Moscow Oblast","population":25942,"lat":55.57957,"lng":36.70392},{"city":"Ozëry","state":"Moscow Oblast","population":25900,"lat":54.85998,"lng":38.55062},{"city":"Krasnoarmeysk","state":"Moscow Oblast","population":25688,"lat":56.1,"lng":38.13333},{"city":"Ekazhevo","state":"Ingushetiya Republic","population":25549,"lat":43.21222,"lng":44.82306},{"city":"Kireyevsk","state":"Tula Oblast","population":25513,"lat":53.9297,"lng":37.92148},{"city":"Nerekhta","state":"Kostroma Oblast","population":25352,"lat":57.45795,"lng":40.57169},{"city":"Nelidovo","state":"Tver Oblast","population":25349,"lat":56.22761,"lng":32.77474},{"city":"Yushkovo","state":"Moscow Oblast","population":25324,"lat":55.55741,"lng":36.97176},{"city":"Mostovskoy","state":"Krasnodar Krai","population":25188,"lat":44.4115,"lng":40.79281},{"city":"Bologoye","state":"Tver Oblast","population":25142,"lat":57.88587,"lng":34.05324},{"city":"Volokolamsk","state":"Moscow Oblast","population":25000,"lat":56.03361,"lng":35.96944},{"city":"Shali","state":"Chechnya","population":25000,"lat":43.14806,"lng":45.90194},{"city":"Dyat’kovo","state":"Bryansk Oblast","population":25000,"lat":53.59782,"lng":34.33825},{"city":"Zverevo","state":"Rostov","population":24978,"lat":48.02708,"lng":40.12305},{"city":"Kirovsk","state":"Leningradskaya Oblast'","population":24678,"lat":59.88002,"lng":30.99549},{"city":"Zaraysk","state":"Moscow Oblast","population":24637,"lat":54.76327,"lng":38.88076},{"city":"Zheleznovodsk","state":"Stavropol Kray","population":24632,"lat":44.14318,"lng":43.00475},{"city":"Ostrov","state":"Pskov Oblast","population":24500,"lat":57.3438,"lng":28.35363},{"city":"Tbilisskaya","state":"Krasnodar Krai","population":24446,"lat":45.36452,"lng":40.19679},{"city":"Novopavlovsk","state":"Stavropol Kray","population":24408,"lat":43.95942,"lng":43.63156},{"city":"Skopin","state":"Ryazan Oblast","population":24357,"lat":53.82499,"lng":39.5531},{"city":"Semënov","state":"Nizhny Novgorod Oblast","population":24300,"lat":56.78758,"lng":44.49619},{"city":"Nikol’sk","state":"Penza Oblast","population":24300,"lat":53.71886,"lng":46.07118},{"city":"Nizhniy Lomov","state":"Penza Oblast","population":23835,"lat":53.53041,"lng":43.67663},{"city":"Troitskaya","state":"Ingushetiya Republic","population":23745,"lat":43.30664,"lng":44.98395},{"city":"Olenegorsk","state":"Murmansk","population":23670,"lat":68.1432,"lng":33.25287},{"city":"Semikarakorsk","state":"Rostov","population":23583,"lat":47.51683,"lng":40.80831},{"city":"Lyskovo","state":"Nizhny Novgorod Oblast","population":23570,"lat":56.02927,"lng":45.04233},{"city":"L’govskiy","state":"Kursk Oblast","population":23500,"lat":51.63069,"lng":35.2775},{"city":"Kabanovo","state":"Moscow Oblast","population":23414,"lat":55.74815,"lng":38.93511},{"city":"Lermontov","state":"Stavropol Kray","population":23369,"lat":44.1072,"lng":42.97798},{"city":"Vel’sk","state":"Arkhangelskaya","population":23126,"lat":61.06919,"lng":42.0992},{"city":"Otradnaya","state":"Krasnodar Krai","population":22985,"lat":44.39318,"lng":41.51929},{"city":"Bavly","state":"Tatarstan Republic","population":22982,"lat":54.39759,"lng":53.25116},{"city":"Lebedyan’","state":"Lipetsk Oblast","population":22970,"lat":53.01532,"lng":39.14458},{"city":"Il’skiy","state":"Krasnodar Krai","population":22970,"lat":44.84222,"lng":38.56686},{"city":"Mendeleyevsk","state":"Tatarstan Republic","population":22969,"lat":55.89692,"lng":52.31119},{"city":"Dankov","state":"Lipetsk Oblast","population":22913,"lat":53.24976,"lng":39.14409},{"city":"Severskaya","state":"Krasnodar Krai","population":22849,"lat":44.85393,"lng":38.67924},{"city":"Koz’modem’yansk","state":"Mariy-El Republic","population":22700,"lat":56.33209,"lng":46.5606},{"city":"Onega","state":"Arkhangelskaya","population":22693,"lat":63.9057,"lng":38.09944},{"city":"Novotitarovskaya","state":"Krasnodar Krai","population":22630,"lat":45.23756,"lng":38.98059},{"city":"Medvedevo","state":"Mariy-El Republic","population":22555,"lat":56.63402,"lng":47.8035},{"city":"Gorelovo","state":"St.-Petersburg","population":22503,"lat":59.77234,"lng":30.13455},{"city":"Shakhun’ya","state":"Nizhny Novgorod Oblast","population":22400,"lat":57.67603,"lng":46.61171},{"city":"Sergach","state":"Nizhny Novgorod Oblast","population":22361,"lat":55.52771,"lng":45.45679},{"city":"Bryukhovetskaya","state":"Krasnodar Krai","population":22309,"lat":45.79962,"lng":38.9967},{"city":"Nyandoma","state":"Arkhangelskaya","population":22179,"lat":61.6718,"lng":40.21221},{"city":"Novaya Usman’","state":"Voronezh Oblast","population":22165,"lat":51.64355,"lng":39.41138},{"city":"Lodeynoye Pole","state":"Leningradskaya Oblast'","population":22164,"lat":60.72564,"lng":33.56063},{"city":"Losino-Petrovskiy","state":"Moscow Oblast","population":22116,"lat":55.87006,"lng":38.19318},{"city":"Staraya Kupavna","state":"Moscow Oblast","population":22099,"lat":55.80799,"lng":38.1805},{"city":"Pikalëvo","state":"Leningradskaya Oblast'","population":22072,"lat":59.51833,"lng":34.16639},{"city":"Ryazhsk","state":"Ryazan Oblast","population":22041,"lat":53.70588,"lng":40.08045},{"city":"Roshal’","state":"Moscow Oblast","population":21951,"lat":55.66853,"lng":39.87488},{"city":"Khadyzhensk","state":"Krasnodar Krai","population":21685,"lat":44.4258,"lng":39.5362},{"city":"Kovylkino","state":"Mordoviya Republic","population":21400,"lat":54.0372,"lng":43.91871},{"city":"Otradnoye","state":"Leningradskaya Oblast'","population":21397,"lat":59.7775,"lng":30.81806},{"city":"Sheksna","state":"Vologda Oblast","population":21197,"lat":59.20998,"lng":38.51066},{"city":"Terek","state":"Kabardino-Balkariya Republic","population":21180,"lat":43.48329,"lng":44.13781},{"city":"Zelenchukskaya","state":"Karachayevo-Cherkesiya Republic","population":21117,"lat":43.85495,"lng":41.59019},{"city":"Suvorov","state":"Tula Oblast","population":21059,"lat":54.1223,"lng":36.49657},{"city":"Novy Oskol","state":"Belgorod Oblast","population":21035,"lat":50.76331,"lng":37.86415},{"city":"Dugulubgey","state":"Kabardino-Balkariya Republic","population":20965,"lat":43.6625,"lng":43.53694},{"city":"Kurchaloy","state":"Chechnya","population":20903,"lat":43.20487,"lng":46.08784},{"city":"Khot'kovo","state":"Moscow Oblast","population":20872,"lat":56.25699,"lng":37.99544},{"city":"Novomichurinsk","state":"Ryazan Oblast","population":20821,"lat":54.0384,"lng":39.7479},{"city":"Sortavala","state":"Karelia","population":20760,"lat":61.71233,"lng":30.70953},{"city":"Elektrogorsk","state":"Moscow Oblast","population":20724,"lat":55.88431,"lng":38.7864},{"city":"Bobrov","state":"Voronezh Oblast","population":20587,"lat":51.09843,"lng":40.03008},{"city":"Chernogolovka","state":"Moscow Oblast","population":20483,"lat":56.00121,"lng":38.36492},{"city":"Sobinka","state":"Vladimir Oblast","population":20458,"lat":55.99003,"lng":40.02052},{"city":"Kalach","state":"Voronezh Oblast","population":20449,"lat":50.425,"lng":41.01595},{"city":"Buinsk","state":"Tatarstan Republic","population":20266,"lat":54.97422,"lng":48.29088},{"city":"Karachayevsk","state":"Karachayevo-Cherkesiya Republic","population":20264,"lat":43.77233,"lng":41.91366},{"city":"Tyrnyauz","state":"Kabardino-Balkariya Republic","population":20104,"lat":43.38278,"lng":42.91833},{"city":"Pushchino","state":"Moscow Oblast","population":20072,"lat":54.83373,"lng":37.61138},{"city":"Zavety Il’icha","state":"Moscow Oblast","population":20000,"lat":56.04284,"lng":37.85153},{"city":"Slobodka","state":"Moscow","population":20000,"lat":55.86667,"lng":37.58333},{"city":"Setun’","state":"Moscow","population":20000,"lat":55.71667,"lng":37.41667},{"city":"Rublëvo","state":"Moscow","population":20000,"lat":55.78514,"lng":37.35481},{"city":"Novaya Derevnya","state":"St.-Petersburg","population":20000,"lat":59.98748,"lng":30.28682},{"city":"Khosta","state":"Krasnodar Krai","population":20000,"lat":43.51484,"lng":39.86825},{"city":"Kastanayevo","state":"Moscow Oblast","population":20000,"lat":55.71667,"lng":37.5},{"city":"Elektrougli","state":"Moscow Oblast","population":20000,"lat":55.72445,"lng":38.20908},{"city":"Bol’shaya Setun’","state":"Moscow Oblast","population":20000,"lat":55.71667,"lng":37.41667},{"city":"Andreyevskoye","state":"Moscow Oblast","population":20000,"lat":55.55487,"lng":37.92566},{"city":"Dagomys","state":"Krasnodar Krai","population":20000,"lat":43.66974,"lng":39.66863},{"city":"Vnukovo","state":"Moscow","population":20000,"lat":55.61194,"lng":37.29611},{"city":"Krestovskiy ostrov","state":"Leningradskaya Oblast'","population":20000,"lat":59.97091,"lng":30.25789},{"city":"Yessentukskaya","state":"Stavropol Kray","population":19956,"lat":44.02583,"lng":42.87491},{"city":"Usman’","state":"Lipetsk Oblast","population":19910,"lat":52.04479,"lng":39.72569},{"city":"Yur’yev-Pol’skiy","state":"Vladimir Oblast","population":19906,"lat":56.5046,"lng":39.67931},{"city":"Monino","state":"Moscow Oblast","population":19852,"lat":55.84244,"lng":38.19362},{"city":"Karachev","state":"Bryansk Oblast","population":19757,"lat":53.12255,"lng":34.98494},{"city":"Zhukovka","state":"Bryansk Oblast","population":19690,"lat":53.53381,"lng":33.73075},{"city":"Alagir","state":"North Ossetia–Alania","population":19665,"lat":43.04252,"lng":44.2202},{"city":"Podporozh’ye","state":"Leningradskaya Oblast'","population":19600,"lat":60.91,"lng":34.16188},{"city":"Ostashkov","state":"Tver Oblast","population":19563,"lat":57.14695,"lng":33.10659},{"city":"Kovdor","state":"Murmansk","population":19518,"lat":67.56627,"lng":30.47765},{"city":"Kozel’sk","state":"Kaluga Oblast","population":19500,"lat":54.0366,"lng":35.77088},{"city":"Proletarsk","state":"Rostov","population":19493,"lat":46.70241,"lng":41.72487},{"city":"Akhtyrskiy","state":"Krasnodar Krai","population":19468,"lat":44.8546,"lng":38.3031},{"city":"Novopokrovskaya","state":"Krasnodar Krai","population":19342,"lat":45.95761,"lng":40.69811},{"city":"Orlovskiy","state":"Rostov","population":19325,"lat":46.87441,"lng":42.05223},{"city":"Yelizavetinskaya","state":"Krasnodar Krai","population":19306,"lat":45.04616,"lng":38.79491},{"city":"Nikol’skoye","state":"Leningradskaya Oblast'","population":19280,"lat":59.70056,"lng":30.78472},{"city":"Shchigry","state":"Kursk Oblast","population":19198,"lat":51.87598,"lng":36.90535},{"city":"Nesterovskaya","state":"Ingushetiya Republic","population":19186,"lat":43.23861,"lng":45.05028},{"city":"Kurovskoye","state":"Moscow Oblast","population":19173,"lat":55.58183,"lng":38.91994},{"city":"Rybnoye","state":"Ryazan Oblast","population":19159,"lat":54.72531,"lng":39.51305},{"city":"Anna","state":"Voronezh Oblast","population":19148,"lat":51.49007,"lng":40.42236},{"city":"Vorgashor","state":"Komi","population":18946,"lat":67.58355,"lng":63.79399},{"city":"Skhodnya","state":"Moscow Oblast","population":18897,"lat":55.94806,"lng":37.29778},{"city":"Konstantinovsk","state":"Rostov","population":18876,"lat":47.58113,"lng":41.0934},{"city":"Manturovo","state":"Kostroma Oblast","population":18817,"lat":58.32582,"lng":44.75881},{"city":"Staroshcherbinovskaya","state":"Krasnodar Krai","population":18785,"lat":46.63033,"lng":38.66379},{"city":"Vyselki","state":"Krasnodar Krai","population":18746,"lat":45.58058,"lng":39.65741},{"city":"Bronnitsy","state":"Moscow Oblast","population":18645,"lat":55.42112,"lng":38.26188},{"city":"Stroitel","state":"Belgorod Oblast","population":18636,"lat":50.78816,"lng":36.47751},{"city":"Agryz","state":"Tatarstan Republic","population":18601,"lat":56.5234,"lng":52.99431},{"city":"Galich","state":"Kostroma Oblast","population":18594,"lat":58.37884,"lng":42.34633},{"city":"Valday","state":"Novgorod Oblast","population":18549,"lat":57.97729,"lng":33.25153},{"city":"Starodub","state":"Bryansk Oblast","population":18539,"lat":52.58501,"lng":32.76314},{"city":"Nezlobnaya","state":"Stavropol Kray","population":18412,"lat":44.11806,"lng":43.40278},{"city":"Malakhovka","state":"Moscow Oblast","population":18399,"lat":55.64776,"lng":38.02486},{"city":"Avtury","state":"Chechnya","population":18370,"lat":43.16345,"lng":46.00152},{"city":"Ardon","state":"North Ossetia–Alania","population":18313,"lat":43.17888,"lng":44.29464},{"city":"Priozërsk","state":"Leningradskaya Oblast'","population":18300,"lat":61.04027,"lng":30.13915},{"city":"Kotel’niki","state":"Moscow Oblast","population":18300,"lat":55.65384,"lng":37.86234},{"city":"Beloozyorskiy","state":"Moscow Oblast","population":18297,"lat":55.45978,"lng":38.44358},{"city":"Afipskiy","state":"Krasnodar Krai","population":18209,"lat":44.90005,"lng":38.84265},{"city":"Sel’tso","state":"Bryansk Oblast","population":18167,"lat":53.36831,"lng":34.10328},{"city":"Nar'yan-Mar","state":"Nenets","population":18041,"lat":67.63869,"lng":53.00371},{"city":"Yasnogorsk","state":"Tula Oblast","population":18022,"lat":54.48091,"lng":37.6982},{"city":"Povorino","state":"Voronezh Oblast","population":18004,"lat":51.19806,"lng":42.24605},{"city":"Otradnoye","state":"Moscow","population":18000,"lat":55.86667,"lng":37.6},{"city":"Chegem","state":"Kabardino-Balkariya Republic","population":18000,"lat":43.56722,"lng":43.58528},{"city":"Belaya Glina","state":"Krasnodar Krai","population":17997,"lat":46.08115,"lng":40.87351},{"city":"Yegorlykskaya","state":"Rostov","population":17978,"lat":46.56587,"lng":40.6571},{"city":"Kirsanov","state":"Tambov Oblast","population":17975,"lat":52.6509,"lng":42.73481},{"city":"Privolzhsk","state":"Ivanovo Oblast","population":17864,"lat":57.38395,"lng":41.29165},{"city":"Kosaya Gora","state":"Tula Oblast","population":17836,"lat":54.11896,"lng":37.54459},{"city":"Nevel’","state":"Pskov Oblast","population":17832,"lat":56.02,"lng":29.92824},{"city":"Raduzhnyy","state":"Vladimir Oblast","population":17811,"lat":56.0038,"lng":40.33905},{"city":"Zapolyarnyy","state":"Murmansk","population":17789,"lat":69.426,"lng":30.811},{"city":"Aprelevka","state":"Moscow Oblast","population":17780,"lat":55.55194,"lng":37.0801},{"city":"Volgorechensk","state":"Kostroma Oblast","population":17700,"lat":57.44441,"lng":41.16335},{"city":"Zimovniki","state":"Rostov","population":17678,"lat":47.14623,"lng":42.47044},{"city":"Enem","state":"Adygeya Republic","population":17665,"lat":44.9264,"lng":38.90584},{"city":"Svobody","state":"Stavropol Kray","population":17661,"lat":44.02556,"lng":43.05028},{"city":"Kholmskiy","state":"Krasnodar Krai","population":17494,"lat":44.84694,"lng":38.385},{"city":"Chudovo","state":"Novgorod Oblast","population":17377,"lat":59.12225,"lng":31.68125},{"city":"Boksitogorsk","state":"Leningradskaya Oblast'","population":17366,"lat":59.48684,"lng":33.85652},{"city":"Kantyshevo","state":"Ingushetiya Republic","population":17363,"lat":43.22824,"lng":44.63322},{"city":"Kommunar","state":"Leningradskaya Oblast'","population":17358,"lat":59.62056,"lng":30.39},{"city":"Gavrilov-Yam","state":"Yaroslavl Oblast","population":17351,"lat":57.30259,"lng":39.85263},{"city":"Polyarnyy","state":"Murmansk","population":17332,"lat":69.20279,"lng":33.43697},{"city":"Suvorovskaya","state":"Stavropol Kray","population":17261,"lat":44.1901,"lng":42.6595},{"city":"Arsk","state":"Tatarstan Republic","population":17243,"lat":56.09254,"lng":49.87819},{"city":"Gribanovskiy","state":"Voronezh Oblast","population":17220,"lat":51.45015,"lng":41.96206},{"city":"Ryl’sk","state":"Kursk Oblast","population":17007,"lat":51.57141,"lng":34.68324},{"city":"Kudepsta","state":"Krasnodar Krai","population":17000,"lat":43.49547,"lng":39.89294},{"city":"Medvedovskaya","state":"Krasnodar Krai","population":16941,"lat":45.45151,"lng":39.02485},{"city":"Pridonskoy","state":"Voronezh Oblast","population":16896,"lat":51.6826,"lng":39.0676},{"city":"Menzelinsk","state":"Tatarstan Republic","population":16858,"lat":55.72792,"lng":53.1022},{"city":"Tuchkovo","state":"Moscow Oblast","population":16826,"lat":55.60111,"lng":36.46806},{"city":"Danilov","state":"Yaroslavl Oblast","population":16808,"lat":58.19077,"lng":40.17081},{"city":"Vasil’yevo","state":"Tatarstan Republic","population":16800,"lat":55.83007,"lng":48.71729},{"city":"Kukmor","state":"Tatarstan Republic","population":16795,"lat":56.18648,"lng":50.89404},{"city":"Achkhoy-Martan","state":"Chechnya","population":16779,"lat":43.19219,"lng":45.28345},{"city":"Plavsk","state":"Tula Oblast","population":16763,"lat":53.7084,"lng":37.29457},{"city":"Lakinsk","state":"Vladimir Oblast","population":16706,"lat":56.01931,"lng":39.94848},{"city":"Kashin","state":"Tver Oblast","population":16598,"lat":57.35918,"lng":37.60806},{"city":"Severo-Zadonsk","state":"Tula Oblast","population":16569,"lat":54.03481,"lng":38.40172},{"city":"Medvezh’yegorsk","state":"Karelia","population":16551,"lat":62.91447,"lng":34.45856},{"city":"Vostryakovo","state":"Moscow Oblast","population":16509,"lat":55.39934,"lng":37.80829},{"city":"Yemva","state":"Komi","population":16404,"lat":62.5879,"lng":50.8634},{"city":"Zvenigorod","state":"Moscow Oblast","population":16395,"lat":55.73401,"lng":36.85918},{"city":"Surkhakhi","state":"Ingushetiya Republic","population":16215,"lat":43.1875,"lng":44.90194},{"city":"Krasnogvardeyskoye","state":"Stavropol Kray","population":16169,"lat":45.84493,"lng":41.51745},{"city":"Shilovo","state":"Ryazan Oblast","population":16159,"lat":54.32005,"lng":40.87958},{"city":"Gryazovets","state":"Vologda Oblast","population":16133,"lat":58.88,"lng":40.2525},{"city":"Trubchevsk","state":"Bryansk Oblast","population":16100,"lat":52.58031,"lng":33.76574},{"city":"Sukhinichi","state":"Kaluga Oblast","population":16100,"lat":54.09989,"lng":35.34254},{"city":"Pavlovsk","state":"St.-Petersburg","population":16087,"lat":59.68333,"lng":30.43472},{"city":"Belidzhi","state":"Dagestan","population":16078,"lat":41.89184,"lng":48.41247},{"city":"Golitsyno","state":"Moscow Oblast","population":16056,"lat":55.60928,"lng":36.98212},{"city":"Zherdevka","state":"Tambov Oblast","population":16019,"lat":51.85429,"lng":41.45488},{"city":"Tsotsin-Yurt","state":"Chechnya","population":15970,"lat":43.24206,"lng":46.00013},{"city":"Pestovo","state":"Novgorod Oblast","population":15910,"lat":58.59382,"lng":35.80244},{"city":"Melenki","state":"Vladimir Oblast","population":15902,"lat":55.33579,"lng":41.62747},{"city":"Pokrov","state":"Vladimir Oblast","population":15867,"lat":55.91797,"lng":39.17242},{"city":"Petushki","state":"Vladimir Oblast","population":15866,"lat":55.92721,"lng":39.46072},{"city":"Arzgir","state":"Stavropol Kray","population":15838,"lat":45.37411,"lng":44.2198},{"city":"Svetogorsk","state":"Leningradskaya Oblast'","population":15733,"lat":61.11213,"lng":28.86321},{"city":"Persianovka","state":"Rostov","population":15730,"lat":47.52729,"lng":39.4193},{"city":"Venëv","state":"Tula Oblast","population":15700,"lat":54.35074,"lng":38.26304},{"city":"Divnoye","state":"Stavropol Kray","population":15700,"lat":45.90973,"lng":43.34943},{"city":"Semender","state":"Dagestan","population":15691,"lat":42.98556,"lng":47.40393},{"city":"Karabanovo","state":"Vladimir Oblast","population":15615,"lat":56.31081,"lng":38.70253},{"city":"Nikel","state":"Murmansk","population":15596,"lat":69.41285,"lng":30.22198},{"city":"Razumnoye","state":"Belgorod Oblast","population":15529,"lat":50.53439,"lng":36.68462},{"city":"Shushary","state":"St.-Petersburg","population":15503,"lat":59.80917,"lng":30.38167},{"city":"Strunino","state":"Vladimir Oblast","population":15483,"lat":56.37328,"lng":38.58321},{"city":"Donskoye","state":"Stavropol Kray","population":15469,"lat":45.45346,"lng":41.97244},{"city":"Moskovskiy","state":"Moscow","population":15435,"lat":55.59911,"lng":37.35495},{"city":"Tsimlyansk","state":"Rostov","population":15341,"lat":47.64801,"lng":42.09345},{"city":"Belëv","state":"Tula Oblast","population":15300,"lat":53.81217,"lng":36.13339},{"city":"Bagayevskaya","state":"Rostov","population":15300,"lat":47.32049,"lng":40.3847},{"city":"Sofrino","state":"Moscow Oblast","population":15265,"lat":56.15,"lng":37.93333},{"city":"Chernyanka","state":"Belgorod Oblast","population":15261,"lat":50.93816,"lng":37.81509},{"city":"Giaginskaya","state":"Adygeya Republic","population":15169,"lat":44.86208,"lng":40.07195},{"city":"Uchkeken","state":"Karachayevo-Cherkesiya Republic","population":15118,"lat":43.94508,"lng":42.51652},{"city":"Pochep","state":"Bryansk Oblast","population":15100,"lat":52.9331,"lng":33.44702},{"city":"Polyarnyye Zori","state":"Murmansk","population":15092,"lat":67.36611,"lng":32.49806},{"city":"Boguchar","state":"Voronezh Oblast","population":15048,"lat":49.9346,"lng":40.55447},{"city":"Peresvet","state":"Moscow Oblast","population":15000,"lat":56.42302,"lng":38.17612},{"city":"Bobrovo","state":"Moscow Oblast","population":14991,"lat":55.5275,"lng":37.615},{"city":"Zelenogorsk","state":"St.-Petersburg","population":14958,"lat":60.19968,"lng":29.70183},{"city":"Ladozhskaya","state":"Krasnodar Krai","population":14904,"lat":45.30902,"lng":39.93803},{"city":"Navashino","state":"Nizhny Novgorod Oblast","population":14830,"lat":55.54315,"lng":42.19307},{"city":"Pervomaysk","state":"Nizhny Novgorod Oblast","population":14810,"lat":54.8686,"lng":43.80347},{"city":"Dzhalil’","state":"Tatarstan Republic","population":14797,"lat":55.0239,"lng":52.7358},{"city":"Bachi-Yurt","state":"Chechnya","population":14788,"lat":43.22417,"lng":46.19423},{"city":"Chaltyr","state":"Rostov","population":14689,"lat":47.28477,"lng":39.48232},{"city":"Yuzha","state":"Ivanovo Oblast","population":14678,"lat":56.58374,"lng":42.01177},{"city":"Kuleshovka","state":"Rostov","population":14668,"lat":47.07855,"lng":39.55532},{"city":"Kalyazin","state":"Tver Oblast","population":14655,"lat":57.23975,"lng":37.83286},{"city":"Krylovskaya","state":"Krasnodar Krai","population":14605,"lat":46.32109,"lng":39.97011},{"city":"Klimovo","state":"Bryansk Oblast","population":14482,"lat":52.37877,"lng":32.1963},{"city":"Korablino","state":"Ryazan Oblast","population":14469,"lat":53.92666,"lng":40.02365},{"city":"Kondrovo","state":"Kaluga Oblast","population":14462,"lat":54.8059,"lng":35.93067},{"city":"Varenikovskaya","state":"Krasnodar Krai","population":14409,"lat":45.12085,"lng":37.64171},{"city":"Matveyev Kurgan","state":"Rostov","population":14342,"lat":47.56675,"lng":38.86878},{"city":"Gorokhovets","state":"Vladimir Oblast","population":14247,"lat":56.19958,"lng":42.68866},{"city":"Gadzhiyevo","state":"Murmansk","population":14225,"lat":69.25506,"lng":33.33616},{"city":"Lopatinskiy","state":"Moscow Oblast","population":14219,"lat":55.34101,"lng":38.72366},{"city":"Toropets","state":"Tver Oblast","population":14187,"lat":56.49954,"lng":31.6392},{"city":"Murmashi","state":"Murmansk","population":14152,"lat":68.81542,"lng":32.81147},{"city":"Mamadysh","state":"Tatarstan Republic","population":14148,"lat":55.70273,"lng":51.40439},{"city":"Borisovka","state":"Belgorod Oblast","population":14148,"lat":50.59945,"lng":36.01709},{"city":"Akhty","state":"Dagestan","population":14080,"lat":41.45949,"lng":47.73247},{"city":"Lagan’","state":"Kalmykiya Republic","population":14045,"lat":45.39177,"lng":47.36452},{"city":"Oboyan’","state":"Kursk Oblast","population":14000,"lat":51.21224,"lng":36.27859},{"city":"Anapskaya","state":"Krasnodar Krai","population":13965,"lat":44.89671,"lng":37.386},{"city":"Kameshkovo","state":"Vladimir Oblast","population":13935,"lat":56.34919,"lng":40.99859},{"city":"Leninkent","state":"Dagestan","population":13912,"lat":42.96895,"lng":47.35202},{"city":"Verkhnedneprovskiy","state":"Smolensk Oblast","population":13903,"lat":54.98131,"lng":33.34573},{"city":"Babayurt","state":"Dagestan","population":13857,"lat":43.59976,"lng":46.77805},{"city":"Okulovka","state":"Novgorod Oblast","population":13852,"lat":58.40801,"lng":33.28852},{"city":"Kamskiye Polyany","state":"Tatarstan Republic","population":13849,"lat":55.43068,"lng":51.41709},{"city":"Malaya Vishera","state":"Novgorod Oblast","population":13834,"lat":58.84506,"lng":32.22235},{"city":"Kem’","state":"Karelia","population":13829,"lat":64.95695,"lng":34.59176},{"city":"Sirius","state":"Krasnodar Krai","population":13768,"lat":43.40504,"lng":39.95963},{"city":"Navlya","state":"Bryansk Oblast","population":13735,"lat":52.82544,"lng":34.4996},{"city":"Somovo","state":"Voronezh Oblast","population":13729,"lat":51.7422,"lng":39.3659},{"city":"Tovarkovo","state":"Kaluga Oblast","population":13708,"lat":54.67617,"lng":35.9386},{"city":"Vuktyl","state":"Komi","population":13693,"lat":63.8478,"lng":57.30987},{"city":"Lopatino","state":"Moscow Oblast","population":13687,"lat":55.52799,"lng":37.64666},{"city":"Kletnya","state":"Bryansk Oblast","population":13658,"lat":53.38981,"lng":33.21732},{"city":"Krasnokumskoye","state":"Stavropol Kray","population":13630,"lat":44.17806,"lng":43.50194},{"city":"Donskoy","state":"Rostov","population":13627,"lat":47.41404,"lng":40.25742},{"city":"Likhovskoy","state":"Rostov","population":13617,"lat":48.15188,"lng":40.17925},{"city":"Chkalovsk","state":"Nizhny Novgorod Oblast","population":13577,"lat":56.76492,"lng":43.2469},{"city":"Opochka","state":"Pskov Oblast","population":13548,"lat":56.71448,"lng":28.66287},{"city":"Chaplygin","state":"Lipetsk Oblast","population":13488,"lat":53.2342,"lng":39.96135},{"city":"Ruza","state":"Moscow Oblast","population":13480,"lat":55.70172,"lng":36.19321},{"city":"Zaozërsk","state":"Murmansk","population":13429,"lat":69.40135,"lng":32.44837},{"city":"Talovaya","state":"Voronezh Oblast","population":13367,"lat":51.11962,"lng":40.7251},{"city":"Kalininskaya","state":"Krasnodar Krai","population":13363,"lat":45.4847,"lng":38.66355},{"city":"Udel’naya","state":"Moscow Oblast","population":13357,"lat":55.636,"lng":38.045},{"city":"Petrovskaya","state":"Krasnodar Krai","population":13340,"lat":45.43139,"lng":37.955},{"city":"Skuratovskiy","state":"Tula Oblast","population":13325,"lat":54.10152,"lng":37.60384},{"city":"Syas’stroy","state":"Leningradskaya Oblast'","population":13300,"lat":60.13669,"lng":32.56906},{"city":"Sudogda","state":"Vladimir Oblast","population":13277,"lat":55.95171,"lng":40.87354},{"city":"Tsivil’sk","state":"Chuvash Republic","population":13252,"lat":55.86974,"lng":47.47874},{"city":"Goyty","state":"Chechnya","population":13250,"lat":43.16417,"lng":45.62278},{"city":"Pechory","state":"Pskov Oblast","population":13246,"lat":57.81642,"lng":27.6119},{"city":"Vetluzhskiy","state":"Kostroma Oblast","population":13229,"lat":58.39016,"lng":45.46543},{"city":"Karabudakhkent","state":"Dagestan","population":13207,"lat":42.70916,"lng":47.56299},{"city":"Pervomayskiy","state":"Tambov Oblast","population":13196,"lat":53.2463,"lng":40.28911},{"city":"Taldom","state":"Moscow Oblast","population":13112,"lat":56.73097,"lng":37.52824},{"city":"Starovelichkovskaya","state":"Krasnodar Krai","population":13111,"lat":45.42884,"lng":38.73261},{"city":"Pitkyaranta","state":"Karelia","population":13090,"lat":61.57387,"lng":31.47889},{"city":"Solnechnodol’sk","state":"Stavropol Kray","population":13068,"lat":45.3179,"lng":41.5407},{"city":"Vostochnyy","state":"Moscow","population":13011,"lat":55.81667,"lng":37.86667},{"city":"Selyatino","state":"Moscow Oblast","population":12954,"lat":55.51514,"lng":36.97746},{"city":"Vychegodskiy","state":"Arkhangelskaya","population":12923,"lat":61.24702,"lng":46.89842},{"city":"Staroderevyankovskaya","state":"Krasnodar Krai","population":12918,"lat":46.12761,"lng":38.9674},{"city":"Lukoyanov","state":"Nizhny Novgorod Oblast","population":12913,"lat":55.03145,"lng":44.48179},{"city":"Mikhaylov","state":"Ryazan Oblast","population":12907,"lat":54.23227,"lng":39.02915},{"city":"Zavolzhsk","state":"Ivanovo Oblast","population":12847,"lat":57.48198,"lng":42.13821},{"city":"Vasyurinskaya","state":"Krasnodar Krai","population":12830,"lat":45.11809,"lng":39.42399},{"city":"Strel'na","state":"St.-Petersburg","population":12800,"lat":59.85189,"lng":30.03611},{"city":"Oyskhara","state":"Chechnya","population":12795,"lat":43.26402,"lng":46.24803},{"city":"Kuz’molovskiy","state":"Leningradskaya Oblast'","population":12794,"lat":60.10921,"lng":30.49092},{"city":"Kantemirovka","state":"Voronezh Oblast","population":12770,"lat":49.70437,"lng":39.85831},{"city":"Nartan","state":"Kabardino-Balkariya Republic","population":12694,"lat":43.51083,"lng":43.69944},{"city":"Yakhroma","state":"Moscow Oblast","population":12666,"lat":56.30055,"lng":37.4577},{"city":"Ertil’","state":"Voronezh Oblast","population":12622,"lat":51.83818,"lng":40.80169},{"city":"Pokrovskoye","state":"Rostov","population":12576,"lat":47.41434,"lng":38.89885},{"city":"Zaprudnya","state":"Moscow Oblast","population":12517,"lat":56.56667,"lng":37.43333},{"city":"Zvenigovo","state":"Mariy-El Republic","population":12484,"lat":55.97484,"lng":48.0178},{"city":"Sosenskiy","state":"Kaluga Oblast","population":12484,"lat":54.05899,"lng":35.96228},{"city":"Volokonovka","state":"Belgorod Oblast","population":12413,"lat":50.48504,"lng":37.86093},{"city":"Vaskelovo","state":"Leningradskaya Oblast'","population":12388,"lat":60.39571,"lng":30.35419},{"city":"Konosha","state":"Arkhangelskaya","population":12383,"lat":60.97306,"lng":40.26322},{"city":"Vorsma","state":"Nizhny Novgorod Oblast","population":12362,"lat":55.99062,"lng":43.27249},{"city":"Starotitarovskaya","state":"Krasnodar Krai","population":12351,"lat":45.21938,"lng":37.15476},{"city":"Uren’","state":"Nizhny Novgorod Oblast","population":12309,"lat":57.46125,"lng":45.78558},{"city":"Zhukov","state":"Kaluga Oblast","population":12300,"lat":55.02381,"lng":36.7422},{"city":"Babayevo","state":"Vologda Oblast","population":12300,"lat":59.3936,"lng":35.9371},{"city":"Dorogobuzh","state":"Smolensk Oblast","population":12293,"lat":54.91511,"lng":33.29877},{"city":"Likhoslavl’","state":"Tver Oblast","population":12290,"lat":57.12662,"lng":35.46421},{"city":"Kamenolomni","state":"Rostov","population":12262,"lat":47.66783,"lng":40.20479},{"city":"Kasumkent","state":"Dagestan","population":12225,"lat":41.67746,"lng":48.15182},{"city":"Adygeysk","state":"Adygeya Republic","population":12208,"lat":44.88524,"lng":39.19059},{"city":"Belomorsk","state":"Karelia","population":12165,"lat":64.53,"lng":34.76292},{"city":"Mayskiy","state":"Rostov","population":12136,"lat":47.696,"lng":40.10259},{"city":"Shlissel’burg","state":"Leningradskaya Oblast'","population":12115,"lat":59.9473,"lng":31.03845},{"city":"Volosovo","state":"Leningradskaya Oblast'","population":12096,"lat":59.44525,"lng":29.48911},{"city":"Siverskiy","state":"Leningradskaya Oblast'","population":12076,"lat":59.35444,"lng":30.07833},{"city":"Novominskaya","state":"Krasnodar Krai","population":12049,"lat":46.3163,"lng":38.9586},{"city":"Kurskaya","state":"Stavropol Kray","population":12036,"lat":44.04315,"lng":44.45497},{"city":"Snezhnogorsk","state":"Murmansk","population":12014,"lat":69.19333,"lng":33.25314},{"city":"Yemetsk","state":"Arkhangelskaya","population":12000,"lat":63.47191,"lng":41.78023},{"city":"Digora","state":"North Ossetia–Alania","population":11999,"lat":43.15666,"lng":44.15629},{"city":"Znamenka","state":"Oryol oblast","population":11995,"lat":52.89789,"lng":35.97703},{"city":"Kremenki","state":"Kaluga Oblast","population":11994,"lat":54.88626,"lng":37.11955},{"city":"Surazh","state":"Bryansk Oblast","population":11962,"lat":53.01747,"lng":32.39178},{"city":"Pargolovo","state":"St.-Petersburg","population":11962,"lat":60.0812,"lng":30.27626},{"city":"Zemetchino","state":"Penza Oblast","population":11928,"lat":53.4973,"lng":42.61632},{"city":"Bolkhov","state":"Oryol oblast","population":11904,"lat":53.44295,"lng":36.00546},{"city":"Porkhov","state":"Pskov Oblast","population":11886,"lat":57.76502,"lng":29.55612},{"city":"Lokot’","state":"Bryansk Oblast","population":11853,"lat":52.57472,"lng":34.57673},{"city":"Sagopshi","state":"Ingushetiya Republic","population":11848,"lat":43.48515,"lng":44.59063},{"city":"Uspenskoye","state":"Krasnodar Krai","population":11843,"lat":44.83182,"lng":41.38647},{"city":"Kraskovo","state":"Moscow Oblast","population":11832,"lat":55.658,"lng":37.98},{"city":"Tetyushi","state":"Tatarstan Republic","population":11826,"lat":54.93768,"lng":48.83267},{"city":"Kayakent","state":"Dagestan","population":11805,"lat":42.38736,"lng":47.90301},{"city":"Nizhneye Kazanishche","state":"Dagestan","population":11765,"lat":42.76369,"lng":47.16027},{"city":"Nekrasovskiy","state":"Moscow Oblast","population":11740,"lat":56.08667,"lng":37.49753},{"city":"Pochinki","state":"Nizhny Novgorod Oblast","population":11724,"lat":54.70146,"lng":44.85762},{"city":"Platnirovskaya","state":"Krasnodar Krai","population":11710,"lat":45.39531,"lng":39.3842},{"city":"Kozlovka","state":"Chuvash Republic","population":11700,"lat":55.84284,"lng":48.2492},{"city":"Krasnozavodsk","state":"Moscow Oblast","population":11694,"lat":56.44814,"lng":38.21511},{"city":"Kavkazskaya","state":"Krasnodar Krai","population":11680,"lat":45.44392,"lng":40.66703},{"city":"Mokshan","state":"Penza Oblast","population":11652,"lat":53.4365,"lng":44.61322},{"city":"Borovsk","state":"Kaluga Oblast","population":11578,"lat":55.20343,"lng":36.49088},{"city":"Shalushka","state":"Kabardino-Balkariya Republic","population":11577,"lat":43.5325,"lng":43.56611},{"city":"Kaduy","state":"Vologda Oblast","population":11570,"lat":59.2,"lng":37.15},{"city":"Sunzha","state":"North Ossetia–Alania","population":11548,"lat":43.05862,"lng":44.82281},{"city":"Kugesi","state":"Chuvash Republic","population":11547,"lat":56.02895,"lng":47.29255},{"city":"Mulino","state":"Nizhny Novgorod Oblast","population":11513,"lat":56.28923,"lng":42.92005},{"city":"Redkino","state":"Tver Oblast","population":11507,"lat":56.64754,"lng":36.29674},{"city":"Mikun’","state":"Komi","population":11502,"lat":62.35472,"lng":50.07714},{"city":"Yur’yevets","state":"Ivanovo Oblast","population":11488,"lat":57.31213,"lng":43.10395},{"city":"Nogir","state":"North Ossetia–Alania","population":11469,"lat":43.08162,"lng":44.6365},{"city":"Praskoveya","state":"Stavropol Kray","population":11420,"lat":44.74444,"lng":44.20306},{"city":"Drezna","state":"Moscow Oblast","population":11386,"lat":55.74208,"lng":38.84753},{"city":"Levokumskoye","state":"Stavropol Kray","population":11377,"lat":44.82194,"lng":44.66056},{"city":"Ust’-Donetskiy","state":"Rostov","population":11357,"lat":47.64377,"lng":40.8718},{"city":"Peschanokopskoye","state":"Rostov","population":11340,"lat":46.19448,"lng":41.08148},{"city":"Khanskaya","state":"Adygeya Republic","population":11297,"lat":44.67702,"lng":39.9616},{"city":"Urussu","state":"Tatarstan Republic","population":11279,"lat":54.59701,"lng":53.45625},{"city":"Tatsinskaya","state":"Rostov","population":11258,"lat":48.19448,"lng":41.27972},{"city":"Pogar","state":"Bryansk Oblast","population":11242,"lat":52.55287,"lng":33.25961},{"city":"Glubokiy","state":"Rostov","population":11225,"lat":48.52716,"lng":40.33144},{"city":"Anastasiyevskaya","state":"Krasnodar Krai","population":11204,"lat":45.21576,"lng":37.89258},{"city":"L’vovskiy","state":"Moscow Oblast","population":11202,"lat":55.31872,"lng":37.52337},{"city":"Suzdal’","state":"Vladimir Oblast","population":11183,"lat":56.42408,"lng":40.44978},{"city":"Nizhniy Odes","state":"Komi","population":11165,"lat":63.64451,"lng":54.85598},{"city":"Mesker-Yurt","state":"Chechnya","population":11147,"lat":43.25147,"lng":45.90716},{"city":"Neya","state":"Kostroma Oblast","population":11144,"lat":58.29708,"lng":43.86834},{"city":"Kharovsk","state":"Vologda Oblast","population":11115,"lat":59.96425,"lng":40.19121},{"city":"Vyritsa","state":"Leningradskaya Oblast'","population":11107,"lat":59.40778,"lng":30.34806},{"city":"Vytegra","state":"Vologda Oblast","population":11099,"lat":61.00636,"lng":36.44811},{"city":"Fryanovo","state":"Moscow Oblast","population":11088,"lat":56.13333,"lng":38.45},{"city":"Tselina","state":"Rostov","population":11075,"lat":46.53421,"lng":41.03158},{"city":"Ivangorod","state":"Leningradskaya Oblast'","population":11074,"lat":59.37155,"lng":28.21625},{"city":"Komsomol’skiy","state":"Mordoviya Republic","population":11070,"lat":54.44522,"lng":45.83136},{"city":"Soldato-Aleksandrovskoye","state":"Stavropol Kray","population":11059,"lat":44.26528,"lng":43.75611},{"city":"Belozërsk","state":"Vologda Oblast","population":11049,"lat":60.0288,"lng":37.8084},{"city":"Kursavka","state":"Stavropol Kray","population":11043,"lat":44.46151,"lng":42.50407},{"city":"Oktyabr’skiy","state":"Moscow Oblast","population":11000,"lat":55.60806,"lng":37.97738},{"city":"Kupavna","state":"Moscow Oblast","population":11000,"lat":55.74576,"lng":38.13136},{"city":"Chertkovo","state":"Rostov","population":11000,"lat":49.38364,"lng":40.15231},{"city":"Novoye Devyatkino","state":"Leningradskaya Oblast'","population":10978,"lat":60.06364,"lng":30.48328},{"city":"Vorotynsk","state":"Kaluga Oblast","population":10977,"lat":54.42828,"lng":36.04646},{"city":"Kargopol’","state":"Arkhangelskaya","population":10966,"lat":61.50359,"lng":38.9486},{"city":"Kuvshinovo","state":"Tver Oblast","population":10960,"lat":57.02857,"lng":34.17895},{"city":"Navoloki","state":"Ivanovo Oblast","population":10951,"lat":57.46572,"lng":41.96344},{"city":"Chegem Vtoroy","state":"Kabardino-Balkariya Republic","population":10951,"lat":43.59583,"lng":43.59944},{"city":"Starokorsunskaya","state":"Krasnodar Krai","population":10915,"lat":45.05727,"lng":39.31611},{"city":"Islamey","state":"Kabardino-Balkariya Republic","population":10899,"lat":43.67556,"lng":43.455},{"city":"Pervomayskiy","state":"Tula Oblast","population":10885,"lat":54.04482,"lng":37.50875},{"city":"Plesetsk","state":"Arkhangelskaya","population":10870,"lat":62.71165,"lng":40.29104},{"city":"Volodarsk","state":"Nizhny Novgorod Oblast","population":10862,"lat":56.22547,"lng":43.17585},{"city":"Samashki","state":"Chechnya","population":10848,"lat":43.28935,"lng":45.29786},{"city":"Suoyarvi","state":"Karelia","population":10833,"lat":62.08807,"lng":32.37327},{"city":"Vurnary","state":"Chuvash Republic","population":10825,"lat":55.49044,"lng":46.96479},{"city":"Kazanskaya","state":"Krasnodar Krai","population":10794,"lat":45.4106,"lng":40.4361},{"city":"Nadvoitsy","state":"Karelia","population":10780,"lat":63.889,"lng":34.258},{"city":"Mayrtup","state":"Chechnya","population":10778,"lat":43.20348,"lng":46.13215},{"city":"Vysokovsk","state":"Moscow Oblast","population":10772,"lat":56.31667,"lng":36.55},{"city":"Krasnoslobodsk","state":"Mordoviya Republic","population":10748,"lat":54.42548,"lng":43.78561},{"city":"Yadrin","state":"Chuvash Republic","population":10735,"lat":55.94052,"lng":46.20622},{"city":"Mikhnëvo","state":"Moscow Oblast","population":10726,"lat":55.12747,"lng":37.95451},{"city":"Gorodoviki","state":"Kalmykiya Republic","population":10706,"lat":46.13528,"lng":41.96556},{"city":"Psebay","state":"Krasnodar Krai","population":10700,"lat":44.1234,"lng":40.8107},{"city":"Bykovo","state":"Moscow Oblast","population":10700,"lat":55.63614,"lng":38.08027},{"city":"Sovetskiy","state":"Mariy-El Republic","population":10674,"lat":56.76209,"lng":48.47568},{"city":"Yuzhno-Sukhokumsk","state":"Dagestan","population":10665,"lat":44.66033,"lng":45.6475},{"city":"Bologoye-4","state":"Tver Oblast","population":10661,"lat":57.9,"lng":33.65},{"city":"Samarskoye","state":"Rostov","population":10638,"lat":46.93611,"lng":39.68255},{"city":"Kenzhe","state":"Kabardino-Balkariya Republic","population":10636,"lat":43.49857,"lng":43.55413},{"city":"Staromyshastovskaya","state":"Krasnodar Krai","population":10625,"lat":45.34329,"lng":39.07608},{"city":"Sol’tsy","state":"Novgorod Oblast","population":10625,"lat":58.12229,"lng":30.31831},{"city":"Imeni Morozova","state":"Leningradskaya Oblast'","population":10623,"lat":59.97572,"lng":31.03762},{"city":"Ayutinskiy","state":"Rostov","population":10623,"lat":47.78228,"lng":40.14763},{"city":"Ozherel’ye","state":"Moscow Oblast","population":10618,"lat":54.79197,"lng":38.26559},{"city":"Obukhovo","state":"Moscow Oblast","population":10616,"lat":55.83278,"lng":38.2725},{"city":"Davydovo","state":"Moscow Oblast","population":10606,"lat":55.60859,"lng":38.86109},{"city":"Pudozh","state":"Karelia","population":10605,"lat":61.80415,"lng":36.5277},{"city":"Nizhnyaya Maktama","state":"Tatarstan Republic","population":10600,"lat":54.86356,"lng":52.4281},{"city":"Kola","state":"Murmansk","population":10600,"lat":68.88138,"lng":33.01769},{"city":"Rakitnoye","state":"Belgorod Oblast","population":10596,"lat":50.84076,"lng":35.85212},{"city":"Al’burikent","state":"Dagestan","population":10591,"lat":42.97389,"lng":47.47111},{"city":"Ustyuzhna","state":"Vologda Oblast","population":10566,"lat":58.8394,"lng":36.4321},{"city":"Zayukovo","state":"Kabardino-Balkariya Republic","population":10559,"lat":43.61611,"lng":43.33389},{"city":"Tarki","state":"Dagestan","population":10554,"lat":42.94423,"lng":47.49527},{"city":"Tot’ma","state":"Vologda Oblast","population":10500,"lat":59.97375,"lng":42.76487},{"city":"Mikhaylovskoye","state":"North Ossetia–Alania","population":10479,"lat":43.09972,"lng":44.63164},{"city":"Staronizhestebliyevskaya","state":"Krasnodar Krai","population":10478,"lat":45.38315,"lng":38.44304},{"city":"Sosnovka","state":"Tambov Oblast","population":10475,"lat":53.23088,"lng":41.36562},{"city":"Konobeyevo","state":"Moscow Oblast","population":10434,"lat":55.40776,"lng":38.66261},{"city":"Belyye Berega","state":"Bryansk Oblast","population":10425,"lat":53.20851,"lng":34.66405},{"city":"Pravdinskiy","state":"Moscow Oblast","population":10372,"lat":56.06034,"lng":37.86266},{"city":"Novomikhaylovskiy","state":"Krasnodar Krai","population":10370,"lat":44.2626,"lng":38.8585},{"city":"Shakhovskaya","state":"Moscow Oblast","population":10353,"lat":56.03082,"lng":35.50638},{"city":"Zadonsk","state":"Lipetsk Oblast","population":10326,"lat":52.3904,"lng":38.9261},{"city":"Aleksandriyskaya","state":"Stavropol Kray","population":10279,"lat":44.22722,"lng":43.34528},{"city":"Inzhavino","state":"Tambov Oblast","population":10278,"lat":52.31976,"lng":42.49154},{"city":"Dvubratskiy","state":"Krasnodar Krai","population":10272,"lat":45.23888,"lng":39.80499},{"city":"Novopodrezkovo","state":"Moscow Oblast","population":10271,"lat":55.93972,"lng":37.34417},{"city":"Assinovskaya","state":"Chechnya","population":10270,"lat":43.24167,"lng":45.18194},{"city":"Alleroy","state":"Chechnya","population":10247,"lat":43.21711,"lng":46.28209},{"city":"Lysogorskaya","state":"Stavropol Kray","population":10219,"lat":44.10639,"lng":43.27556},{"city":"Krivyanskaya","state":"Rostov","population":10203,"lat":47.39689,"lng":40.1668},{"city":"Mariinskiy Posad","state":"Chuvash Republic","population":10199,"lat":56.11497,"lng":47.71805},{"city":"Staryye Atagi","state":"Chechnya","population":10183,"lat":43.12028,"lng":45.74056},{"city":"Tarusa","state":"Kaluga Oblast","population":10180,"lat":54.72467,"lng":37.1722},{"city":"Alkhan-Kala","state":"Chechnya","population":10168,"lat":43.25861,"lng":45.53917},{"city":"Sovetskaya","state":"Krasnodar Krai","population":10166,"lat":44.77694,"lng":41.17222},{"city":"Prokhorovka","state":"Belgorod Oblast","population":10136,"lat":51.03594,"lng":36.73138},{"city":"Bolshevo","state":"Moscow Oblast","population":10133,"lat":55.93486,"lng":37.83002},{"city":"Zubova Polyana","state":"Mordoviya Republic","population":10119,"lat":54.07813,"lng":42.83645},{"city":"Yermolino","state":"Kaluga Oblast","population":10100,"lat":55.19489,"lng":36.59513},{"city":"Bolokhovo","state":"Tula Oblast","population":10084,"lat":54.08378,"lng":37.82895},{"city":"Dobrinka","state":"Lipetsk Oblast","population":10063,"lat":52.16528,"lng":40.47306},{"city":"Sholokhovskiy","state":"Rostov","population":10062,"lat":48.28071,"lng":41.04592},{"city":"Yel’nya","state":"Smolensk Oblast","population":10050,"lat":54.57735,"lng":33.18474},{"city":"Gigant","state":"Rostov","population":10034,"lat":46.50665,"lng":41.34185},{"city":"Troitskoye","state":"Kalmykiya Republic","population":10025,"lat":46.41303,"lng":44.25788},{"city":"Olonets","state":"Karelia","population":10005,"lat":60.98106,"lng":32.97261},{"city":"Lakhtinskiy","state":"St.-Petersburg","population":10000,"lat":59.99521,"lng":30.14717},{"city":"Golovinskiy","state":"Moscow","population":10000,"lat":55.85381,"lng":37.49604},{"city":"Koltushi","state":"Leningradskaya Oblast'","population":10000,"lat":59.92969,"lng":30.64465},{"city":"Noginsk-9","state":"Moscow Oblast","population":10000,"lat":56.06681,"lng":38.50013},{"city":"Krasnyy Oktyabr’","state":"Vladimir Oblast","population":9999,"lat":56.11667,"lng":38.88333},{"city":"Zalukokoazhe","state":"Kabardino-Balkariya Republic","population":9997,"lat":43.90063,"lng":43.2143},{"city":"Dalakovo","state":"Ingushetiya Republic","population":9994,"lat":43.23759,"lng":44.58964},{"city":"Aktyubinskiy","state":"Tatarstan Republic","population":9964,"lat":54.81372,"lng":52.80559},{"city":"Zapadnaya Dvina","state":"Tver Oblast","population":9962,"lat":56.25901,"lng":32.07454},{"city":"Ozerniy","state":"Tver Oblast","population":9951,"lat":57.86657,"lng":33.66401},{"city":"Novomyshastovskaya","state":"Krasnodar Krai","population":9916,"lat":45.19909,"lng":38.58272},{"city":"Sernovodsk","state":"Chechnya","population":9882,"lat":43.31277,"lng":45.15969},{"city":"Puchezh","state":"Ivanovo Oblast","population":9881,"lat":56.9761,"lng":43.16656},{"city":"Bessonovka","state":"Penza Oblast","population":9880,"lat":53.30968,"lng":45.04069},{"city":"Leninskiy","state":"Tula Oblast","population":9834,"lat":54.28734,"lng":37.4571},{"city":"Pankovka","state":"Novgorod Oblast","population":9828,"lat":58.50004,"lng":31.1999},{"city":"Kokoshkino","state":"Moscow","population":9818,"lat":55.59769,"lng":37.1695},{"city":"Gorodovikovsk","state":"Kalmykiya Republic","population":9809,"lat":46.08776,"lng":41.93344},{"city":"Revda","state":"Murmansk","population":9780,"lat":67.9371,"lng":34.56149},{"city":"Alekseyevskoye","state":"Tatarstan Republic","population":9738,"lat":55.30708,"lng":50.11888},{"city":"Kresttsy","state":"Novgorod Oblast","population":9737,"lat":58.24782,"lng":32.51796},{"city":"Ivanovskaya","state":"Krasnodar Krai","population":9729,"lat":45.27601,"lng":38.46435},{"city":"Gekhi","state":"Chechnya","population":9714,"lat":43.16354,"lng":45.47238},{"city":"Koptëvo","state":"Moscow Oblast","population":9700,"lat":55.833,"lng":37.522},{"city":"Kievskiy","state":"Moscow Oblast","population":9700,"lat":55.42999,"lng":36.8666},{"city":"Novaya Ladoga","state":"Leningradskaya Oblast'","population":9680,"lat":60.10246,"lng":32.30191},{"city":"Bashmakovo","state":"Penza Oblast","population":9654,"lat":53.21329,"lng":43.0342},{"city":"Romodanovo","state":"Mordoviya Republic","population":9646,"lat":54.42006,"lng":45.34037},{"city":"Znamenskoye","state":"Chechnya","population":9641,"lat":43.67669,"lng":45.12751},{"city":"Rudnya","state":"Smolensk Oblast","population":9615,"lat":54.94712,"lng":31.09228},{"city":"Dno","state":"Pskov Oblast","population":9607,"lat":57.82882,"lng":29.96917},{"city":"Dedovichi","state":"Pskov Oblast","population":9606,"lat":57.5516,"lng":29.94684},{"city":"Plastunovskaya","state":"Krasnodar Krai","population":9604,"lat":45.29432,"lng":39.26505},{"city":"Shelkovskaya","state":"Chechnya","population":9602,"lat":43.50774,"lng":46.33622},{"city":"Vinogradovo","state":"Moscow Oblast","population":9600,"lat":56.93333,"lng":37.55},{"city":"Naryshkino","state":"Oryol oblast","population":9600,"lat":52.96778,"lng":35.72677},{"city":"Sarmakovo","state":"Kabardino-Balkariya Republic","population":9588,"lat":43.74556,"lng":43.20028},{"city":"Sokolovo-Kundryuchenskiy","state":"Rostov","population":9585,"lat":47.83536,"lng":39.94711},{"city":"Morki","state":"Mariy-El Republic","population":9568,"lat":56.43244,"lng":48.99904},{"city":"Mga","state":"Leningradskaya Oblast'","population":9565,"lat":59.75,"lng":31.06667},{"city":"Zheshart","state":"Komi","population":9534,"lat":62.07314,"lng":49.57335},{"city":"Oblivskaya","state":"Rostov","population":9528,"lat":48.53616,"lng":42.50143},{"city":"Raduzhnyy","state":"Komi","population":9514,"lat":59.48333,"lng":49.65},{"city":"Vatutinki","state":"Moscow","population":9502,"lat":55.4965,"lng":37.32988},{"city":"Chamzinka","state":"Mordoviya Republic","population":9500,"lat":54.405,"lng":45.78779},{"city":"Kamenka","state":"Voronezh Oblast","population":9450,"lat":51.3223,"lng":42.7678},{"city":"Maksatikha","state":"Tver Oblast","population":9441,"lat":57.79695,"lng":35.88254},{"city":"Taman’","state":"Krasnodar Krai","population":9417,"lat":45.2117,"lng":36.71609},{"city":"Suzëmka","state":"Bryansk Oblast","population":9394,"lat":52.31834,"lng":34.07899},{"city":"Verkhniye Achaluki","state":"Ingushetiya Republic","population":9393,"lat":43.34694,"lng":44.6975},{"city":"Yershovo","state":"Moscow Oblast","population":9367,"lat":55.76911,"lng":36.85929},{"city":"Mendeleyevskiy","state":"Tula Oblast","population":9350,"lat":54.13745,"lng":37.58742},{"city":"Kosterevo","state":"Vladimir Oblast","population":9349,"lat":55.9299,"lng":39.61438},{"city":"Roshchino","state":"Leningradskaya Oblast'","population":9346,"lat":60.25191,"lng":29.6085},{"city":"Pochinok","state":"Smolensk Oblast","population":9310,"lat":54.40539,"lng":32.43909},{"city":"Grigoropolisskaya","state":"Stavropol Kray","population":9310,"lat":45.29722,"lng":41.05667},{"city":"Vëshenskaya","state":"Rostov","population":9303,"lat":49.63084,"lng":41.72521},{"city":"Gornyatskiy","state":"Rostov","population":9292,"lat":48.29649,"lng":40.92404},{"city":"Germenchuk","state":"Chechnya","population":9285,"lat":43.1857,"lng":45.921},{"city":"Bogorodskoye","state":"Moscow Oblast","population":9275,"lat":56.55,"lng":37.88333},{"city":"Perevoz","state":"Nizhny Novgorod Oblast","population":9228,"lat":55.5957,"lng":44.5454},{"city":"Krasnaya Gorbatka","state":"Vladimir Oblast","population":9225,"lat":55.87701,"lng":41.75508},{"city":"Andreapol’","state":"Tver Oblast","population":9209,"lat":56.65087,"lng":32.264},{"city":"Katyr-Yurt","state":"Chechnya","population":9202,"lat":43.17164,"lng":45.36991},{"city":"Bogorodskoye","state":"Moscow Oblast","population":9200,"lat":56.5,"lng":38.18333},{"city":"Ul’yanovka","state":"Leningradskaya Oblast'","population":9197,"lat":59.63944,"lng":30.76472},{"city":"Pokoynoye","state":"Stavropol Kray","population":9175,"lat":44.80972,"lng":44.25167},{"city":"Imeni Sverdlova","state":"Leningradskaya Oblast'","population":9151,"lat":59.79611,"lng":30.66583},{"city":"Torbeyevo","state":"Mordoviya Republic","population":9138,"lat":54.07743,"lng":43.24993},{"city":"Staritsa","state":"Tver Oblast","population":9134,"lat":56.50542,"lng":34.93396},{"city":"Ibresi","state":"Chuvash Republic","population":9113,"lat":55.3011,"lng":47.038},{"city":"Novosel’ye","state":"Leningradskaya Oblast'","population":9082,"lat":59.80778,"lng":30.07278},{"city":"Aksubayevo","state":"Tatarstan Republic","population":9078,"lat":54.84716,"lng":50.79631},{"city":"Pervomayskoye","state":"Dagestan","population":9073,"lat":43.91904,"lng":46.71019},{"city":"Krasnogvardeyskoye","state":"Adygeya Republic","population":9071,"lat":45.13235,"lng":39.57438},{"city":"Neklyudovo","state":"Nizhny Novgorod Oblast","population":9052,"lat":56.41421,"lng":43.97721},{"city":"Novosokol’niki","state":"Pskov Oblast","population":9029,"lat":56.34775,"lng":30.15681},{"city":"Trudobelikovskiy","state":"Krasnodar Krai","population":9013,"lat":45.26853,"lng":38.15376},{"city":"Oktyabr’skiy","state":"Arkhangelskaya","population":9008,"lat":61.08934,"lng":43.17177},{"city":"Pontonnyy","state":"St.-Petersburg","population":9001,"lat":59.78667,"lng":30.61528},{"city":"Gostagayevskaya","state":"Krasnodar Krai","population":9000,"lat":45.02284,"lng":37.50511},{"city":"Komsomol’sk","state":"Ivanovo Oblast","population":8975,"lat":57.02944,"lng":40.37566},{"city":"Mamedkala","state":"Dagestan","population":8965,"lat":42.16757,"lng":48.11671},{"city":"Lev Tolstoy","state":"Lipetsk Oblast","population":8955,"lat":53.20993,"lng":39.45431},{"city":"Serebryanyye Prudy","state":"Moscow Oblast","population":8953,"lat":54.4748,"lng":38.72791},{"city":"Vinsady","state":"Stavropol Kray","population":8949,"lat":44.08083,"lng":42.96528},{"city":"Tarasovskiy","state":"Rostov","population":8949,"lat":48.7296,"lng":40.36392},{"city":"Masalovka","state":"Rostov","population":8948,"lat":48.40372,"lng":40.26064},{"city":"Dubovka","state":"Tula Oblast","population":8946,"lat":53.95223,"lng":38.06276},{"city":"Balakirevo","state":"Vladimir Oblast","population":8932,"lat":56.50588,"lng":38.84324},{"city":"Rodnikovskaya","state":"Krasnodar Krai","population":8925,"lat":44.76444,"lng":40.66556},{"city":"Aksay","state":"Dagestan","population":8924,"lat":43.37254,"lng":46.44497},{"city":"Sernur","state":"Mariy-El Republic","population":8921,"lat":56.93583,"lng":49.14923},{"city":"Roslyakovo","state":"Murmansk","population":8921,"lat":69.04303,"lng":33.19906},{"city":"Znamenka","state":"Tambov Oblast","population":8915,"lat":52.41836,"lng":41.43166},{"city":"Lukhovka","state":"Mordoviya Republic","population":8892,"lat":54.14844,"lng":45.25728},{"city":"Alkhan-Yurt","state":"Chechnya","population":8879,"lat":43.23179,"lng":45.57228},{"city":"Insar","state":"Mordoviya Republic","population":8837,"lat":53.86722,"lng":44.36915},{"city":"Vesëlyy","state":"Rostov","population":8820,"lat":47.09245,"lng":40.74209},{"city":"Mamontovka","state":"Moscow Oblast","population":8817,"lat":55.98083,"lng":37.81972},{"city":"Fastovetskaya","state":"Krasnodar Krai","population":8806,"lat":45.91889,"lng":40.15889},{"city":"Belinskiy","state":"Penza Oblast","population":8800,"lat":52.96474,"lng":43.41647},{"city":"Proletarskiy","state":"Belgorod Oblast","population":8786,"lat":50.79139,"lng":35.77306},{"city":"Novovelichkovskaya","state":"Krasnodar Krai","population":8774,"lat":45.27638,"lng":38.84165},{"city":"Shatki","state":"Nizhny Novgorod Oblast","population":8773,"lat":55.18774,"lng":44.12071},{"city":"Magas","state":"Ingushetiya Republic","population":8771,"lat":43.22257,"lng":44.77261},{"city":"Novyye Atagi","state":"Chechnya","population":8760,"lat":43.13528,"lng":45.77306},{"city":"Novoselitskoye","state":"Stavropol Kray","population":8723,"lat":44.75083,"lng":43.43694},{"city":"Ardatov","state":"Nizhny Novgorod Oblast","population":8710,"lat":55.23923,"lng":43.09557},{"city":"Yutsa","state":"Stavropol Kray","population":8702,"lat":43.95639,"lng":43.01278},{"city":"Razvilka","state":"Moscow Oblast","population":8701,"lat":55.59209,"lng":37.74085},{"city":"Lesnoy","state":"Moscow Oblast","population":8689,"lat":56.06667,"lng":37.91667},{"city":"Spassk-Ryazanskiy","state":"Ryazan Oblast","population":8655,"lat":54.40844,"lng":40.37664},{"city":"Bolgar","state":"Tatarstan Republic","population":8640,"lat":54.97417,"lng":49.03083},{"city":"Pachelma","state":"Penza Oblast","population":8620,"lat":53.24426,"lng":43.35205},{"city":"Kamenka","state":"Voronezh Oblast","population":8594,"lat":50.71368,"lng":39.42462},{"city":"Temirgoyevskaya","state":"Krasnodar Krai","population":8588,"lat":45.11414,"lng":40.28027},{"city":"Ardatov","state":"Mordoviya Republic","population":8584,"lat":54.84474,"lng":46.24399},{"city":"Novo-Talitsy","state":"Ivanovo Oblast","population":8563,"lat":57.00392,"lng":40.85936},{"city":"Naurskaya","state":"Chechnya","population":8550,"lat":43.64999,"lng":45.31127},{"city":"Chermen","state":"North Ossetia–Alania","population":8550,"lat":43.15186,"lng":44.71231},{"city":"Kizlyar","state":"North Ossetia–Alania","population":8544,"lat":43.70379,"lng":44.5944},{"city":"Pereyaslovskaya","state":"Krasnodar Krai","population":8542,"lat":45.84121,"lng":39.02379},{"city":"Strugi-Krasnyye","state":"Pskov Oblast","population":8518,"lat":58.2707,"lng":29.11172},