{"timezone":"Europe/Sofia","countries":{"Bulgaria":[{"city":"Sofia","state":"Sofia-Capital","population":1152556,"lat":42.69751,"lng":23.32415},{"city":"Plovdiv","state":"Plovdiv","population":329489,"lat":42.15387,"lng":24.75001},{"city":"Varna","state":"Varna","population":318737,"lat":43.21912,"lng":27.91024},{"city":"Burgas","state":"Burgas","population":210646,"lat":42.50651,"lng":27.46886},{"city":"Stara Zagora","state":"Stara Zagora","population":121582,"lat":42.43205,"lng":25.64262},{"city":"Ruse","state":"Ruse","population":121168,"lat":43.84872,"lng":25.9534},{"city":"Pleven","state":"Pleven","population":90209,"lat":43.41791,"lng":24.61666},{"city":"Sliven","state":"Sliven","population":83740,"lat":42.68607,"lng":26.32558},{"city":"Pernik","state":"Pernik","population":82467,"lat":42.59671,"lng":23.03318},{"city":"Shumen","state":"Shumen","population":72342,"lat":43.27064,"lng":26.92286},{"city":"Dobrich","state":"Dobrich","population":69434,"lat":43.56491,"lng":27.83138},{"city":"Blagoevgrad","state":"Blagoevgrad","population":67810,"lat":42.01457,"lng":23.09804},{"city":"Haskovo","state":"Haskovo","population":64564,"lat":41.93415,"lng":25.55557},{"city":"Yambol","state":"Yambol","population":63656,"lat":42.48243,"lng":26.50006},{"city":"Veliko Tŭrnovo","state":"Veliko Tarnovo","population":59166,"lat":43.08124,"lng":25.62904},{"city":"Pazardzhik","state":"Pazardzhik","population":55220,"lat":42.19934,"lng":24.33318},{"city":"Asenovgrad","state":"Plovdiv","population":54778,"lat":42.01667,"lng":24.86667},{"city":"Vratsa","state":"Vratsa","population":49569,"lat":43.21052,"lng":23.56312},{"city":"Gabrovo","state":"Gabrovo","population":48133,"lat":42.87419,"lng":25.31823},{"city":"Kazanlak","state":"Stara Zagora","population":47918,"lat":42.61667,"lng":25.4},{"city":"Montana","state":"Montana","population":47445,"lat":43.41285,"lng":23.22174},{"city":"Kyustendil","state":"Kyustendil","population":46856,"lat":42.28314,"lng":22.69224},{"city":"Kardzhali","state":"Kardzhali","population":44071,"lat":41.64502,"lng":25.36578},{"city":"Dimitrovgrad","state":"Haskovo","population":38015,"lat":42.05,"lng":25.6},{"city":"Vidin","state":"Vidin","population":34797,"lat":43.99159,"lng":22.88236},{"city":"Targovishte","state":"Targovishte","population":34793,"lat":43.2512,"lng":26.57215},{"city":"Dupnitsa","state":"Kyustendil","population":34764,"lat":42.26478,"lng":23.11723},{"city":"Gorna Oryahovitsa","state":"Veliko Tarnovo","population":32792,"lat":43.12778,"lng":25.70167},{"city":"Petrich","state":"Blagoevgrad","population":30722,"lat":41.39846,"lng":23.20702},{"city":"Smolyan","state":"Smolyan","population":30689,"lat":41.57439,"lng":24.71204},{"city":"Karlovo","state":"Plovdiv","population":30340,"lat":42.63333,"lng":24.8},{"city":"Svishtov","state":"Veliko Tarnovo","population":30157,"lat":43.61875,"lng":25.35033},{"city":"Silistra","state":"Silistra","population":29498,"lat":44.1171,"lng":27.26056},{"city":"Razgrad","state":"Razgrad","population":28931,"lat":43.53331,"lng":26.51849},{"city":"Sandanski","state":"Blagoevgrad","population":28510,"lat":41.56667,"lng":23.28333},{"city":"Lovech","state":"Lovech","population":27910,"lat":43.13227,"lng":24.71763},{"city":"Asparuhovo","state":"Varna","population":27000,"lat":43.18067,"lng":27.88823},{"city":"Samokov","state":"Sofia","population":26765,"lat":42.33855,"lng":23.55805},{"city":"Sevlievo","state":"Gabrovo","population":24582,"lat":43.02295,"lng":25.10364},{"city":"Nova Zagora","state":"Sliven","population":23625,"lat":42.48333,"lng":26.01667},{"city":"Troyan","state":"Lovech","population":21162,"lat":42.89427,"lng":24.71589},{"city":"Aytos","state":"Burgas","population":20986,"lat":42.70322,"lng":27.25464},{"city":"Botevgrad","state":"Sofia","population":20909,"lat":42.90799,"lng":23.79274},{"city":"Gotse Delchev","state":"Blagoevgrad","population":20522,"lat":41.56667,"lng":23.73333},{"city":"Velingrad","state":"Pazardzhik","population":20286,"lat":42.02754,"lng":23.99155},{"city":"Karnobat","state":"Burgas","population":19709,"lat":42.65,"lng":26.98333},{"city":"Panagyurishte","state":"Pazardzhik","population":19389,"lat":42.49518,"lng":24.19021},{"city":"Svilengrad","state":"Haskovo","population":19279,"lat":41.76836,"lng":26.19775},{"city":"Harmanli","state":"Haskovo","population":18931,"lat":41.93233,"lng":25.90172},{"city":"Peshtera","state":"Pazardzhik","population":18676,"lat":42.03372,"lng":24.29995},{"city":"Lom","state":"Montana","population":18593,"lat":43.8317,"lng":23.23793},{"city":"Parvomay","state":"Plovdiv","population":17000,"lat":42.1,"lng":25.21667},{"city":"Popovo","state":"Targovishte","population":16571,"lat":43.35,"lng":26.23333},{"city":"Rakovski","state":"Plovdiv","population":15782,"lat":42.28819,"lng":24.96779},{"city":"Chirpan","state":"Stara Zagora","population":15109,"lat":42.2,"lng":25.33333},{"city":"Berkovitsa","state":"Montana","population":15027,"lat":43.23741,"lng":23.12509},{"city":"Radnevo","state":"Stara Zagora","population":14667,"lat":42.3,"lng":25.93333},{"city":"Radomir","state":"Pernik","population":14494,"lat":42.54565,"lng":22.96553},{"city":"Ihtiman","state":"Sofia","population":14154,"lat":42.43821,"lng":23.81608},{"city":"Tryavna","state":"Gabrovo","population":13818,"lat":42.86667,"lng":25.5},{"city":"Provadia","state":"Varna","population":13755,"lat":43.18333,"lng":27.43333},{"city":"Pomorie","state":"Burgas","population":13714,"lat":42.56326,"lng":27.62986},{"city":"Nesebar","state":"Burgas","population":13347,"lat":42.65921,"lng":27.73602},{"city":"Novi Pazar","state":"Shumen","population":13276,"lat":43.35,"lng":27.2},{"city":"Cherven Bryag","state":"Pleven","population":13000,"lat":43.27884,"lng":24.08251},{"city":"Balchik","state":"Dobrich","population":13000,"lat":43.42166,"lng":28.15848},{"city":"Razlog","state":"Blagoevgrad","population":12486,"lat":41.8863,"lng":23.46714},{"city":"Kostinbrod","state":"Sofia","population":12175,"lat":42.81667,"lng":23.21667},{"city":"Stamboliyski","state":"Plovdiv","population":12070,"lat":42.13333,"lng":24.53333},{"city":"Mezdra","state":"Vratsa","population":11975,"lat":43.15,"lng":23.7},{"city":"Levski","state":"Pleven","population":11467,"lat":43.36667,"lng":25.13333},{"city":"Kozloduy","state":"Vratsa","population":11331,"lat":43.77691,"lng":23.73001},{"city":"Kavarna","state":"Dobrich","population":11205,"lat":43.43601,"lng":28.33953},{"city":"Pavlikeni","state":"Veliko Tarnovo","population":11151,"lat":43.24278,"lng":25.32194},{"city":"Etropole","state":"Sofia","population":11031,"lat":42.8328,"lng":23.99636},{"city":"Teteven","state":"Lovech","population":10790,"lat":42.91667,"lng":24.26667},{"city":"Elhovo","state":"Yambol","population":10424,"lat":42.16667,"lng":26.56667},{"city":"Byala Slatina","state":"Vratsa","population":10282,"lat":43.46667,"lng":23.93333},{"city":"Lukovit","state":"Lovech","population":9792,"lat":43.2,"lng":24.16667},{"city":"Zlatni Pyasatsi","state":"Varna","population":9760,"lat":43.285,"lng":28.0418},{"city":"Isperih","state":"Razgrad","population":9735,"lat":43.71667,"lng":26.83333},{"city":"Sredets","state":"Burgas","population":9573,"lat":42.34747,"lng":27.17898},{"city":"Veliki Preslav","state":"Shumen","population":9425,"lat":43.16667,"lng":26.81667},{"city":"Bansko","state":"Blagoevgrad","population":9232,"lat":41.8361,"lng":23.48745},{"city":"Tutrakan","state":"Silistra","population":9214,"lat":44.04906,"lng":26.61206},{"city":"Omurtag","state":"Targovishte","population":9070,"lat":43.1,"lng":26.41667},{"city":"Kubrat","state":"Razgrad","population":8980,"lat":43.79658,"lng":26.50063},{"city":"Svoge","state":"Sofia","population":8964,"lat":42.96667,"lng":23.35},{"city":"Krichim","state":"Plovdiv","population":8580,"lat":42.05,"lng":24.46667},{"city":"Lyaskovets","state":"Veliko Tarnovo","population":8488,"lat":43.11111,"lng":25.72833},{"city":"Gŭlŭbovo","state":"Stara Zagora","population":8400,"lat":42.13333,"lng":25.85},{"city":"Rakitovo","state":"Pazardzhik","population":8376,"lat":41.99012,"lng":24.0873},{"city":"Dryanovo","state":"Gabrovo","population":8346,"lat":42.97897,"lng":25.4785},{"city":"Devnya","state":"Varna","population":8171,"lat":43.22222,"lng":27.56944},{"city":"Pirdop","state":"Sofia","population":8136,"lat":42.7,"lng":24.18333},{"city":"Septemvri","state":"Pazardzhik","population":8071,"lat":42.22016,"lng":24.11854},{"city":"Lyubimets","state":"Haskovo","population":8065,"lat":41.84432,"lng":26.08115},{"city":"Beloslav","state":"Varna","population":7989,"lat":43.18717,"lng":27.70352},{"city":"Hisarya","state":"Plovdiv","population":7903,"lat":42.5,"lng":24.7},{"city":"General Toshevo","state":"Dobrich","population":7758,"lat":43.70123,"lng":28.03787},{"city":"Slivnitsa","state":"Sofia","population":7545,"lat":42.85182,"lng":23.03792},{"city":"Varshets","state":"Montana","population":7512,"lat":43.19356,"lng":23.2868},{"city":"Belene","state":"Pleven","population":7487,"lat":43.65062,"lng":25.1343},{"city":"Devin","state":"Smolyan","population":7393,"lat":41.74327,"lng":24.40003},{"city":"Simeonovgrad","state":"Haskovo","population":7388,"lat":42.03333,"lng":25.83333},{"city":"Elin Pelin","state":"Sofia","population":7373,"lat":42.66667,"lng":23.6},{"city":"Zlatograd","state":"Smolyan","population":7331,"lat":41.3795,"lng":25.09605},{"city":"Dolni Chiflik","state":"Varna","population":7169,"lat":42.99296,"lng":27.71596},{"city":"Aksakovo","state":"Varna","population":7132,"lat":43.25907,"lng":27.81755},{"city":"Knezha","state":"Pleven","population":6889,"lat":43.5,"lng":24.08333},{"city":"Tervel","state":"Dobrich","population":6808,"lat":43.74789,"lng":27.40911},{"city":"Dulovo","state":"Silistra","population":6788,"lat":43.81667,"lng":27.15},{"city":"Simitli","state":"Blagoevgrad","population":6729,"lat":41.88333,"lng":23.11667},{"city":"Tvarditsa","state":"Sliven","population":6519,"lat":42.7,"lng":25.9},{"city":"Topolovgrad","state":"Haskovo","population":6464,"lat":42.08333,"lng":26.33333},{"city":"Saedinenie","state":"Plovdiv","population":6427,"lat":42.26667,"lng":24.55},{"city":"Kotel","state":"Sliven","population":6421,"lat":42.88333,"lng":26.45},{"city":"Lozen","state":"Sofia-Capital","population":6312,"lat":42.6027,"lng":23.47589},{"city":"Bobov Dol","state":"Kyustendil","population":6184,"lat":42.36378,"lng":22.99827},{"city":"Tsarevo","state":"Burgas","population":6085,"lat":42.16955,"lng":27.84541},{"city":"Elena","state":"Veliko Tarnovo","population":6042,"lat":42.93333,"lng":25.88333},{"city":"Yakoruda","state":"Blagoevgrad","population":6008,"lat":42.02528,"lng":23.68417},{"city":"Straldzha","state":"Yambol","population":5817,"lat":42.6,"lng":26.68333},{"city":"Zlatitsa","state":"Sofia","population":5786,"lat":42.71667,"lng":24.13333},{"city":"Strazhitsa","state":"Veliko Tarnovo","population":5728,"lat":43.23333,"lng":25.96667},{"city":"Belogradchik","state":"Vidin","population":5688,"lat":43.62722,"lng":22.68361},{"city":"Polski Trambesh","state":"Veliko Tarnovo","population":5663,"lat":43.37233,"lng":25.63525},{"city":"Madan","state":"Smolyan","population":5661,"lat":41.49869,"lng":24.93973},{"city":"Chepelare","state":"Smolyan","population":5478,"lat":41.73333,"lng":24.68333},{"city":"Perushtitsa","state":"Plovdiv","population":5350,"lat":42.05,"lng":24.55},{"city":"Dalgopol","state":"Varna","population":5272,"lat":43.05,"lng":27.35},{"city":"Krumovgrad","state":"Kardzhali","population":5271,"lat":41.47127,"lng":25.65485},{"city":"Dolni Dabnik","state":"Pleven","population":5259,"lat":43.4,"lng":24.43333},{"city":"Valchedram","state":"Montana","population":5207,"lat":43.69281,"lng":23.44518},{"city":"Vetovo","state":"Ruse","population":5175,"lat":43.7,"lng":26.26667},{"city":"Godech","state":"Sofia","population":5154,"lat":43.01682,"lng":23.04852},{"city":"Nedelino","state":"Smolyan","population":5017,"lat":41.45602,"lng":25.08008},{"city":"Oryahovo","state":"Vratsa","population":5007,"lat":43.73805,"lng":23.95874},{"city":"Dolna Banya","state":"Sofia","population":4990,"lat":42.31093,"lng":23.76459},{"city":"Kameno","state":"Burgas","population":4952,"lat":42.57084,"lng":27.29875},{"city":"Slavyanovo","state":"Pleven","population":4793,"lat":43.46667,"lng":24.86667},{"city":"Sapareva Banya","state":"Kyustendil","population":4610,"lat":42.28923,"lng":23.26313},{"city":"Bratsigovo","state":"Pazardzhik","population":4577,"lat":42.02391,"lng":24.37557},{"city":"Suvorovo","state":"Varna","population":4563,"lat":43.33058,"lng":27.59908},{"city":"Strelcha","state":"Pazardzhik","population":4545,"lat":42.5,"lng":24.31667},{"city":"Dve Mogili","state":"Ruse","population":4526,"lat":43.59258,"lng":25.87486},{"city":"Sozopol","state":"Burgas","population":4500,"lat":42.41801,"lng":27.6956},{"city":"Debelets","state":"Veliko Tarnovo","population":4418,"lat":43.03333,"lng":25.61667},{"city":"Pravets","state":"Sofia","population":4400,"lat":42.89163,"lng":23.91525},{"city":"Bozhurishte","state":"Sofia","population":4360,"lat":42.76305,"lng":23.19733},{"city":"Iskar","state":"Pleven","population":4329,"lat":43.45963,"lng":24.25739},{"city":"Smyadovo","state":"Shumen","population":4231,"lat":43.06667,"lng":27.01667},{"city":"Belovo","state":"Pazardzhik","population":4155,"lat":42.21395,"lng":24.01733},{"city":"Kresna","state":"Blagoevgrad","population":4117,"lat":41.73333,"lng":23.15},{"city":"Breznik","state":"Pernik","population":4020,"lat":42.74085,"lng":22.90723},{"city":"Tsar Kaloyan","state":"Razgrad","population":3994,"lat":43.61667,"lng":26.25},{"city":"Ivaylovgrad","state":"Haskovo","population":3969,"lat":41.52672,"lng":26.1249},{"city":"Batak","state":"Pazardzhik","population":3917,"lat":41.94307,"lng":24.21833},{"city":"Shabla","state":"Dobrich","population":3901,"lat":43.53983,"lng":28.53429},{"city":"Sveti Vlas","state":"Burgas","population":3875,"lat":42.7136,"lng":27.75867},{"city":"Apriltsi","state":"Lovech","population":3851,"lat":42.84142,"lng":24.91759},{"city":"Sungurlare","state":"Burgas","population":3834,"lat":42.76667,"lng":26.78333},{"city":"Dragoman","state":"Sofia","population":3814,"lat":42.92191,"lng":22.93109},{"city":"Varbitsa","state":"Shumen","population":3803,"lat":43.0,"lng":26.63333},{"city":"Rudozem","state":"Smolyan","population":3783,"lat":41.48751,"lng":24.84945},{"city":"Kula","state":"Vidin","population":3738,"lat":43.8879,"lng":22.52241},{"city":"Mizia","state":"Vratsa","population":3712,"lat":43.68623,"lng":23.85371},{"city":"Valchidol","state":"Varna","population":3697,"lat":43.4,"lng":27.55},{"city":"Krivodol","state":"Vratsa","population":3651,"lat":43.37444,"lng":23.48444},{"city":"Maglizh","state":"Stara Zagora","population":3643,"lat":42.6,"lng":25.55},{"city":"Kaspichan","state":"Shumen","population":3635,"lat":43.31667,"lng":27.16667},{"city":"Nikopol","state":"Pleven","population":3629,"lat":43.70528,"lng":24.89521},{"city":"Zavet","state":"Razgrad","population":3589,"lat":43.76036,"lng":26.68063},{"city":"Gulyantsi","state":"Pleven","population":3589,"lat":43.64109,"lng":24.69368},{"city":"Stara Kresna","state":"Blagoevgrad","population":3586,"lat":41.8,"lng":23.18333},{"city":"Roman","state":"Vratsa","population":3571,"lat":43.15,"lng":23.91667},{"city":"Primorsko","state":"Burgas","population":3531,"lat":42.26791,"lng":27.75611},{"city":"Ardino","state":"Kardzhali","population":3531,"lat":41.58322,"lng":25.13371},{"city":"Letnitsa","state":"Lovech","population":3528,"lat":43.31167,"lng":25.07333},{"city":"Sarnitsa","state":"Pazardzhik","population":3511,"lat":41.73835,"lng":24.02435},{"city":"Dolna Mitropolia","state":"Pleven","population":3479,"lat":43.46667,"lng":24.53333},{"city":"Dunavtsi","state":"Vidin","population":3371,"lat":43.92111,"lng":22.82111},{"city":"Malko Tarnovo","state":"Burgas","population":3336,"lat":41.97958,"lng":27.52477},{"city":"Dzhebel","state":"Kardzhali","population":3329,"lat":41.49566,"lng":25.30363},{"city":"Sarafovo","state":"Burgas","population":3290,"lat":42.56079,"lng":27.52195},{"city":"Buhovo","state":"Sofia-Capital","population":3283,"lat":42.76667,"lng":23.56667},{"city":"Laki","state":"Plovdiv","population":3258,"lat":41.85,"lng":24.81667},{"city":"Slivo Pole","state":"Ruse","population":3252,"lat":43.94248,"lng":26.20464},{"city":"Kalofer","state":"Plovdiv","population":3248,"lat":42.61667,"lng":24.98333},{"city":"Yablanitsa","state":"Lovech","population":3237,"lat":43.02813,"lng":24.10244},{"city":"Pavel Banya","state":"Stara Zagora","population":3212,"lat":42.6,"lng":25.2},{"city":"Hadzhidimovo","state":"Blagoevgrad","population":3167,"lat":41.52222,"lng":23.86861},{"city":"Belitsa","state":"Blagoevgrad","population":3166,"lat":41.95077,"lng":23.55831},{"city":"Nikolaevo","state":"Stara Zagora","population":3160,"lat":42.63333,"lng":25.8},{"city":"Tran","state":"Pernik","population":3102,"lat":42.83528,"lng":22.65167},{"city":"Borino","state":"Smolyan","population":3084,"lat":41.68534,"lng":24.29023},{"city":"Byala Cherkva","state":"Veliko Tarnovo","population":3010,"lat":43.2,"lng":25.3},{"city":"Rila","state":"Kyustendil","population":3002,"lat":42.12625,"lng":23.13283},{"city":"Opaka","state":"Targovishte","population":3002,"lat":43.45,"lng":26.16667},{"city":"Loznitsa","state":"Razgrad","population":2971,"lat":43.36667,"lng":26.6},{"city":"Ugarchin","state":"Lovech","population":2965,"lat":43.1,"lng":24.41667},{"city":"Borovan","state":"Vratsa","population":2941,"lat":43.42959,"lng":23.75331},{"city":"Koynare","state":"Pleven","population":2926,"lat":43.35,"lng":24.13333},{"city":"Bregovo","state":"Vidin","population":2892,"lat":44.15191,"lng":22.63877},{"city":"Gurkovo","state":"Stara Zagora","population":2889,"lat":42.66667,"lng":25.8},{"city":"Koprivshtitsa","state":"Sofia","population":2885,"lat":42.63333,"lng":24.35},{"city":"Kocherinovo","state":"Kyustendil","population":2872,"lat":42.08439,"lng":23.0571},{"city":"Parvomaytsi","state":"Veliko Tarnovo","population":2867,"lat":43.15,"lng":25.65},{"city":"Dospat","state":"Smolyan","population":2802,"lat":41.64462,"lng":24.15857},{"city":"Kaloyanovo","state":"Plovdiv","population":2782,"lat":42.35,"lng":24.73333},{"city":"Medkovets","state":"Montana","population":2690,"lat":43.62403,"lng":23.16876},{"city":"Yakimovo","state":"Montana","population":2665,"lat":43.63472,"lng":23.3535},{"city":"Sadovo","state":"Plovdiv","population":2656,"lat":42.13178,"lng":24.93999},{"city":"Topolovo","state":"Plovdiv","population":2600,"lat":41.9,"lng":25.0},{"city":"Ravda","state":"Burgas","population":2556,"lat":42.64185,"lng":27.67713},{"city":"Batanovtsi","state":"Pernik","population":2519,"lat":42.59692,"lng":22.95634},{"city":"Kilifarevo","state":"Veliko Tarnovo","population":2497,"lat":42.98333,"lng":25.63333},{"city":"Zlataritsa","state":"Veliko Tarnovo","population":2468,"lat":43.05,"lng":25.9},{"city":"Satovcha","state":"Blagoevgrad","population":2382,"lat":41.61667,"lng":23.98333},{"city":"Suhindol","state":"Veliko Tarnovo","population":2364,"lat":43.19167,"lng":25.18111},{"city":"Ruen","state":"Burgas","population":2339,"lat":42.8,"lng":27.28333},{"city":"Byala","state":"Varna","population":2327,"lat":42.87426,"lng":27.88865},{"city":"Samuil","state":"Razgrad","population":2283,"lat":43.51667,"lng":26.75},{"city":"Borovo","state":"Ruse","population":2232,"lat":43.49802,"lng":25.8082},{"city":"Pordim","state":"Pleven","population":2230,"lat":43.38333,"lng":24.85},{"city":"Tsenovo","state":"Ruse","population":2229,"lat":43.53588,"lng":25.65764},{"city":"Hayredin","state":"Vratsa","population":2228,"lat":43.60193,"lng":23.66135},{"city":"Kermen","state":"Sliven","population":2222,"lat":42.5,"lng":26.25},{"city":"Glavinitsa","state":"Silistra","population":2220,"lat":43.91667,"lng":26.83333},{"city":"Chernomorets","state":"Burgas","population":2194,"lat":42.44408,"lng":27.63902},{"city":"Boychinovtsi","state":"Montana","population":2181,"lat":43.47058,"lng":23.33499},{"city":"Aheloy","state":"Burgas","population":2112,"lat":42.64987,"lng":27.64838},{"city":"Zemen","state":"Pernik","population":2107,"lat":42.47889,"lng":22.74917},{"city":"Obzor","state":"Burgas","population":2002,"lat":42.81998,"lng":27.88007},{"city":"Brezovo","state":"Plovdiv","population":1947,"lat":42.34666,"lng":25.07618},{"city":"Chiprovtsi","state":"Montana","population":1941,"lat":43.38417,"lng":22.88083},{"city":"Alfatar","state":"Silistra","population":1916,"lat":43.94691,"lng":27.28587},{"city":"Mirkovo","state":"Sofia","population":1882,"lat":42.7,"lng":23.98333},{"city":"Gramada","state":"Vidin","population":1872,"lat":43.83738,"lng":22.65279},{"city":"Garmen","state":"Blagoevgrad","population":1838,"lat":41.6,"lng":23.81667},{"city":"Boboshevo","state":"Kyustendil","population":1784,"lat":42.15323,"lng":23.00037},{"city":"Chelopech","state":"Sofia","population":1760,"lat":42.7,"lng":24.08333},{"city":"Brusartsi","state":"Montana","population":1734,"lat":43.66325,"lng":23.06692},{"city":"Krushari","state":"Dobrich","population":1722,"lat":43.81675,"lng":27.75552},{"city":"Kolarovo","state":"Blagoevgrad","population":1697,"lat":41.36385,"lng":23.10669},{"city":"Anton","state":"Sofia","population":1697,"lat":42.73501,"lng":24.25958},{"city":"Shipka","state":"Stara Zagora","population":1604,"lat":42.71172,"lng":25.3353},{"city":"Novo Selo","state":"Vidin","population":1574,"lat":44.16214,"lng":22.78376},{"city":"Antonovo","state":"Targovishte","population":1543,"lat":43.15022,"lng":26.16032},{"city":"Kaolinovo","state":"Shumen","population":1537,"lat":43.61667,"lng":27.11667},{"city":"Gorna Malina","state":"Sofia","population":1501,"lat":42.68333,"lng":23.7},{"city":"Klisura","state":"Plovdiv","population":1485,"lat":42.69334,"lng":24.45019},{"city":"Dimovo","state":"Vidin","population":1461,"lat":43.74167,"lng":22.72694},{"city":"Senovo","state":"Ruse","population":1459,"lat":43.65,"lng":26.36667},{"city":"Venets","state":"Shumen","population":1450,"lat":43.55,"lng":26.93333},{"city":"Chavdar","state":"Sofia","population":1398,"lat":42.65,"lng":24.05},{"city":"Balgarevo","state":"Varna","population":1375,"lat":43.40296,"lng":28.41189},{"city":"Vetrino","state":"Varna","population":1368,"lat":43.31667,"lng":27.43333},{"city":"Bolyarovo","state":"Yambol","population":1368,"lat":42.14868,"lng":26.81022},{"city":"Mineralni Bani","state":"Haskovo","population":1367,"lat":41.91667,"lng":25.35},{"city":"Madzharovo","state":"Haskovo","population":1319,"lat":41.63461,"lng":25.86439},{"city":"Gara Hitrino","state":"Shumen","population":1302,"lat":43.43333,"lng":26.91667},{"city":"Banite","state":"Smolyan","population":1279,"lat":41.61667,"lng":25.01667},{"city":"Ruzhintsi","state":"Vidin","population":1269,"lat":43.62179,"lng":22.83286},{"city":"Pliska","state":"Shumen","population":1263,"lat":43.36667,"lng":27.11667},{"city":"Bata","state":"Burgas","population":1235,"lat":42.73816,"lng":27.49722},{"city":"Lesichovo","state":"Pazardzhik","population":1206,"lat":42.35626,"lng":24.1119},{"city":"Sitovo","state":"Silistra","population":1140,"lat":44.0273,"lng":27.01982},{"city":"Kiten","state":"Varna","population":1115,"lat":43.08333,"lng":27.31667},{"city":"Kiten","state":"Burgas","population":1115,"lat":42.23424,"lng":27.7749},{"city":"Kaynardzha","state":"Silistra","population":1107,"lat":43.99278,"lng":27.50713},{"city":"Ahtopol","state":"Burgas","population":1107,"lat":42.10013,"lng":27.94361},{"city":"Strumyani","state":"Blagoevgrad","population":1058,"lat":41.63333,"lng":23.2},{"city":"Gyovren","state":"Smolyan","population":1040,"lat":41.66326,"lng":24.37557},{"city":"Rupite","state":"Blagoevgrad","population":1037,"lat":41.44245,"lng":23.24168},{"city":"Ivanovo","state":"Ruse","population":1031,"lat":43.68568,"lng":25.95565},{"city":"Bratya Daskalovi","state":"Stara Zagora","population":997,"lat":42.30155,"lng":25.21205},{"city":"Nikola-Kozlevo","state":"Shumen","population":988,"lat":43.56667,"lng":27.23333},{"city":"Bliznatsi","state":"Varna","population":940,"lat":43.06192,"lng":27.86797},{"city":"Kranevo","state":"Dobrich","population":922,"lat":43.34157,"lng":28.05759},{"city":"Boynitsa","state":"Vidin","population":884,"lat":43.9573,"lng":22.53238},{"city":"Avren","state":"Varna","population":883,"lat":43.11667,"lng":27.66667},{"city":"Chuprene","state":"Vidin","population":842,"lat":43.51806,"lng":22.66611},{"city":"Borovets","state":"Kyustendil","population":800,"lat":42.10566,"lng":23.02003},{"city":"Nevestino","state":"Kyustendil","population":779,"lat":42.25465,"lng":22.84899},{"city":"Krushovene","state":"Pleven","population":756,"lat":43.64349,"lng":24.40147},{"city":"Georgi Damyanovo","state":"Montana","population":748,"lat":43.38611,"lng":23.03056},{"city":"Vinograd","state":"Veliko Tarnovo","population":731,"lat":43.33333,"lng":25.83333},{"city":"Kirkovo","state":"Kardzhali","population":700,"lat":41.32715,"lng":25.36379},{"city":"Makresh","state":"Vidin","population":660,"lat":43.76794,"lng":22.66406},{"city":"Lozenets","state":"Burgas","population":629,"lat":42.20878,"lng":27.80627},{"city":"Stambolovo","state":"Haskovo","population":610,"lat":41.76667,"lng":25.65},{"city":"Opan","state":"Stara Zagora","population":525,"lat":42.21667,"lng":25.7},{"city":"Porominovo","state":"Kyustendil","population":514,"lat":42.07641,"lng":23.08592},{"city":"Zelenikovo","state":"Plovdiv","population":0,"lat":42.4,"lng":25.08333},{"city":"Tochilari","state":"Razgrad","population":0,"lat":43.85,"lng":26.46667},{"city":"Spasovo","state":"Dobrich","population":0,"lat":43.70168,"lng":28.30399},{"city":"Medovene","state":"Razgrad","population":0,"lat":43.76667,"lng":26.51667},{"city":"Lakatnik","state":"Sofia","population":0,"lat":43.05,"lng":23.4},{"city":"Iskar","state":"Pleven","population":0,"lat":43.6708,"lng":24.45233},{"city":"Gorichevo","state":"Razgrad","population":0,"lat":43.85,"lng":26.45},{"city":"Gabrovo","state":"Kardzhali","population":0,"lat":41.8,"lng":25.26667},{"city":"Elkhovo","state":"Stara Zagora","population":0,"lat":42.57572,"lng":25.74801},{"city":"Bov","state":"Sofia","population":0,"lat":43.03257,"lng":23.37751}]}}