{"timezone":"Indian/Mahe","countries":{"Seychelles":[{"city":"Victoria","state":"La Rivière Anglaise","population":22881,"lat":-4.62001,"lng":55.45501},{"city":"Cascade","state":"Cascade","population":7263,"lat":-4.66915,"lng":55.49952},{"city":"Perseverance","state":null,"population":6209,"lat":-4.60445,"lng":55.46428},{"city":"Baie Sainte Anne","state":"Baie Sainte Anne","population":5063,"lat":-4.31997,"lng":55.75338},{"city":"Anse Royale","state":"Anse Boileau","population":5046,"lat":-4.73771,"lng":55.50333},{"city":"Belombre","state":"Bel Ombre","population":4829,"lat":-4.61814,"lng":55.41268},{"city":"Baie Lazare","state":"Baie Lazare","population":4795,"lat":-4.74971,"lng":55.4754},{"city":"Anse aux Pins","state":"Anse-aux-Pins","population":4685,"lat":-4.686,"lng":55.522},{"city":"Plaisance","state":"Mont Fleuri","population":4622,"lat":-4.64085,"lng":55.46179},{"city":"Glacis","state":"Glacis","population":4496,"lat":-4.57578,"lng":55.4368},{"city":"Grand'Anse","state":"Grand Anse Praslin","population":4344,"lat":-4.33109,"lng":55.72206},{"city":"English River","state":"La Rivière Anglaise","population":4236,"lat":-4.61365,"lng":55.45475},{"city":"Anse Boileau","state":"Anse Boileau","population":4183,"lat":-4.71667,"lng":55.48333},{"city":"Bel Ombre","state":"Bel Ombre","population":4163,"lat":-4.61667,"lng":55.41667},{"city":"Beau Vallon","state":"Beau Vallon","population":4142,"lat":-4.62091,"lng":55.43015},{"city":"Grand'Anse","state":"Grand Anse Mahe","population":4140,"lat":-4.66667,"lng":55.46667},{"city":"Mont Fleuri","state":"Bel Air","population":4055,"lat":-4.62695,"lng":55.45427},{"city":"La Digue","state":"La Digue and Inner Islands","population":3934,"lat":-4.35544,"lng":55.83527},{"city":"Roche Caïman","state":"Roche Caiman","population":3828,"lat":-4.6401,"lng":55.46879},{"city":"Anse Royale","state":"Anse Royale","population":3818,"lat":-4.73333,"lng":55.51667},{"city":"Pointe La Rue","state":"Pointe La Rue","population":3750,"lat":-4.67323,"lng":55.5131},{"city":"Saint Louis","state":"Saint Louis","population":3692,"lat":-4.62457,"lng":55.44441},{"city":"Mont Buxton","state":"Mont Buxton","population":3383,"lat":-4.61638,"lng":55.44821},{"city":"Port Glaud","state":"Port Glaud","population":3243,"lat":-4.66256,"lng":55.41841},{"city":"Bel Air","state":"Bel Air","population":3129,"lat":-4.62947,"lng":55.44547},{"city":"Les Mamelles","state":"Les Mamelles","population":2719,"lat":-4.64584,"lng":55.46795},{"city":"Takamaka","state":"Takamaka","population":2580,"lat":-4.76667,"lng":55.5},{"city":"La Passe","state":"La Digue and Inner Islands","population":0,"lat":-4.34808,"lng":55.83269}]}}