{"timezone":"Pacific/Palau","countries":{"Palau":[{"city":"Koror","state":"Koror","population":14000,"lat":7.33978,"lng":134.47326},{"city":"Koror Town","state":"Koror","population":12676,"lat":7.34257,"lng":134.47888},{"city":"Medalaii Hamlet","state":"Koror","population":2284,"lat":7.34391,"lng":134.46588},{"city":"Ngerbeched Hamlet","state":"Koror","population":1404,"lat":7.33249,"lng":134.47623},{"city":"Ngerchemai Hamlet","state":"Koror","population":1376,"lat":7.35,"lng":134.4889},{"city":"Ngermid Hamlet","state":"Koror","population":1045,"lat":7.33983,"lng":134.50163},{"city":"Meyungs Hamlet","state":"Koror","population":938,"lat":7.35381,"lng":134.45963},{"city":"Kloulklubed","state":"Peleliu","population":702,"lat":7.04192,"lng":134.25561},{"city":"Ngerekebesang Hamlet","state":"Koror","population":693,"lat":7.35444,"lng":134.44648},{"city":"Iyebukel Hamlet","state":"Koror","population":640,"lat":7.34929,"lng":134.48594},{"city":"Ngerkeseuaol Hamlet","state":"Koror","population":639,"lat":7.34301,"lng":134.48949},{"city":"Meketii Hamlet","state":"Koror","population":637,"lat":7.34708,"lng":134.48299},{"city":"Ulimang","state":"Ngaraard","population":581,"lat":7.62416,"lng":134.64208},{"city":"Idid Hamlet","state":"Koror","population":537,"lat":7.34299,"lng":134.48373},{"city":"Ikelau Hamlet","state":"Koror","population":511,"lat":7.34139,"lng":134.48201},{"city":"Mengellang","state":"Ngarchelong","population":488,"lat":7.6957,"lng":134.63054},{"city":"Ngchesar Hamlet","state":"Ngchesar","population":300,"lat":7.46932,"lng":134.60991},{"city":"Melekeok Village","state":"Melekeok","population":271,"lat":7.49567,"lng":134.63671},{"city":"Ngchemiangel","state":"Aimeliik","population":270,"lat":7.44613,"lng":134.47678},{"city":"Ngerkeai","state":"Ngiwal","population":223,"lat":7.55456,"lng":134.63612},{"city":"Ngardmau","state":"Ngardmau","population":221,"lat":7.60986,"lng":134.5744},{"city":"Angaur State","state":"Angaur","population":188,"lat":6.90601,"lng":134.12997},{"city":"Kayangel","state":"Kayangel","population":188,"lat":8.08228,"lng":134.71725},{"city":"Imeong Hamlet","state":"Ngeremlengui","population":132,"lat":7.53134,"lng":134.52713},{"city":"Ngetkib","state":"Airai","population":62,"lat":7.36451,"lng":134.51484},{"city":"Tobi Village","state":"Hatohobei","population":44,"lat":3.00488,"lng":131.12168},{"city":"Sonsorol Village","state":"Sonsorol","population":30,"lat":5.32608,"lng":132.21943},{"city":"Ngerulmud","state":"Melekeok","population":1,"lat":7.50077,"lng":134.6238},{"city":"Ngereklmadel","state":"Ngatpang","population":0,"lat":7.48826,"lng":134.48562}]}}