{"timezone":"Pacific/Guadalcanal","countries":{"Solomon Islands":[{"city":"Honiara","state":"Honiara","population":56298,"lat":-9.43333,"lng":159.95},{"city":"Panatina","state":"Honiara","population":32712,"lat":-9.43215,"lng":160.00607},{"city":"Nggosi","state":"Guadalcanal Province","population":26009,"lat":-9.43056,"lng":159.92103},{"city":"Tandai","state":"Guadalcanal Province","population":24592,"lat":-9.44666,"lng":159.94549},{"city":"Kola'a","state":"Honiara","population":20783,"lat":-9.44112,"lng":159.97002},{"city":"Vura","state":"Honiara","population":18753,"lat":-9.44203,"lng":159.98877},{"city":"Malango","state":"Guadalcanal Province","population":15560,"lat":-9.42497,"lng":160.05329},{"city":"Vavaea","state":"Honiara","population":10813,"lat":-9.43611,"lng":159.95702},{"city":"Malango","state":"Guadalcanal Province","population":10532,"lat":-9.69523,"lng":159.71734},{"city":"Noro","state":"Western Province","population":7204,"lat":-8.22274,"lng":157.19978},{"city":"Gizo","state":"Western Province","population":7177,"lat":-8.10303,"lng":156.84186},{"city":"Auki","state":"Malaita Province","population":7020,"lat":-8.76778,"lng":160.69778},{"city":"Mbumburu","state":"Honiara","population":5806,"lat":-9.43333,"lng":159.93333},{"city":"Mataniko","state":"Honiara","population":5722,"lat":-9.43968,"lng":159.96257},{"city":"Rove - Lengakiki","state":"Honiara","population":4244,"lat":-9.42954,"lng":159.94191},{"city":"Munda","state":"Western Province","population":3144,"lat":-8.32799,"lng":157.26652},{"city":"Buala","state":"Isabel Province","population":2700,"lat":-8.14497,"lng":159.59212},{"city":"Kukum","state":"Honiara","population":2541,"lat":-9.43468,"lng":159.98193},{"city":"Kirakira","state":"Makira-Ulawa Province","population":2107,"lat":-10.45442,"lng":161.92045},{"city":"Tulagi","state":"Central Province","population":1750,"lat":-9.10306,"lng":160.15056},{"city":"Vuhokesa","state":"Honiara","population":1328,"lat":-9.4357,"lng":159.96305},{"city":"Taro","state":"Choiseul Province","population":1053,"lat":-6.71111,"lng":156.39722},{"city":"Lata","state":"Temotu Province","population":553,"lat":-10.725,"lng":165.79722}]}}